name	type	typecode	address	tel	pname	cityname	adname	gcj02_lon	gcj02_lat	wgs84_lon	wgs84_lat	合并坐标	大类	中类	小类
国家电网充电站(后湖小龙虾交易中心)	汽车服务;充电站;充电站	011100	后湖农场西城路	[]	湖北省	潜江市	潜江市	112.734522	30.384586	112.72878501879312	30.38713425670048	112.734522 30.384586	汽车服务	充电站	充电站
国家电网汽车充电站(湖北省荆州潜江市后湖小龙虾交易中心充电站)	汽车服务;充电站;充电站	011100	后湖小龙虾交易中心	[]	湖北省	潜江市	潜江市	112.734838	30.384618	112.72910072027638	30.38716606533105	112.734838 30.384618	汽车服务	充电站	充电站
特斯拉汽车充电站	汽车服务;充电站;充电站	011100	七喜国际大酒店	[]	湖北省	潜江市	潜江市	112.909018	30.375405	112.9034340481063	30.37813199016941	112.909018 30.375405	汽车服务	充电站	充电站
蔚来能源汽车充电站(蔚来超充站G50沪渝高速潜江生态龙虾城)	汽车服务;充电站;充电站	011100	中国潜江生态龙虾城	[]	湖北省	潜江市	潜江市	112.915152	30.391486	112.90956143332872	30.394207244993588	112.915152 30.391486	汽车服务	充电站	充电站
国家电网充电站(输配电工区大楼)	汽车服务;充电站;充电站	011100	园林街道办事处输配电工区大楼旁	15875592802	湖北省	潜江市	潜江市	112.876056	30.406794	112.87046552927778	30.40950265855412	112.876056 30.406794	汽车服务	充电站	充电站
潜江服务区国家电网电动汽车充电站(建设中)	汽车服务;充电站;充电站	011100	沪渝高速潜江服务区(武汉、上海方向)	[]	湖北省	潜江市	潜江市	112.909444	30.377985	112.90385952628262	30.380711397023106	112.909444 30.377985	汽车服务	充电站	充电站
潜江服务区国家电网电动汽车充电站(建设中)	汽车服务;充电站;充电站	011100	沪渝高速潜江服务区北侧	[]	湖北省	潜江市	潜江市	112.909239	30.380516	112.90365445456824	30.38324201802572	112.909239 30.380516	汽车服务	充电站	充电站
国家电网汽车充电站(湖北省荆州潜江市东区充电站)	汽车服务;充电站;充电站	011100	东区供电所	[]	湖北省	潜江市	潜江市	112.906723	30.357709	112.9011420229922	30.36043954737554	112.906723 30.357709	汽车服务	充电站	充电站
