name	type	typecode	address	tel	pname	cityname	adname	gcj02_lon	gcj02_lat	wgs84_lon	wgs84_lat	合并坐标	大类	中类	小类
星星充电汽车充电站(腾冲市热海景区)	汽车服务;充电站;充电站	11100	保山电力股份有限公司	4008280768	云南省	保山市	腾冲市	98.446402	24.945527	98.44593922977408	24.948380321731896	98.446402 24.945527	汽车服务	充电站	充电站
星星充电站(文庙泮池)	汽车服务;充电站;充电站	11100	竹子巷腾越镇中心学校东北侧约200米	[]	云南省	保山市	腾冲市	98.500696	25.027683	98.5003726665998	25.030669729572804	98.500696 25.027683	汽车服务	充电站	充电站
星星充电汽车充电站(保山市腾冲机场)	汽车服务;充电站;充电站	11100	保山市纪委	4008280768	云南省	保山市	腾冲市	98.48178	24.93647	98.4814027202939	24.939411582371555	98.48178 24.93647	汽车服务	充电站	充电站
星星充电汽车充电站(腾冲市和顺古镇)	汽车服务;充电站;充电站	11100	保山电力股份有限公司	4008280768	云南省	保山市	腾冲市	98.459642	25.014962	98.45920563251724	25.017835270505447	98.459642 25.014962	汽车服务	充电站	充电站
特来电充电站(腾冲市和顺1号停车场)	汽车服务;充电站;充电站	11100	５５６国道与翡翠路交叉口西南约160米	18608752218	云南省	保山市	腾冲市	98.465349	25.018168	98.4649262917274	25.021054883650137	98.465349 25.018168	汽车服务	充电站	充电站
星星充电汽车充电站(保山交运腾冲石头山快充站)	汽车服务;充电站;充电站	11100	石头山瑞兴路	4008280768	云南省	保山市	腾冲市	98.416262	25.036084	98.41576228335715	25.038887605236145	98.416262 25.036084	汽车服务	充电站	充电站
星星充电汽车充电站(保山交运腾冲诚信检测站快充站)	汽车服务;充电站;充电站	11100	石头山通达汽车修理有限公司腾冲诚信机动车检测有限公司	4008280768	云南省	保山市	腾冲市	98.417241	25.036535	98.41674176137494	25.039339191431274	98.417241 25.036535	汽车服务	充电站	充电站
星星充电汽车充电站(腾冲市政府)	汽车服务;充电站;充电站	11100	保山电力股份有限公司	4008280768	云南省	保山市	腾冲市	98.490375	25.020146	98.49002124030662	25.02310258779002	98.490375 25.020146	汽车服务	充电站	充电站
星星充电站(滇西抗战纪念馆)	汽车服务;充电站;充电站	11100	市滇西抗战纪念馆对面	4008280768	云南省	保山市	腾冲市	98.482589	25.026592	98.48221254641018	25.02952496812654	98.482589 25.026592	汽车服务	充电站	充电站
腾冲服务区国家电网电动汽车充电站	汽车服务;充电站;充电站	11100	保腾高速公路	[]	云南省	保山市	腾冲市	98.520915	24.964253	98.52065090299088	24.96730707777621	98.520915 24.964253	汽车服务	充电站	充电站
腾冲服务区国家电网电动汽车充电站	汽车服务;充电站;充电站	11100	S10保腾高速与腾冲服务区交叉口东南520米	[]	云南省	保山市	腾冲市	98.523381	24.965742	98.52312356019095	24.968802832638563	98.523381 24.965742	汽车服务	充电站	充电站
星星充电站(腾冲政务中心)	汽车服务;充电站;充电站	11100	腾冲市市政务中心旁	4008280768	云南省	保山市	腾冲市	98.484802	25.045468	98.48443158878533	25.04840529496326	98.484802 25.045468	汽车服务	充电站	充电站
星星充电汽车充电站(保能电力腾冲分公司)	汽车服务;充电站;充电站	11100	保山电力股份有限公司	4008280768	云南省	保山市	腾冲市	98.492746	25.011513	98.49239936526476	25.01447767790901	98.492746 25.011513	汽车服务	充电站	充电站
星星充电汽车充电站(腾冲建国酒店)	汽车服务;充电站;充电站	11100	建国酒店停车场	4008280768	云南省	保山市	腾冲市	98.506802	25.033883	98.50649659685538	25.03688740270951	98.506802 25.033883	汽车服务	充电站	充电站
星星充电汽车充电站(保山交运腾冲旅游客运站快充站)	汽车服务;充电站;充电站	11100	徐霞客环岛旁	4008280768	云南省	保山市	腾冲市	98.486753	25.001784	98.48638895159203	25.00473202672597	98.486753 25.001784	汽车服务	充电站	充电站
星星充电汽车充电站(腾冲文庙泮池)	汽车服务;充电站;充电站	11100	保山电力股份有限公司	4008280768	云南省	保山市	腾冲市	98.51027	25.038035	98.5099746560635	25.041049293397325	98.51027 25.038035	汽车服务	充电站	充电站
小鹏汽车汽车充电站(保山腾冲空港酒店小鹏目的地站)	汽车服务;充电站;充电站	11100	腾越街道宝峰路腾冲空港观光酒店	4008193388	云南省	保山市	腾冲市	98.480507	25.030364	98.48012457220952	25.03329055290396	98.480507 25.030364	汽车服务	充电站	充电站
星星充电汽车充电站(腾冲市永兴财富中心)	汽车服务;充电站;充电站	11100	保山电力股份有限公司	4008280768	云南省	保山市	腾冲市	98.495619	25.016242	98.49528079007732	25.01921474763456	98.495619 25.016242	汽车服务	充电站	充电站
星星充电汽车充电站(保山交运腾冲西部客运站快充站)	汽车服务;充电站;充电站	11100	腾冲西部客运站	4008280768	云南省	保山市	腾冲市	98.479302	25.053623	98.4789157979872	25.056543570917	98.479302 25.053623	汽车服务	充电站	充电站
星星充电站(腾冲全仁古街地下)	汽车服务;充电站;充电站	11100	步行街与东方路交叉口西约140米	4008280768	云南省	保山市	腾冲市	98.498752	25.021003	98.49842300697058	25.023984633049835	98.498752 25.021003	汽车服务	充电站	充电站
龙陵停车区电动汽车充电站	汽车服务;充电站;充电站	11100	[]	[]	云南省	保山市	龙陵县	98.67588	24.590293	98.67557162722797	24.59339202990793	98.67588 24.590293	汽车服务	充电站	充电站
潞江坝服务区云南交投新能源电动汽车快速充电站	汽车服务;充电站;充电站	11100		[]	云南省	保山市	隆阳区	98.87897	24.923809	98.8786064411432	24.9269772081516	98.87897 24.923809	汽车服务	充电站	充电站
特斯拉超级充电站(云南省保山潞江坝服务区-大理方向)	汽车服务;充电站;充电站	11100	杭瑞高速潞江坝服务区昆明方向	[]	云南省	保山市	隆阳区	98.87897	24.923735	98.87860644237692	24.926903217280056	98.87897 24.923735	汽车服务	充电站	充电站
潞江坝服务区云南交投新能源电动汽车快速充电站(建设中)	汽车服务;充电站;充电站	11100	杭瑞高速潞江坝服务区瑞丽方向	[]	云南省	保山市	隆阳区	98.877546	24.924139	98.8771820864472	24.92730581665636	98.877546 24.924139	汽车服务	充电站	充电站
蒲缥停车区云南交投电动汽车充电站	汽车服务;充电站;充电站	11100	[]	[]	云南省	保山市	隆阳区	99.018437	24.983964	99.01770480936392	24.98689443154331	99.018437 24.983964	汽车服务	充电站	充电站
龙江大桥停车区电动汽车充电站	汽车服务;充电站;充电站	11100		[]	云南省	保山市	腾冲市	98.667112	24.840141	98.66682314466708	24.84324985876136	98.667112 24.840141	汽车服务	充电站	充电站
龙江大桥停车区电动汽车充电站	汽车服务;充电站;充电站	11100	[]	[]	云南省	保山市	腾冲市	98.665238	24.840203	98.66495413508292	24.843315407359302	98.665238 24.840203	汽车服务	充电站	充电站
星星充电汽车充电站(腾龙石化)	汽车服务;充电站;充电站	11100	团田乡曼弄村(团田乡政府斜对面)	4008280768	云南省	保山市	腾冲市	98.64715	24.68219	98.64691462916494	24.685344688170712	98.64715 24.68219	汽车服务	充电站	充电站
星星充电汽车充电站(施甸县善洲林场)	汽车服务;充电站;充电站	11100	旧城乡善洲路善洲林场旁	4008280768	云南省	保山市	施甸县	99.189876	24.496398	99.189005721197	24.499334308897325	99.189876 24.496398	汽车服务	充电站	充电站
星星充电站(金甸湖岸)	汽车服务;充电站;充电站	11100	摩苍路旁	[]	云南省	保山市	施甸县	99.191376	24.728694	99.190502579079	24.731645271440417	99.191376 24.728694	汽车服务	充电站	充电站
星星充电汽车充电站(金甸湖岸)	汽车服务;充电站;充电站	11100	保山电力股份有限公司	4008280768	云南省	保山市	施甸县	99.179799	24.732372	99.17891148865544	24.735302086266348	99.179799 24.732372	汽车服务	充电站	充电站
云快充汽车充电站(吉利远程保山运营中心充电站)	汽车服务;充电站;充电站	11100	中商滇西(保山)国际农产品交易中心19栋158号	4008288517	云南省	保山市	隆阳区	99.17738	25.030166	99.1764830941139	25.033060552804468	99.17738 25.030166	汽车服务	充电站	充电站
星星充电汽车充电站(保山机场)	汽车服务;充电站;充电站	11100	保山电力股份有限公司	4008280768	云南省	保山市	隆阳区	99.165151	25.052191	99.1642379346598	25.05506003626937	99.165151 25.052191	汽车服务	充电站	充电站
星星充电站(青华湖公园)	汽车服务;充电站;充电站	11100	青华湖公园停车场	4008280768	云南省	保山市	隆阳区	99.201692	25.118227	99.2008211644484	25.12115566870952	99.201692 25.118227	汽车服务	充电站	充电站
保山联通汽车城汽车充电站	汽车服务;充电站;充电站	11100	永昌街道下村工业园区联通汽车城内	15770329820	云南省	保山市	隆阳区	99.196949	25.136654	99.19607305887742	25.13957376086494	99.196949 25.136654	汽车服务	充电站	充电站
特斯拉汽车充电站(云南申通站)	汽车服务;充电站;充电站	11100	永昌路第二建筑工程有限公司	[]	云南省	保山市	隆阳区	99.180483	25.12692	99.17958797718968	25.129811195313565	99.180483 25.12692	汽车服务	充电站	充电站
滇约充电保山站	汽车服务;充电站;充电站	11100	九隆街道民生路永昌兰郡A区北大门正对面	18725763552	云南省	保山市	隆阳区	99.17828	25.112462	99.17738248800082	25.115350153994832	99.17828 25.112462	汽车服务	充电站	充电站
星星充电汽车充电站(保山交运保山客运站快充站)	汽车服务;充电站;充电站	11100	杭瑞高速和保岫东路交汇处	4008280768	云南省	保山市	隆阳区	99.184696	25.107382	99.18380664640767	25.110282464506486	99.184696 25.107382	汽车服务	充电站	充电站
星星充电站(永昌分公司)	汽车服务;充电站;充电站	11100	玉泉路明通酒店玉泉路店西侧约140米	4008280768	云南省	保山市	隆阳区	99.176227	25.115678	99.17532679066298	25.11856204149033	99.176227 25.115678	汽车服务	充电站	充电站
星星充电汽车充电站(永昌会堂)	汽车服务;充电站;充电站	11100	学府路永昌大酒店东南侧约150米	[]	云南省	保山市	隆阳区	99.169995	25.133313	99.16908638403294	25.136183993416005	99.169995 25.133313	汽车服务	充电站	充电站
星星充电汽车充电站(保山交运交通驾校快充站)	汽车服务;充电站;充电站	11100	柳坝河	4008280768	云南省	保山市	隆阳区	99.180697	25.105005	99.1798027150438	25.10789827650947	99.180697 25.105005	汽车服务	充电站	充电站
星星充电汽车充电站(五洲国际广场)	汽车服务;充电站;充电站	11100	五里亭路与正阳北路交叉口	4008280768	云南省	保山市	隆阳区	99.174399	25.134307	99.17349604018344	25.137186259734086	99.174399 25.134307	汽车服务	充电站	充电站
汽车充电站(奥体中心保山)	汽车服务;充电站;充电站	11100	永昌街道保山奥体中心游泳馆北面一楼	4000871666	云南省	保山市	隆阳区	99.16622	25.113994	99.16530696459748	25.116859267330742	99.16622 25.113994	汽车服务	充电站	充电站
星星充电汽车充电站(保山市委)	汽车服务;充电站;充电站	11100	正阳北路256号	4008280768	云南省	保山市	隆阳区	99.169288	25.126192	99.16837862754856	25.12906214485841	99.169288 25.126192	汽车服务	充电站	充电站
星星充电汽车充电站(永昌会堂)	汽车服务;充电站;充电站	11100	保山电力股份有限公司	4008280768	云南省	保山市	隆阳区	99.170693	25.132589	99.16978529835954	25.135461361955883	99.170693 25.132589	汽车服务	充电站	充电站
特来电充电站(保山隆晟快速)	汽车服务;充电站;充电站	11100	永昌路南297号	13308755729	云南省	保山市	隆阳区	99.168824	25.101883	99.16791455301392	25.104754160677963	99.168824 25.101883	汽车服务	充电站	充电站
星星充电汽车充电站(保山市纪委)	汽车服务;充电站;充电站	11100	保山市纪委	4008280768	云南省	保山市	隆阳区	99.1655	25.121101	99.16458589750664	25.12396437555083	99.1655 25.121101	汽车服务	充电站	充电站
星星充电汽车充电站(保山市税务局)	汽车服务;充电站;充电站	11100	保山市税务局充电站停车场	4008280768	云南省	保山市	隆阳区	99.166159	25.125391	99.1652456422237	25.12825530210715	99.166159 25.125391	汽车服务	充电站	充电站
星星充电站(保山电力股份有限公司)	汽车服务;充电站;充电站	11100	正阳北路208号	4008280768	云南省	保山市	隆阳区	99.167781	25.121547	99.16686979439775	25.12441463462861	99.167781 25.121547	汽车服务	充电站	充电站
保山停车区电动汽车充电站	汽车服务;充电站;充电站	11100	G56杭瑞高速与保山停车区交叉口东60米	[]	云南省	保山市	隆阳区	99.215375	25.178172	99.2145133499036	25.18111632915557	99.215375 25.178172	汽车服务	充电站	充电站
保山停车区云南交投电动汽车充电站	汽车服务;充电站;充电站	11100	保山停车区与Ｇ５６杭瑞高速交叉口西约20米	[]	云南省	保山市	隆阳区	99.214776	25.179055	99.21391398608866	25.18199857127102	99.214776 25.179055	汽车服务	充电站	充电站
星星充电汽车充电站(保山市政府车队)	汽车服务;充电站;充电站	11100	市政府车队停车场	4008280768	云南省	保山市	隆阳区	99.156852	25.109606	99.15592750308814	25.11245430740709	99.156852 25.109606	汽车服务	充电站	充电站
星星充电汽车充电站(保山交运客运南站快充站)	汽车服务;充电站;充电站	11100	永昌路与011乡道交叉口东北约120米	4008280768	云南省	保山市	隆阳区	99.158658	25.090527	99.15773607075788	25.09338021491808	99.158658 25.090527	汽车服务	充电站	充电站
星星充电汽车充电站(保山交运隆阳区诚信检测站快充站)	汽车服务;充电站;充电站	11100	永盛街道工贸园区	4008280768	云南省	保山市	隆阳区	99.218788	25.058146	99.21793062877384	25.061103108269705	99.218788 25.058146	汽车服务	充电站	充电站
昌宁县图书馆	汽车服务;充电站;充电站	11100	田园镇滨河路4号	0875-7120159;18087503930	云南省	保山市	昌宁县	99.617517	24.828588	99.61666435653912	24.83176379836157	99.617517 24.828588	汽车服务	充电站	充电站
星星充电汽车充电站(茶韵公园)	汽车服务;充电站;充电站	11100	保山电力股份有限公司	4008280768	云南省	保山市	昌宁县	99.61893	24.821379	99.61807583574344	24.82455431976972	99.61893 24.821379	汽车服务	充电站	充电站
星星充电汽车充电站(昌宁体育馆)	汽车服务;充电站;充电站	11100	保山电力股份有限公司	4008280768	云南省	保山市	昌宁县	99.617265	24.828926	99.6164126396936	24.83210196816943	99.617265 24.828926	汽车服务	充电站	充电站
瓦房服务区怒江方向充电站	汽车服务;充电站;充电站	11100	G5613保泸高速入口与G5613保泸高速交叉口北140米	[]	云南省	保山市	隆阳区	99.061149	25.379401	99.06026234352352	25.38222570015676	99.061149 25.379401	汽车服务	充电站	充电站
星星充电汽车充电站(腾冲原乡玖璟)	汽车服务;充电站;充电站	11100	市曲石镇鸿发免烧砖厂	4008280768	云南省	保山市	腾冲市	98.590624	25.221442	98.5904595179938	25.224597142546443	98.590624 25.221442	汽车服务	充电站	充电站
勐古服务区云南交投新能源上行电动汽车充电站	汽车服务;充电站;充电站	11100	勐古服务区	[]	云南省	保山市	隆阳区	98.879511	25.554978	98.87913695357707	25.55818321204628	98.879511 25.554978	汽车服务	充电站	充电站
星星充电汽车充电站(腾冲原乡山居高黎)	汽车服务;充电站;充电站	11100	市曲石镇原乡·山居高黎原乡山居高黎A区	4008280768	云南省	保山市	腾冲市	98.603225	25.221068	98.6030548659432	25.224223617240884	98.603225 25.221068	汽车服务	充电站	充电站
星星充电汽车充电站(腾冲原乡流溪别院)	汽车服务;充电站;充电站	11100	曲石镇原乡·流溪别院	4008280768	云南省	保山市	腾冲市	98.586121	25.219228	98.585956631059	25.222381255307774	98.586121 25.219228	汽车服务	充电站	充电站
星星充电汽车充电站(腾冲原乡大龙井古镇)	汽车服务;充电站;充电站	11100	238省道与219国道交叉口北360米	4008280768	云南省	保山市	腾冲市	98.596675	25.221673	98.59650878617364	25.22482924429093	98.596675 25.221673	汽车服务	充电站	充电站
星星充电汽车充电站(保山交运腾冲固东客运站快充站)	汽车服务;充电站;充电站	11100	固东汽车客运站(腾冲市固东镇政府西北)	4008280768	云南省	保山市	腾冲市	98.48228	25.345828	98.48189740483862	25.34875511333038	98.48228 25.345828	汽车服务	充电站	充电站
小鹏汽车汽车充电站(腾冲花田篱下温泉度假酒店小鹏目的地站)	汽车服务;充电站;充电站	11100	界头镇番家寨花田篱下温泉度假酒店	4008193388	云南省	保山市	腾冲市	98.6719	25.375093	98.671589736084	25.37816988320192	98.6719 25.375093	汽车服务	充电站	充电站
小鹏汽车汽车充电站(腾冲千里走单骑温泉酒店小鹏目的地站)	汽车服务;充电站;充电站	11100	市曲石镇腾冲千里走单骑高黎贡庄园	4008193388	云南省	保山市	腾冲市	98.58326	25.21487	98.5830952086889	25.218021590721552	98.58326 25.21487	汽车服务	充电站	充电站
