name	type	typecode	address	tel	pname	cityname	adname	gcj02_lon	gcj02_lat	wgs84_lon	wgs84_lat	合并坐标	大类	中类	小类
云快充汽车充电站(中云智储晋宁康龙检测站充电站)	汽车服务;充电站;充电站	11100	昆阳东南绕城线1号康龙检测站内	4008288517	云南省	昆明市	晋宁区	102.589938	24.629917	102.588727844364	24.63308298538648	102.589938 24.629917	汽车服务	充电站	充电站
星星充电汽车充电站(云南省昆明市晋宁区北部枢纽站桩群)	汽车服务;充电站;充电站	11100	昆阳镇昆阳公交枢纽站	4008280768	云南省	昆明市	晋宁区	102.610718	24.65153	102.60949857235732	24.654694233945584	102.610718 24.65153	汽车服务	充电站	充电站
星星充电汽车充电站(云南省昆明市晋宁区昆阳汽车客运站桩群)	汽车服务;充电站;充电站	11100	昆阳汽车客运站内	4008280768	云南省	昆明市	晋宁区	102.61013	24.651824	102.6089110942451	24.65498855267214	102.61013 24.651824	汽车服务	充电站	充电站
余家海服务区国家电网电动汽车充电站	汽车服务;充电站;充电站	11100	Ｇ８５１１昆磨高速与余家海服务区交叉口东北约240米	15887813219	云南省	昆明市	晋宁区	102.653507	24.66074	102.65221374594498	24.663850609359685	102.653507 24.66074	汽车服务	充电站	充电站
余家海服务区国家电网电动汽车充电站	汽车服务;充电站;充电站	11100	G8511昆磨高速与余家海服务区交叉口东北540米	15887813219	云南省	昆明市	晋宁区	102.655946	24.662361	102.65464699314822	24.66546724266138	102.655946 24.662361	汽车服务	充电站	充电站
滇威充电站	汽车服务;充电站;充电站	11100	海口街道	18087115663	云南省	昆明市	西山区	102.543184	24.80642	102.5419109845413	24.80951587507568	102.543184 24.80642	汽车服务	充电站	充电站
云快充汽车充电站(海口工业园区新能源汽车充电站)	汽车服务;充电站;充电站	11100	海口工业园区(云南滇威新能源科技集团有限公司)	4008288517	云南省	昆明市	西山区	102.542784	24.808779	102.54151000477356	24.81187374251553	102.542784 24.808779	汽车服务	充电站	充电站
汽车充电站(君来顺海口工业园区快充)	汽车服务;充电站;充电站	11100	昆明绕城高速与昆孟线交叉路口处	15368008892	云南省	昆明市	西山区	102.544715	24.810783	102.54344531053044	24.813881918028944	102.544715 24.810783	汽车服务	充电站	充电站
邦驰充电晋宁汽车充电站(工业园区)	汽车服务;充电站;充电站	11100	工业园区青山片区	18208785163	云南省	昆明市	晋宁区	102.57652	24.710798	102.57530178922256	24.713955082568248	102.57652 24.710798	汽车服务	充电站	充电站
云南丽昆汽车充电站(晋宁二街)	汽车服务;充电站;充电站	11100	晋宁区二街工业园区倚阳路金龙洗涤有限公司院内	18183870027	云南省	昆明市	晋宁区	102.502111	24.687852	102.50072512828147	24.69084160703781	102.502111 24.687852	汽车服务	充电站	充电站
云安农林天下充电站	汽车服务;充电站;充电站	11100	金方街道浸普路8号	4008280768	云南省	昆明市	安宁市	102.519965	24.88456	102.51862836829513	24.88758717076968	102.519965 24.88456	汽车服务	充电站	充电站
晋宁服务区云南能投电动汽车充电站	汽车服务;充电站;充电站	11100	Ｇ５６０１昆明绕城高速与晋宁服务区交叉口北约260米	[]	云南省	昆明市	晋宁区	102.577754	24.677886	102.57653760157312	24.68104492723186	102.577754 24.677886	汽车服务	充电站	充电站
晋宁服务区云能充电动汽车充电车辆专用车位	汽车服务;充电站;充电站	11100		[]	云南省	昆明市	晋宁区	102.580337	24.678923	102.57912225205008	24.68208408743893	102.580337 24.678923	汽车服务	充电站	充电站
特来电充电站(安宁太平册峨苑)	汽车服务;充电站;充电站	11100	太平新城街道办册峨村	4001300001	云南省	昆明市	安宁市	102.599512	24.861577	102.59829418119674	24.86473216987564	102.599512 24.861577	汽车服务	充电站	充电站
天朗能源龙宝寺新能源汽车充电站	汽车服务;充电站;充电站	11100	百花东路5附近	[]	云南省	昆明市	安宁市	102.497509	24.922293	102.49610193505497	24.92524886194057	102.497509 24.922293	汽车服务	充电站	充电站
加路新能源宁湖充电站	汽车服务;充电站;充电站	11100	宁湖公园停车场内	[]	云南省	昆明市	安宁市	102.458424	24.913907	102.45690319435104	24.916755726907788	102.458424 24.913907	汽车服务	充电站	充电站
万福汽车充电站(安宁盐兴路市政府站)	汽车服务;充电站;充电站	11100	盐兴路停车场内(安宁市林业草原局对面)	0871-67353169	云南省	昆明市	安宁市	102.480284	24.920533	102.4788234953636	24.923438179712623	102.480284 24.920533	汽车服务	充电站	充电站
邦驰充电(安宁陆港国际物流站)	汽车服务;充电站;充电站	11100	大桃路小大段陆港国际物流园内	[]	云南省	昆明市	安宁市	102.517569	24.915818	102.51622437833645	24.91883444041966	102.517569 24.915818	汽车服务	充电站	充电站
汽车充电站(安宁鑫湖医院)	汽车服务;充电站;充电站	11100	大屯路与金屯路交叉口西南约140米	[]	云南省	昆明市	安宁市	102.46545	24.915973	102.46394722065548	24.91883857277459	102.46545 24.915973	汽车服务	充电站	充电站
特来电充电站(太平盈科商业中心)	汽车服务;充电站;充电站	11100	太平新城街道奥莱公园壹号院盈科苹果城	4001300001	云南省	昆明市	安宁市	102.579547	24.915578	102.57832534789564	24.91871930018721	102.579547 24.915578	汽车服务	充电站	充电站
特来电充电站(天朗能源龙宝寺)	汽车服务;充电站;充电站	11100	百花东路26号	0871-68690292	云南省	昆明市	安宁市	102.49782	24.922538	102.49641390992572	24.925494768450385	102.49782 24.922538	汽车服务	充电站	充电站
特来电充电站(安宁凤城春色快速)	汽车服务;充电站;充电站	11100	连然街道凤城春色	4001300001	云南省	昆明市	安宁市	102.486829	24.917132	102.48538859656512	24.920056609612008	102.486829 24.917132	汽车服务	充电站	充电站
千法万福充电站(安宁中南物流城站)(暂停营业)	汽车服务;充电站;充电站	11100	浸圆路中南物流城	0871-67353169	云南省	昆明市	安宁市	102.512807	24.90312	102.51144832080408	24.90612411974832	102.512807 24.90312	汽车服务	充电站	充电站
加路新能源职教园区汽车充电站	汽车服务;充电站;充电站	11100	经济管理学院3号门斜对面	[]	云南省	昆明市	安宁市	102.439562	24.89966	102.43800167830852	24.90247276215112	102.439562 24.89966	汽车服务	充电站	充电站
星星充电汽车充电站(安宁月丰广场)	汽车服务;充电站;充电站	11100	百花东路108号	4008280768	云南省	昆明市	安宁市	102.499029	24.922864	102.49762671787764	24.92582437312357	102.499029 24.922864	汽车服务	充电站	充电站
特来电充电站(天朗能源龙宝寺2期)	汽车服务;充电站;充电站	11100	百花东路26号	0871-68690292	云南省	昆明市	安宁市	102.497955	24.922641	102.49654933321504	24.925598162429576	102.497955 24.922641	汽车服务	充电站	充电站
汽车充电站(邦驰充电·南亚国际陆港物流站安宁)	汽车服务;充电站;充电站	11100	大桃路小大段桃花村东南509米	18208785163	云南省	昆明市	安宁市	102.517562	24.915778	102.51621735853666	24.91879442522676	102.517562 24.915778	汽车服务	充电站	充电站
汽车充电站(安宁工业园区)	汽车服务;充电站;充电站	11100	草铺街道麒腾路安宁工业园区中小企业科技孵化基地	[]	云南省	昆明市	安宁市	102.419247	24.91993	102.41766007622934	24.922715642219966	102.419247 24.91993	汽车服务	充电站	充电站
特来电充电站(昆明市安宁太平万辉星城)	汽车服务;充电站;充电站	11100	太平新城街道万辉·星城万辉·星城蓝山郡	4001300001	云南省	昆明市	安宁市	102.583713	24.925118	102.58249325229308	24.928261108627986	102.583713 24.925118	汽车服务	充电站	充电站
特来电充电站(天朗能源山海泉农贸市场)	汽车服务;充电站;充电站	11100	东湖社区珍泉东路山海泉农贸市场内	[]	云南省	昆明市	安宁市	102.49938	24.918048	102.49797896387608	24.92101003993687	102.49938 24.918048	汽车服务	充电站	充电站
云南千法汽车充电站(万福充电安宁盐兴路市政府站)	汽车服务;充电站;充电站	11100	盐兴路	0871-67353169	云南省	昆明市	安宁市	102.479717	24.919904	102.47825480995408	24.92280764233034	102.479717 24.919904	汽车服务	充电站	充电站
小鹏汽车汽车充电站(昆明安宁吾悦广场小鹏超充站)	汽车服务;充电站;充电站	11100	连然街道吾悦广场	4008193388	云南省	昆明市	安宁市	102.4842	24.926037	102.48275123612586	24.92895278331672	102.4842 24.926037	汽车服务	充电站	充电站
特来电充电站(安宁连然华府南苑)	汽车服务;充电站;充电站	11100	迎川路5号	4001300001	云南省	昆明市	安宁市	102.487689	24.921749	102.48625113000614	24.924675563574457	102.487689 24.921749	汽车服务	充电站	充电站
特来电充电站(安宁广晟沁园酒店)	汽车服务;充电站;充电站	11100	温泉镇沿川北路白塔桥旁广晟沁园温泉度假酒店	4001300001	云南省	昆明市	安宁市	102.463378	24.943339	102.46186892518776	24.94619590568077	102.463378 24.943339	汽车服务	充电站	充电站
星星充电汽车充电站(厚豆豆腐厂)	汽车服务;充电站;充电站	11100	团结街道办事处大河村99号	4008280768	云南省	昆明市	西山区	102.533651	25.074551	102.53234720306276	25.077592323129984	102.533651 25.074551	汽车服务	充电站	充电站
春雨路小桔充电站	汽车服务;充电站;充电站	11100	云南泰然汽车服务有限公司	4000610999	云南省	昆明市	西山区	102.620241	25.000009	102.61900133641608	25.003136418750103	102.620241 25.000009	汽车服务	充电站	充电站
西山区团结大兴充电站	汽车服务;充电站;充电站	11100	团结街道石照壁村对面	13888215554	云南省	昆明市	西山区	102.576246	24.978664	102.57502028567784	24.98179432025126	102.576246 24.978664	汽车服务	充电站	充电站
云快充汽车充电站(西山区铭坤长坡充电站)	汽车服务;充电站;充电站	11100	碧鸡街道长坡社区居民委员会停车场内	13888215554	云南省	昆明市	西山区	102.592937	24.966602	102.5917177684682	24.969743696435344	102.592937 24.966602	汽车服务	充电站	充电站
云快充汽车充电站(西山区团结大兴充电站)	汽车服务;充电站;充电站	11100	团结镇大兴社区石照壁村对面	13888215554	云南省	昆明市	西山区	102.576241	24.978805	102.5750152778618	24.98193529756148	102.576241 24.978805	汽车服务	充电站	充电站
云能充(兴华楼站)	汽车服务;充电站;充电站	11100	怡景路煤炭工人疗养院兴华楼	0871-68589884	云南省	昆明市	西山区	102.654884	24.976646	102.6535787198996	24.979727154820964	102.654884 24.976646	汽车服务	充电站	充电站
星星充电铭坤西部汽车充电站	汽车服务;充电站;充电站	11100	春雨路346号(西部汽车站地铁站D口步行50米)	[]	云南省	昆明市	西山区	102.637789	25.034819	102.63651923662228	25.03792116638044	102.637789 25.034819	汽车服务	充电站	充电站
滇约出行百集龙汽车充电站	汽车服务;充电站;充电站	11100	百集龙家居大厦E座一楼	[]	云南省	昆明市	西山区	102.649316	25.025845	102.64802215250194	25.028929859834445	102.649316 25.025845	汽车服务	充电站	充电站
云能充怡景园度假酒店充电站	汽车服务;充电站;充电站	11100	滇池路怡景园度假酒店立体车库3楼和4楼	15887813219	云南省	昆明市	西山区	102.664105	24.983093	102.66277730614954	24.98615631167829	102.664105 24.983093	汽车服务	充电站	充电站
汽车充电站(华享新能源春雨937工业文化创意园)	汽车服务;充电站;充电站	11100	春雨路913号	17611069175	云南省	昆明市	西山区	102.631807	25.024684	102.63054866604315	25.027795597997045	102.631807 25.024684	汽车服务	充电站	充电站
汽车充电站(德利邦马街)	汽车服务;充电站;充电站	11100	马街街道办事处旁停车场	13808791134	云南省	昆明市	西山区	102.639913	25.036973	102.63863895453837	25.04007176144904	102.639913 25.036973	汽车服务	充电站	充电站
汽车充电站(德利邦快乐海鲜)	汽车服务;充电站;充电站	11100	滇池路1282号快乐海鲜酒楼停车场	13808791134	云南省	昆明市	西山区	102.660513	24.985683	102.6591940132084	24.98875271361389	102.660513 24.985683	汽车服务	充电站	充电站
德利邦马街街道办事处充电站	汽车服务;充电站;充电站	11100	马街北路25号	[]	云南省	昆明市	西山区	102.647821	25.039702	102.64653010229289	25.042787785385634	102.647821 25.039702	汽车服务	充电站	充电站
云能充新能源汽车充电站	汽车服务;充电站;充电站	11100	昆州路西部旅客服务中心停车场	0871-68589884	云南省	昆明市	西山区	102.641313	25.03611	102.64003612574662	25.03920671984146	102.641313 25.03611	汽车服务	充电站	充电站
山高新能源摩根道充电站	汽车服务;充电站;充电站	11100	摩根道商业中心	[]	云南省	昆明市	西山区	102.666908	24.998862	102.6655729338236	25.00191802868097	102.666908 24.998862	汽车服务	充电站	充电站
小桔充电站	汽车服务;充电站;充电站	11100	景秀西苑-东1门	4000610999	云南省	昆明市	五华区	102.647247	25.054186	102.64595696602566	25.057271129544965	102.647247 25.054186	汽车服务	充电站	充电站
特来电充电站(昆明西部客运站医药物流中心)	汽车服务;充电站;充电站	11100	昆州路云南医药物流中心	4001300001	云南省	昆明市	西山区	102.64059	25.037708	102.63931456130238	25.04080564752817	102.64059 25.037708	汽车服务	充电站	充电站
特来电充电站(昆明融创文旅城1号停车场)	汽车服务;充电站;充电站	11100	碧鸡路和益宁路交叉口	4001300001	云南省	昆明市	西山区	102.651316	25.017536	102.6500178491196	25.020618396880725	102.651316 25.017536	汽车服务	充电站	充电站
开迈斯汽车充电站(昆明市融创文旅城站)	汽车服务;充电站;充电站	11100	花海街6号2号停车楼1层	4006657666	云南省	昆明市	西山区	102.651501	25.017777	102.65020241886552	25.02085904507937	102.651501 25.017777	汽车服务	充电站	充电站
星星充电汽车充电站(莹河新能源海埂大坝)	汽车服务;充电站;充电站	11100	湖滨路红河缘停车场	4008280768	云南省	昆明市	西山区	102.640643	24.956708	102.6393697040846	24.95981555884972	102.640643 24.956708	汽车服务	充电站	充电站
汽车充电站(昆明摩根道二期)	汽车服务;充电站;充电站	11100	滇池路与边防路交叉口东北260米	[]	云南省	昆明市	西山区	102.666966	24.998654	102.66563079584058	25.0017099442824	102.666966 24.998654	汽车服务	充电站	充电站
特来电汽车充电站(昆明融创文旅城1号停车场充电站)	汽车服务;充电站;充电站	11100	碧鸡路和益宁路交叉口	4001300001	云南省	昆明市	西山区	102.650085	25.017536	102.64878965030915	25.02062053071264	102.650085 25.017536	汽车服务	充电站	充电站
云南能投充电站(阳宗海风景名胜区旅游集散中心站)	汽车服务;充电站;充电站	11100	滇池路旅游度假区怡景路3号煤矿工人疗养院停车场内	15887813219	云南省	昆明市	西山区	102.654866	24.976204	102.65356077457535	24.97928524327144	102.654866 24.976204	汽车服务	充电站	充电站
云能充兴苑路电动汽车充电站	汽车服务;充电站;充电站	11100	兴苑路昆明锦城西北侧约70米	[]	云南省	昆明市	西山区	102.646663	25.036433	102.64537474524506	25.03952109617053	102.646663 25.036433	汽车服务	充电站	充电站
云南山高新能源电动汽车充电站	汽车服务;充电站;充电站	11100	滇池路摩根道地下停车场负二层	[]	云南省	昆明市	西山区	102.666615	24.998458	102.66528067175688	25.00151463537666	102.666615 24.998458	汽车服务	充电站	充电站
云能充兴苑路新能源汽车充电站	汽车服务;充电站;充电站	11100	兴苑路1001号	[]	云南省	昆明市	西山区	102.647369	25.035911	102.64607920777148	25.03899797909565	102.647369 25.035911	汽车服务	充电站	充电站
星星充电汽车充电站(美丽充兴苑路)	汽车服务;充电站;充电站	11100	兴苑路905号	4008280768;15887813219	云南省	昆明市	西山区	102.646536	25.036414	102.64524802377098	25.039502309102428	102.646536 25.036414	汽车服务	充电站	充电站
德利邦汽车充电站(德利邦马街)	汽车服务;充电站;充电站	11100	华苑路与华苑巷交叉口东南侧马街街道办事处南侧停车场内	[]	云南省	昆明市	西山区	102.647621	25.039907	102.64633053939473	25.042993098168026	102.647621 25.039907	汽车服务	充电站	充电站
德利邦汽车充电站(德利邦马街)	汽车服务;充电站;充电站	11100	华苑巷与华苑路交叉口东约40米	[]	云南省	昆明市	西山区	102.647586	25.039882	102.6462956174986	25.042968159774578	102.647586 25.039882	汽车服务	充电站	充电站
汽车充电站(君来顺西山区政务中心)	汽车服务;充电站;充电站	11100	春雨路188号	15368008892	云南省	昆明市	西山区	102.64146	25.041504	102.64018267294132	25.044599875095912	102.64146 25.041504	汽车服务	充电站	充电站
特来电充电站(云南民族村2期)	汽车服务;充电站;充电站	11100	滇池路1310号正大门停车场	4001300001	云南省	昆明市	西山区	102.667847	24.967864	102.66651047998984	24.9709221529525	102.667847 24.967864	汽车服务	充电站	充电站
腾势充电站(昆明西部客运站医药物流中心站)	汽车服务;充电站;充电站	11100	昆州路云南医药物流中心	[]	云南省	昆明市	西山区	102.640618	25.037723	102.6393425038337	25.040820602991552	102.640618 25.037723	汽车服务	充电站	充电站
西山区沙地村环卫电动汽车公共充电站	汽车服务;充电站;充电站	11100	昆州路盘龙云海社区西北侧约30米	[]	云南省	昆明市	西山区	102.645752	25.039828	102.64446563634704	25.04291721158212	102.645752 25.039828	汽车服务	充电站	充电站
特来电汽车充电站(昆明西部客运站医药物流中心充电站)	汽车服务;充电站;充电站	11100	昆州路云南医药物流中心	4001300001	云南省	昆明市	西山区	102.64062	25.037745	102.63934449914572	25.04084259740768	102.64062 25.037745	汽车服务	充电站	充电站
小桔充电西苑立交桥站	汽车服务;充电站;充电站	11100	腾龙巷与二环西路辅路交叉口东60米	19988490039	云南省	昆明市	西山区	102.67102	25.044596	102.66967339732533	25.04763875103921	102.67102 25.044596	汽车服务	充电站	充电站
邦驰充电(智慧西苑站)	汽车服务;充电站;充电站	11100	二环西路209号	[]	云南省	昆明市	西山区	102.67106	25.044231	102.6697133078102	25.0472737157742	102.67106 25.044231	汽车服务	充电站	充电站
特来电充电站(昆明金地兰亭广场)	汽车服务;充电站;充电站	11100	人民西路金地兰亭广场(眠山地铁站A口步行140米)	13888287264	云南省	昆明市	西山区	102.649482	25.046545	102.64818719981471	25.049627191462307	102.649482 25.046545	汽车服务	充电站	充电站
特来电充电站(昆明市西贡码头)	汽车服务;充电站;充电站	11100	滇池路7公里	4001300001	云南省	昆明市	西山区	102.660884	24.984274	102.6595641520522	24.987343201038264	102.660884 24.984274	汽车服务	充电站	充电站
芳菲新能源西苑立交桥充电站	汽车服务;充电站;充电站	11100	二环西路209号	19988490039	云南省	昆明市	西山区	102.671063	25.044481	102.66971629320992	25.047523681877653	102.671063 25.044481	汽车服务	充电站	充电站
星星充电汽车充电站(美丽充西山区政府不对外开放)	汽车服务;充电站;充电站	11100	丽苑路与秀苑路交叉口西150米	4008280768	云南省	昆明市	西山区	102.66395	25.037403	102.66262115303915	25.04046000648775	102.66395 25.037403	汽车服务	充电站	充电站
宝马充电站(宝马站宝瀚汽车销售服务有限公司)	汽车服务;充电站;充电站	11100	滇缅大道2626号	[]	云南省	昆明市	西山区	102.64303	25.054953	102.6417490297046	25.058044917465963	102.64303 25.054953	汽车服务	充电站	充电站
特来电充电站(云南民族村)	汽车服务;充电站;充电站	11100	云南民族村	[]	云南省	昆明市	西山区	102.666805	24.967191	102.66547108522914	24.97025122032102	102.666805 24.967191	汽车服务	充电站	充电站
小桔充电汽车充电站(小桔充电西苑立交桥站)	汽车服务;充电站;充电站	11100	二环西路209号贵宾楼东166米	19988490039;18208785163	云南省	昆明市	西山区	102.671008	25.044585	102.66966142760536	25.04762777519243	102.671008 25.044585	汽车服务	充电站	充电站
云能充太平新能源汽车充电站	汽车服务;充电站;充电站	11100	太平镇玉龙路景明大酒店正对面	18206846027	云南省	昆明市	安宁市	102.585118	24.948245	102.58389815259191	24.951385997779127	102.585118 24.948245	汽车服务	充电站	充电站
读书铺服务区云南交投电动汽车充电站	汽车服务;充电站;充电站	11100	G56杭瑞高速附近	[]	云南省	昆明市	安宁市	102.55562	24.949425	102.554368359645	24.95252997529317	102.55562 24.949425	汽车服务	充电站	充电站
特来电充电站(特来电站太平镇瑞美温泉酒店)	汽车服务;充电站;充电站	11100	太平镇万辉星城一期A1栋	[]	云南省	昆明市	安宁市	102.587299	24.931048	102.5860802455106	24.93419232182672	102.587299 24.931048	汽车服务	充电站	充电站
读书铺服务区云南交投新能源电动汽车充电站	汽车服务;充电站;充电站	11100	杭瑞高速昆明至楚雄段读书铺服务区(昆明往楚雄方向侧)	[]	云南省	昆明市	安宁市	102.552968	24.951484	102.55171143845986	24.95458371277945	102.552968 24.951484	汽车服务	充电站	充电站
汽车充电站(德利邦第九检测站)	汽车服务;充电站;充电站	11100	海屯路366号	13808791134	云南省	昆明市	五华区	102.633841	25.084934	102.63257733400631	25.088036372344323	102.633841 25.084934	汽车服务	充电站	充电站
汽车充电站(德利邦第九检测站)	汽车服务;充电站;充电站	11100	海屯路366号	[]	云南省	昆明市	五华区	102.641595	25.087651	102.64031610877468	25.090741824256167	102.641595 25.087651	汽车服务	充电站	充电站
德利邦新能源第九检测站充电站	汽车服务;充电站;充电站	11100	海屯路366号	[]	云南省	昆明市	五华区	102.641657	25.087706	102.64037797913524	25.090796722736133	102.641657 25.087706	汽车服务	充电站	充电站
滇约充电西北部站	汽车服务;充电站;充电站	11100	河北路西北部客运站旁	13808756812	云南省	昆明市	五华区	102.663811	25.094469	102.66248088011628	25.09752032128487	102.663811 25.094469	汽车服务	充电站	充电站
汽车充电站(君来顺绿地陈家营快充)	汽车服务;充电站;充电站	11100	陈家营路与金川路交汇处香花路21号	15368008892	云南省	昆明市	五华区	102.654505	25.09596	102.6531972585366	25.099028338043063	102.654505 25.09596	汽车服务	充电站	充电站
昆明大真普吉路充电站	汽车服务;充电站;充电站	11100	普吉路326号	0871-68302386	云南省	昆明市	五华区	102.66975	25.092532	102.6684052042669	25.09557222472311	102.66975 25.092532	汽车服务	充电站	充电站
特来电充电站(固地尚诚)	汽车服务;充电站;充电站	11100	Ｇ５京昆高速辅路与研科路交叉口西北约120米	[]	云南省	昆明市	五华区	102.663643	25.08526	102.66231355414274	25.0883125027807	102.663643 25.08526	汽车服务	充电站	充电站
汽车充电站(君来顺云都会快充)	汽车服务;充电站;充电站	11100	王筇路与科普路交汇处	15368008892	云南省	昆明市	五华区	102.662767	25.088192	102.6614396219374	25.0912458698969	102.662767 25.088192	汽车服务	充电站	充电站
特来电充电站(昆明固地尚诚)	汽车服务;充电站;充电站	11100	科普路与王筇路交汇处南侧	[]	云南省	昆明市	五华区	102.662484	25.085853	102.66115738145064	25.08890762379058	102.662484 25.085853	汽车服务	充电站	充电站
昆明公交综合修理二厂充电站	汽车服务;充电站;充电站	11100	普吉路332号昆明公交汽车综合修理厂内	[]	云南省	昆明市	五华区	102.670505	25.093943	102.6691582795719	25.09698165348105	102.670505 25.093943	汽车服务	充电站	充电站
小桔充电汽车充电站(普吉家园充电站二期)	汽车服务;充电站;充电站	11100	普吉家园	4000610999	云南省	昆明市	五华区	102.665665	25.095222	102.66433028326388	25.09826974899299	102.665665 25.095222	汽车服务	充电站	充电站
特来电充电站(科泰路海伦中心充电站)	汽车服务;充电站;充电站	11100	科泰路与二环北路交叉口	[]	云南省	昆明市	五华区	102.666504	25.068249	102.66516796990278	25.0712977933766	102.666504 25.068249	汽车服务	充电站	充电站
特来电充电站(昆明特来电宜家家居)	汽车服务;充电站;充电站	11100	王筇路与小屯路交叉口西北270米	4001300001	云南省	昆明市	五华区	102.666697	25.087629	102.6653599414554	25.09067549868668	102.666697 25.087629	汽车服务	充电站	充电站
中国南方电网普吉电动汽车充电站	汽车服务;充电站;充电站	11100	普吉路昆明公交汽车综合修理厂	[]	云南省	昆明市	五华区	102.670352	25.094727	102.66900563929076	25.0977658736536	102.670352 25.094727	汽车服务	充电站	充电站
小桔充电站(五华区普吉家园)	汽车服务;充电站;充电站	11100	小屯路与沙河北路交叉口	4000610999	云南省	昆明市	五华区	102.665802	25.094711	102.6644669586644	25.09775853608638	102.665802 25.094711	汽车服务	充电站	充电站
汽车充电站(云汽东风厂)	汽车服务;充电站;充电站	11100	滇缅大道2696号	[]	云南省	昆明市	五华区	102.653401	25.056348	102.652096950599	25.05942227231084	102.653401 25.056348	汽车服务	充电站	充电站
星星充电汽车充电站(美丽充普吉路)	汽车服务;充电站;充电站	11100	普吉街道陈家营路中国石油CNG加气站	4008280768	云南省	昆明市	五华区	102.67128	25.091593	102.66993141051827	25.09463039103916	102.67128 25.091593	汽车服务	充电站	充电站
昆自新能源汽车充电站(云汽实业)	汽车服务;充电站;充电站	11100	滇缅大道2623-2627号	4008888209;18987554651	云南省	昆明市	五华区	102.650016	25.061009	102.64871958936868	25.064088692808014	102.650016 25.061009	汽车服务	充电站	充电站
小桔充电汽车充电站(鼎易天城充电站)	汽车服务;充电站;充电站	11100	鼎易天城	4000610999	云南省	昆明市	五华区	102.658425	25.069899	102.65710868213507	25.07296275268528	102.658425 25.069899	汽车服务	充电站	充电站
云南交运黄土坡泰来充电站	汽车服务;充电站;充电站	11100	新学巷泰来物流	0871-65300966	云南省	昆明市	五华区	102.666251	25.063914	102.66491571990927	25.066963727114207	102.666251 25.063914	汽车服务	充电站	充电站
特来电充电站(科泰路海伦中心)	汽车服务;充电站;充电站	11100	二环西路668号	4001300001	云南省	昆明市	五华区	102.666463	25.068245	102.66512707166936	25.071293871625585	102.666463 25.068245	汽车服务	充电站	充电站
汽车充电站(昆明黄土坡立交桥)	汽车服务;充电站;充电站	11100	高新技术开发区(金泰国际Ⅰ期)滇缅大道与科高路交叉口	[]	云南省	昆明市	五华区	102.665458	25.064664	102.66412466154208	25.067715151254177	102.665458 25.064664	汽车服务	充电站	充电站
芳菲新能源黄土坡立交桥充电站	汽车服务;充电站;充电站	11100	学府路790号	19988490039	云南省	昆明市	五华区	102.668917	25.065165	102.66757505905773	25.068209523738343	102.668917 25.065165	汽车服务	充电站	充电站
快电·山高新能源金泰国际充电站	汽车服务;充电站;充电站	11100	二环西路金泰国际1期	[]	云南省	昆明市	五华区	102.667653	25.065801	102.66631418671258	25.06884786461274	102.667653 25.065801	汽车服务	充电站	充电站
特来电充电站(昆明宝瀚汽车销售服务有限公司)	汽车服务;充电站;充电站	11100	滇缅大道2626号	[]	云南省	昆明市	五华区	102.649652	25.060541	102.64835642482127	25.0636213684316	102.649652 25.060541	汽车服务	充电站	充电站
汽车充电站(蔚来超充站昆明金泰国际)	汽车服务;充电站;充电站	11100	滇缅大道2411号	[]	云南省	昆明市	五华区	102.66634	25.065793	102.66500444608754	25.06884236069421	102.66634 25.065793	汽车服务	充电站	充电站
特来电充电站(昆明市五华区科泰路海伦中心)	汽车服务;充电站;充电站	11100	科泰路与科高路交叉口东北约120米	4001300001	云南省	昆明市	五华区	102.665994	25.067588	102.66465925236626	25.07063782969232	102.665994 25.067588	汽车服务	充电站	充电站
特来电充电站(昆明市五华区科泰路海伦中心)	汽车服务;充电站;充电站	11100	科高路与科泰路交叉口东北约160米	[]	云南省	昆明市	五华区	102.665817	25.068134	102.66448267508936	25.07118410851954	102.665817 25.068134	汽车服务	充电站	充电站
小桔充电汽车充电站(和成国际大厦充电站)	汽车服务;充电站;充电站	11100	和成国际	4000610999	云南省	昆明市	五华区	102.662134	25.059465	102.66080898383387	25.06252296505596	102.662134 25.059465	汽车服务	充电站	充电站
特来电汽车充电站(昆明市五华区科泰路海伦中心充电站)	汽车服务;充电站;充电站	11100	科泰路与科高路交叉口东北120米	4001300001	云南省	昆明市	五华区	102.666005	25.067574	102.66467022552374	25.07062381028992	102.666005 25.067574	汽车服务	充电站	充电站
小桔充电充电站(和成国际大厦站)	汽车服务;充电站;充电站	11100	学府路与滇缅大道交叉口西北约80米	19988490039	云南省	昆明市	五华区	102.668809	25.06551	102.66746731830672	25.068554693414747	102.668809 25.06551	汽车服务	充电站	充电站
开迈斯汽车充电站(仅对专属客户开放昆明市金鼎一汽大众4S店站)	汽车服务;充电站;充电站	11100	D海源中路1028号	4006657666	云南省	昆明市	五华区	102.66192	25.057285	102.6605955683564	25.060343600282884	102.66192 25.057285	汽车服务	充电站	充电站
特来电充电站(昆明市晋宁区幸福里)	汽车服务;充电站;充电站	11100	幸福里小区	4001300001	云南省	昆明市	晋宁区	102.732845	24.764234	102.73137948045505	24.767217505707706	102.732845 24.764234	汽车服务	充电站	充电站
昆自集团皇冠假日公共充电站	汽车服务;充电站;充电站	11100	晋城镇环湖南路七彩云南·古滇名城皇冠假日酒店	4008888209	云南省	昆明市	晋宁区	102.736394	24.767237	102.73492441341052	24.77021822266101	102.736394 24.767237	汽车服务	充电站	充电站
谭智医院汽车充电站	汽车服务;充电站;充电站	11100	北门路与人和街交叉口北180米	[]	云南省	昆明市	晋宁区	102.745786	24.707846	102.7443100123548	24.710827087034904	102.745786 24.707846	汽车服务	充电站	充电站
汽车充电站(昆明晋宁谭智医院)	汽车服务;充电站;充电站	11100	晋城镇谭智医院	[]	云南省	昆明市	晋宁区	102.74564	24.707802	102.74416411322288	24.71078311338684	102.74564 24.707802	汽车服务	充电站	充电站
星星充电汽车充电站(云南省昆明市晋宁区晋城汽车客运站桩群)	汽车服务;充电站;充电站	11100	晋城汽车客运站内	4008280768	云南省	昆明市	晋宁区	102.751601	24.710097	102.750121680067	24.71307767768061	102.751601 24.710097	汽车服务	充电站	充电站
特来电充电站(晋城镇盘龙寺老县府)	汽车服务;充电站;充电站	11100	晋城镇老县府街四号	4001300001	云南省	昆明市	晋宁区	102.74803	24.700388	102.74655280879348	24.70336902105212	102.74803 24.700388	汽车服务	充电站	充电站
特来电充电站(云南交通职业技术学院高新校区交流)	汽车服务;充电站;充电站	11100	高登街2502号	[]	云南省	昆明市	呈贡区	102.807368	24.777748	102.80591779214708	24.78078040475084	102.807368 24.777748	汽车服务	充电站	充电站
星星充电汽车充电站(云南盈亮贸易有限公司)	汽车服务;充电站;充电站	11100	晋宁区-石寨街上蒜派出所东南侧约210米	4008280768	云南省	昆明市	晋宁区	102.687151	24.68138	102.68577483481668	24.684427576709783	102.687151 24.68138	汽车服务	充电站	充电站
昆明恒和酒店蔚来充电站	汽车服务;充电站;充电站	11100	湖泽街540号	16621033791	云南省	昆明市	呈贡区	102.795518	24.860895	102.79405093374068	24.863900118828315	102.795518 24.860895	汽车服务	充电站	充电站
千法万福充电站(斗南维也纳酒店站)	汽车服务;充电站;充电站	11100	鲜花大道与花都路交叉口西南侧	0871-67353169	云南省	昆明市	呈贡区	102.784086	24.90248	102.78260703882628	24.90546473417818	102.784086 24.90248	汽车服务	充电站	充电站
小桔充电三台山龙井站	汽车服务;充电站;充电站	11100	兴呈路与梅子段交叉口东南140米	[]	云南省	昆明市	呈贡区	102.793607	24.893554	102.79213693988132	24.89655243683324	102.793607 24.893554	汽车服务	充电站	充电站
汽车充电站(斗南花市)	汽车服务;充电站;充电站	11100	龙兴路与金桂街交叉口西北约140米	[]	云南省	昆明市	呈贡区	102.790029	24.902928	102.78855511447796	24.90592025868886	102.790029 24.902928	汽车服务	充电站	充电站
芳菲新能源三台龙井充电站	汽车服务;充电站;充电站	11100	环城西路44号	13888188578	云南省	昆明市	呈贡区	102.793665	24.893638	102.79219499774234	24.8966365106356	102.793665 24.893638	汽车服务	充电站	充电站
小桔充电大渔公园站	汽车服务;充电站;充电站	11100	渔阳路与欣城路交叉口北40米	[]	云南省	昆明市	呈贡区	102.804167	24.824699	102.80271124833442	24.82772175327111	102.804167 24.824699	汽车服务	充电站	充电站
云能充新能源捞鱼河公园汽车充电站	汽车服务;充电站;充电站	11100	海中段环湖东路捞鱼河湿地公园	4001300001	云南省	昆明市	呈贡区	102.770988	24.817375	102.76950438501682	24.82035643290692	102.770988 24.817375	汽车服务	充电站	充电站
星星充电汽车充电站(星星路通)	汽车服务;充电站;充电站	11100	兴呈路6888号	4008280768	云南省	昆明市	呈贡区	102.805957	24.870262	102.8045022234806	24.873282799025063	102.805957 24.870262	汽车服务	充电站	充电站
小桔充电汽车充电站(小桔充电大渔公园站)	汽车服务;充电站;充电站	11100	渔阳路与欣城路交叉口停车场	[]	云南省	昆明市	呈贡区	102.803817	24.824858	102.80236079875677	24.82788015252371	102.803817 24.824858	汽车服务	充电站	充电站
星星充电充电站(南部汽车站快充站)	汽车服务;充电站;充电站	11100	彩云北路彩云南侧约120米一乘驾校(螺狮湾分校)	4008280768	云南省	昆明市	官渡区	102.777228	24.922518	102.7757439563736	24.92549277639932	102.777228 24.922518	汽车服务	充电站	充电站
汽车充电站(昆明市杜家营)	汽车服务;充电站;充电站	11100	昆洛公路万科公园里一起东侧约80米	14787848670	云南省	昆明市	官渡区	102.789253	24.927521	102.78777766562966	24.930509119072383	102.789253 24.927521	汽车服务	充电站	充电站
星星充电汽车充电站(昆明呈贡吾悦广场充电桩群)	汽车服务;充电站;充电站	11100	彩云中路299号负一层	4008280768	云南省	昆明市	呈贡区	102.801764	24.890909	102.80030329772056	24.89392034077636	102.801764 24.890909	汽车服务	充电站	充电站
星星充电汽车充电站(云南启量物流有限公司快充站)	汽车服务;充电站;充电站	11100	矣六段	4008280768	云南省	昆明市	官渡区	102.764852	24.923396	102.7633640241611	24.92636118009157	102.764852 24.923396	汽车服务	充电站	充电站
特来电充电站(天朗能源信亿)	汽车服务;充电站;充电站	11100	高登街云南信亿物流服务有限公司	0871-68690292	云南省	昆明市	呈贡区	102.825876	24.771404	102.82445251091303	24.77447077011553	102.825876 24.771404	汽车服务	充电站	充电站
云能充马金铺充电站	汽车服务;充电站;充电站	11100	马澄路与梁峰路交叉口东280米	[]	云南省	昆明市	呈贡区	102.820892	24.779495	102.8194608751712	24.78255176635009	102.820892 24.779495	汽车服务	充电站	充电站
天朗能源呈贡保税物流充电站	汽车服务;充电站;充电站	11100	高登街昆明高新保税物流中心停车场	0871-68690292	云南省	昆明市	呈贡区	102.826555	24.77136	102.82513252466488	24.7744280578824	102.826555 24.77136	汽车服务	充电站	充电站
云南能投汽车充电站(呈贡区马金铺)	汽车服务;充电站;充电站	11100	马澄路马金铺街道文化站	15887813219	云南省	昆明市	呈贡区	102.821233	24.779586	102.81980237593017	24.782643398131047	102.821233 24.779586	汽车服务	充电站	充电站
特来电充电站(昆明市呈贡马金铺兰茂路直流桩)	汽车服务;充电站;充电站	11100	马金铺街道兰茂路419号	18468246935	云南省	昆明市	呈贡区	102.815009	24.767457	102.81356966520784	24.77050377556351	102.815009 24.767457	汽车服务	充电站	充电站
特来电充电站(昆明市马金铺巨帆公路港)	汽车服务;充电站;充电站	11100	塔山路马金铺巨帆公路港	4001300001	云南省	昆明市	呈贡区	102.810842	24.787367	102.80939622241966	24.790404725478588	102.810842 24.787367	汽车服务	充电站	充电站
特来电充电站(昆明南站停车场)	汽车服务;充电站;充电站	11100	吴家营昆明南火车站停车场	[]	云南省	昆明市	呈贡区	102.86274	24.873462	102.86136208250956	24.87658310635823	102.86274 24.873462	汽车服务	充电站	充电站
特来电充电站(昆明市高铁南站)	汽车服务;充电站;充电站	11100	吴家营昆明南火车站停车场	4001300001	云南省	昆明市	呈贡区	102.862852	24.873503	102.86147418786013	24.87662426139411	102.862852 24.873503	汽车服务	充电站	充电站
星星充电汽车充电站(星星草莓园)	汽车服务;充电站;充电站	11100	吴家营街道梁王路辅路第7感·莓世界亲子教育基地	4008280768	云南省	昆明市	呈贡区	102.8651	24.856786	102.863724726865	24.859912327011468	102.8651 24.856786	汽车服务	充电站	充电站
特来电充电站(昆明呈贡区第七街区)	汽车服务;充电站;充电站	11100	聚贤街第七街区	4001300001	云南省	昆明市	呈贡区	102.859895	24.859464	102.85851465825093	24.8625825579567	102.859895 24.859464	汽车服务	充电站	充电站
小桔充电汽车充电站(呈贡区高铁南站充电站)	汽车服务;充电站;充电站	11100	梁王路辅路与呈贡291号道路交叉口东北140米	4000610999	云南省	昆明市	呈贡区	102.866578	24.852935	102.86520410553842	24.85606374623375	102.866578 24.852935	汽车服务	充电站	充电站
汽车充电站(邦驰充电·呈贡博晖雅苑站)	汽车服务;充电站;充电站	11100	呈贡２９１号道路与梁王路辅路交叉口西约100米	18208785163	云南省	昆明市	呈贡区	102.864983	24.851681	102.86360777023296	24.854807738422988	102.864983 24.851681	汽车服务	充电站	充电站
特来电汽车充电站(呈贡博鼎上城地下停车场充电站)	汽车服务;充电站;充电站	11100	致远路博鼎上城A1-1地块地下停车场	4001300001	云南省	昆明市	呈贡区	102.860016	24.85703	102.85863585313112	24.86014901491141	102.860016 24.85703	汽车服务	充电站	充电站
特来电充电站(呈贡博鼎上城地下停车场)	汽车服务;充电站;充电站	11100	致远路博鼎上城A1-1地块地下停车场	[]	云南省	昆明市	呈贡区	102.859797	24.857734	102.85841660661188	24.86085260687063	102.859797 24.857734	汽车服务	充电站	充电站
小桔充电聚贤商业广场站	汽车服务;充电站;充电站	11100	聚贤街与春融东路交叉口东100米	[]	云南省	昆明市	呈贡区	102.846805	24.855496	102.8454091916752	24.858593558851528	102.846805 24.855496	汽车服务	充电站	充电站
腾势充电站(呈贡博鼎上城地下停车场站)	汽车服务;充电站;充电站	11100	致远路博鼎上城A1-1地块地下停车场	[]	云南省	昆明市	呈贡区	102.85356	24.850789	102.85217284472704	24.85389857041008	102.85356 24.850789	汽车服务	充电站	充电站
星星汽车充电站	汽车服务;充电站;充电站	11100	仕林街云上小镇十一栋	4008280768	云南省	昆明市	呈贡区	102.84401	24.840523	102.84261085989418	24.84361724052932	102.84401 24.840523	汽车服务	充电站	充电站
汽车充电站(中共昆明市委党校呈贡区)	汽车服务;充电站;充电站	11100	吴家营街道中共昆明市委党校昆明市行政学院综合楼负一层停车场	[]	云南省	昆明市	呈贡区	102.875592	24.838341	102.8742246575468	24.841482031212625	102.875592 24.838341	汽车服务	充电站	充电站
汽车充电站(云桢花园酒店华润)	汽车服务;充电站;充电站	11100	朝云街白龙潭俊园·淏园(1号门)附近	4008888209	云南省	昆明市	呈贡区	102.85628	24.892818	102.85489478837049	24.89592703738152	102.85628 24.892818	汽车服务	充电站	充电站
小桔充电汽车充电站(小桔充电聚贤商业广场站)	汽车服务;充电站;充电站	11100	聚贤街云南民族大学附属小学东南侧约210米	[]	云南省	昆明市	呈贡区	102.846402	24.855493	102.8450056566949	24.85858985047912	102.846402 24.855493	汽车服务	充电站	充电站
芳菲新能源充电站	汽车服务;充电站;充电站	11100	锦绣大街综合服务楼西南侧约170米	[]	云南省	昆明市	呈贡区	102.833381	24.875572	102.83196564738256	24.878642667362755	102.833381 24.875572	汽车服务	充电站	充电站
芳菲新能源汽车充电站(芳菲新能源呈贡中华小学)	汽车服务;充电站;充电站	11100	芳菲新能源(呈贡中华小学站)	[]	云南省	昆明市	呈贡区	102.8521	24.892943	102.8507098660389	24.896045223612376	102.8521 24.892943	汽车服务	充电站	充电站
山高新能源呈贡昆百大新都会充电站	汽车服务;充电站;充电站	11100	昆百大新都会地下停车场B2层D区E(车库限高2.5米)	[]	云南省	昆明市	呈贡区	102.846155	24.892009	102.84475727197768	24.89510112158903	102.846155 24.892009	汽车服务	充电站	充电站
昆发展新能源汽车充电站(滇池明珠站)	汽车服务;充电站;充电站	11100	彩云南路1666滇池明珠广场写字楼地下停车场负一楼	0871-67496644	云南省	昆明市	呈贡区	102.828174	24.869361	102.82675109258156	24.872422558096893	102.828174 24.869361	汽车服务	充电站	充电站
汽车充电站(洛羊博源电气)	汽车服务;充电站;充电站	11100	洛羊街道昆明潘祥记食品有限公司	[]	云南省	昆明市	呈贡区	102.853059	24.903244	102.85166973218544	24.90634654413257	102.853059 24.903244	汽车服务	充电站	充电站
闪电能源宜康南路超级汽车充电站	汽车服务;充电站;充电站	11100	谊康南路地铁站A出口西50米	4001300001	云南省	昆明市	呈贡区	102.83752	24.847533	102.83611150904436	24.85061461293358	102.83752 24.847533	汽车服务	充电站	充电站
特来电市级行政中心充电站	汽车服务;充电站;充电站	11100	和谐路春城公园	[]	云南省	昆明市	呈贡区	102.831795	24.878959	102.83037720289872	24.882026275569643	102.831795 24.878959	汽车服务	充电站	充电站
汽车充电站(美丽充洛龙)	汽车服务;充电站;充电站	11100	洛龙街道祥和街洛龙村停车场内	4008280768	云南省	昆明市	呈贡区	102.828845	24.890531	102.82742247755162	24.89359130331424	102.828845 24.890531	汽车服务	充电站	充电站
小桔充电汽车充电站(小桔充电和谐路充电站)	汽车服务;充电站;充电站	11100	和谐路与锦绣大街交叉口	19988490039	云南省	昆明市	呈贡区	102.833094	24.876043	102.83167821008212	24.87911307128657	102.833094 24.876043	汽车服务	充电站	充电站
特来电充电站(昆明呈贡雨花商业中心)	汽车服务;充电站;充电站	11100	吴家营街道新航道(大学城旗舰校区)呈贡新城陆区雨花商业广场	4001300001	云南省	昆明市	呈贡区	102.84349	24.836336	102.84209026748104	24.839429751046914	102.84349 24.836336	汽车服务	充电站	充电站
特来电充电站(昆明市市级行政中心二期)	汽车服务;充电站;充电站	11100	和谐路与吉安街交叉路口西南侧(春城公园)	14787848670	云南省	昆明市	呈贡区	102.831755	24.878844	102.83033714692183	24.88191121374953	102.831755 24.878844	汽车服务	充电站	充电站
汽车充电站(昆明市级行政中心充电示范站一期)	汽车服务;充电站;充电站	11100	和谐路与吉安街交叉路口西南侧(春城公园)	14787848670	云南省	昆明市	呈贡区	102.832001	24.879	102.8305835070935	24.88206765951025	102.832001 24.879	汽车服务	充电站	充电站
特来电充电站(AI快充昆明天润康园)	汽车服务;充电站;充电站	11100	天润康园南区广场停车场	18087753380	云南省	昆明市	呈贡区	102.826449	24.850781	102.82502405891957	24.853841405900564	102.826449 24.850781	汽车服务	充电站	充电站
特来电充电站(昆明市市级行政中心)2期	汽车服务;充电站;充电站	11100	和谐路与吉安街交叉口西南约40米	[]	云南省	昆明市	呈贡区	102.831768	24.878903	102.83035016448665	24.881970231266905	102.831768 24.878903	汽车服务	充电站	充电站
特来电充电站(昆配万溪冲电动汽车)	汽车服务;充电站;充电站	11100	呈贡信息产业园区信息路	17608803237	云南省	昆明市	呈贡区	102.882874	24.818966	102.88150994001124	24.82211566409505	102.882874 24.818966	汽车服务	充电站	充电站
特来电充电站(昆明市市级行政中心站三期)	汽车服务;充电站;充电站	11100	[]	[]	云南省	昆明市	呈贡区	102.831838	24.878784	102.8304202717441	24.8818513775798	102.831838 24.878784	汽车服务	充电站	充电站
山高新能源汽车充电站(昆明七彩云南第壹城)	汽车服务;充电站;充电站	11100	七彩云南第壹城地下车库(附三层H区H16)	[]	云南省	昆明市	呈贡区	102.827346	24.87615	102.82592165941448	24.87920919319869	102.827346 24.87615	汽车服务	充电站	充电站
邦驰充电(呈贡石龙路站)	汽车服务;充电站;充电站	11100	石龙路与大梨园路交叉口南320米	[]	云南省	昆明市	呈贡区	102.835492	24.910459	102.83407873532164	24.91352936994121	102.835492 24.910459	汽车服务	充电站	充电站
山高新能源汽车充电站(昆明七彩云南第壹城)	汽车服务;充电站;充电站	11100	谊康北路与锦绣大街交叉口北约220米	[]	云南省	昆明市	呈贡区	102.825609	24.876286	102.8241820632551	24.87934189079212	102.825609 24.876286	汽车服务	充电站	充电站
特斯拉充电站(昆明七彩云南第壹城超级站新国标)	汽车服务;充电站;充电站	11100	七彩云南第壹城地下车库(附三层H区H16)	[]	云南省	昆明市	呈贡区	102.825423	24.877999	102.82399573592508	24.88105433596741	102.825423 24.877999	汽车服务	充电站	充电站
云能充新能源能投电力装配园区汽车充电站	汽车服务;充电站;充电站	11100	能投威士科技公司南(常山路北)	[]	云南省	昆明市	呈贡区	102.850117	24.909076	102.84872393297476	24.91217288433248	102.850117 24.909076	汽车服务	充电站	充电站
星星充电汽车充电站(珮福充电站奥斯迪站)	汽车服务;充电站;充电站	11100	洛羊街道春漫大道	4008280768	云南省	昆明市	呈贡区	102.851035	24.917525	102.84964284104151	24.920622378140248	102.851035 24.917525	汽车服务	充电站	充电站
云能充新能源汽车充电站奥斯迪站	汽车服务;充电站;充电站	11100	迪鑫路与大梨园路交叉口东南约60米	[]	云南省	昆明市	呈贡区	102.841462	24.912494	102.84005724498569	24.91557515660204	102.841462 24.912494	汽车服务	充电站	充电站
百源智联汽车充电站(昆明市奥斯迪电商园)	汽车服务;充电站;充电站	11100	奥斯迪电商园J区12栋	4008288517	云南省	昆明市	呈贡区	102.850638	24.916623	102.849245370878	24.919719820891768	102.850638 24.916623	汽车服务	充电站	充电站
云南能投汽车充电站(呈贡区小梨园路奥斯迪站)	汽车服务;充电站;充电站	11100	迪鑫路与大梨园路交叉口东南约60米	15887813219	云南省	昆明市	呈贡区	102.841479	24.912445	102.84007427026054	24.91552619374333	102.841479 24.912445	汽车服务	充电站	充电站
邦驰新能源汽车充电站(邦驰充电·呈贡政务中心站)	汽车服务;充电站;充电站	11100	呈祥街惠景园内,昆明市呈贡区政务服务中心内0米	18208785163	云南省	昆明市	呈贡区	102.815069	24.879038	102.81362649395857	24.882073898462068	102.815069 24.879038	汽车服务	充电站	充电站
小桔充电汽车充电站(小桔充电惠景园充电站)	汽车服务;充电站;充电站	11100	呈祥街辅路	19988490039	云南省	昆明市	呈贡区	102.812436	24.879142	102.81098975824692	24.88217311342494	102.812436 24.879142	汽车服务	充电站	充电站
星星充电汽车充电站(昆明呈贡奥斯迪快充站)(暂停营业)	汽车服务;充电站;充电站	11100	梨园路奥斯迪电商园8栋	4008280768	云南省	昆明市	呈贡区	102.849157	24.915149	102.8477625348036	24.918243479219445	102.849157 24.915149	汽车服务	充电站	充电站
昆自新能源汽车充电站(呈贡米兰园环卫站)	汽车服务;充电站;充电站	11100	春融西路121-129号	4008888309;18987554651	云南省	昆明市	呈贡区	102.813608	24.885811	102.8121632150352	24.88884342853695	102.813608 24.885811	汽车服务	充电站	充电站
山高新能源汽车充电站(昆明陆航)	汽车服务;充电站;充电站	11100	欣惠路与启秀街交叉口(云南国防工业职业技术学院斜对面)	[]	云南省	昆明市	呈贡区	102.827718	24.817021	102.82629593373964	24.820087329532573	102.827718 24.817021	汽车服务	充电站	充电站
特来电充电站(昆明市经开区小新册君来)	汽车服务;充电站;充电站	11100	石龙路云南省农村信用社南侧约140米	[]	云南省	昆明市	呈贡区	102.839566	24.921405	102.8381583044433	24.924481558225203	102.839566 24.921405	汽车服务	充电站	充电站
邦驰新能源汽车充电站(邦驰充电·呈贡石龙路站奥斯迪产业园对面)	汽车服务;充电站;充电站	11100	石龙路云智慧办公大楼西南338米	18208785163	云南省	昆明市	呈贡区	102.835501	24.910387	102.8340877505722	24.913457395807963	102.835501 24.910387	汽车服务	充电站	充电站
特来电充电站(昆明闪电能源蓝光天骄城)	汽车服务;充电站;充电站	11100	大渔街道蓝光·天娇城蓝光天娇城一期	4001300001	云南省	昆明市	呈贡区	102.81802	24.825275	102.81658332871716	24.82832228595598	102.81802 24.825275	汽车服务	充电站	充电站
星星充电汽车充电站(美丽充怡香天苑)	汽车服务;充电站;充电站	11100	大渔街道云南白药街怡香广场内	4008280768	云南省	昆明市	呈贡区	102.820725	24.819007	102.81929247873896	24.82205994938946	102.820725 24.819007	汽车服务	充电站	充电站
星星充电汽车充电站(莹河新能源时代俊园)	汽车服务;充电站;充电站	11100	大渔街道长风路俊发·时代俊园	4008280768	云南省	昆明市	呈贡区	102.817435	24.815385	102.81599776589069	24.818432180050216	102.817435 24.815385	汽车服务	充电站	充电站
千法万福充电站(福保路六甲)	汽车服务;充电站;充电站	11100	福保路与金家段交叉口东150米	0871-67353169	云南省	昆明市	官渡区	102.707008	24.959006	102.705579169879	24.96199599356407	102.707008 24.959006	汽车服务	充电站	充电站
君来顺六甲超级快充站	汽车服务;充电站;充电站	11100	福保路与小康路口君来顺工贸有限公司	0871-67365253	云南省	昆明市	官渡区	102.7157	24.968273	102.714254223417	24.971250202326203	102.7157 24.968273	汽车服务	充电站	充电站
山高新能源静海园汽车充电站	汽车服务;充电站;充电站	11100	静海园停车场	[]	云南省	昆明市	西山区	102.694944	24.954542	102.6935416000893	24.9575516980425	102.694944 24.954542	汽车服务	充电站	充电站
三峡电能汽车充电站(中天融域站)	汽车服务;充电站;充电站	11100	前兴路8号	[]	云南省	昆明市	西山区	102.704787	24.975481	102.70336228368409	24.97847217245386	102.704787 24.975481	汽车服务	充电站	充电站
海岛充电凯旋利电动汽车充电站	汽车服务;充电站;充电站	11100	福保路稷泽·海丽宾雅温泉度假酒店东北侧约170米	13888838815	云南省	昆明市	官渡区	102.720811	24.974675	102.71935630202448	24.977645580059548	102.720811 24.974675	汽车服务	充电站	充电站
特来汽车充电站	汽车服务;充电站;充电站	11100	昆明同仁医院旁	[]	云南省	昆明市	西山区	102.697019	24.977636	102.69561119091664	24.98063924793928	102.697019 24.977636	汽车服务	充电站	充电站
汽车充电站(滇池国际会展中心公共)	汽车服务;充电站;充电站	11100	六甲街道滇池会展东路昆明滇池国际会展中心	18987554651	云南省	昆明市	官渡区	102.712143	24.946217	102.71070442814128	24.94920152480901	102.712143 24.946217	汽车服务	充电站	充电站
特来电充电站(昆明同仁医院)	汽车服务;充电站;充电站	11100	同仁医院停车场	14787848670	云南省	昆明市	西山区	102.696973	24.977643	102.69556529498315	24.98064632383521	102.696973 24.977643	汽车服务	充电站	充电站
昆自集团山海湾充电站	汽车服务;充电站;充电站	11100	民青路山海湾	[]	云南省	昆明市	官渡区	102.697804	24.939416	102.6963955227188	24.94242282899268	102.697804 24.939416	汽车服务	充电站	充电站
特来电充电站(昆明浩速汽车)	汽车服务;充电站;充电站	11100	前福路广福小区东南侧	[]	云南省	昆明市	西山区	102.694077	24.980866	102.69267584493612	24.983873826077183	102.694077 24.980866	汽车服务	充电站	充电站
云南能投充电示范站	汽车服务;充电站;充电站	11100	广福路仙龙温泉西北侧约100米	[]	云南省	昆明市	西山区	102.688769	24.982435	102.68738033188262	24.985451978834853	102.688769 24.982435	汽车服务	充电站	充电站
特斯拉充电站(昆明山海湾超级站新国标)	汽车服务;充电站;充电站	11100	海华街山海湾小区停车场B1层F区J210车位附近	[]	云南省	昆明市	官渡区	102.700535	24.940766	102.69912041425702	24.943768213265805	102.700535 24.940766	汽车服务	充电站	充电站
星星充电汽车充电站(美丽充大商汇)	汽车服务;充电站;充电站	11100	前卫街道前兴路大商汇C区	4008280768	云南省	昆明市	西山区	102.705571	24.98401	102.7041444002218	24.98699891985448	102.705571 24.98401	汽车服务	充电站	充电站
星星充电汽车充电站(美丽充大商汇充电站)	汽车服务;充电站;充电站	11100	前卫街道前兴路大商汇C区	4008280768	云南省	昆明市	西山区	102.70535	24.984121	102.7039238565124	24.98711023475816	102.70535 24.984121	汽车服务	充电站	充电站
特来电充电站(昆明市官渡区官南大道500号停车场)	汽车服务;充电站;充电站	11100	官南大道与广福路交叉路口1938号	18187159230	云南省	昆明市	官渡区	102.719463	24.980022	102.71801036633656	24.98299335454156	102.719463 24.980022	汽车服务	充电站	充电站
云快充汽车充电站(山海湾公共充电站)	汽车服务;充电站;充电站	11100	六甲街道福宝段山海湾小区10栋地下停车场一层	4008288517	云南省	昆明市	官渡区	102.69778	24.939408	102.69637157696188	24.94241486971505	102.69778 24.939408	汽车服务	充电站	充电站
特来电汽车充电站(昆明市官渡区官南大道500号停车场充电站)	汽车服务;充电站;充电站	11100	官南大道与广福路交叉路口1938号	18187159230	云南省	昆明市	官渡区	102.71946	24.980022	102.7180073713468	24.982993357839348	102.71946 24.980022	汽车服务	充电站	充电站
云能充电动汽车充电站(广福路)	汽车服务;充电站;充电站	11100	广福路	[]	云南省	昆明市	西山区	102.689071	24.982667	102.68768160136749	24.98568340670573	102.689071 24.982667	汽车服务	充电站	充电站
艾充广福路清水河充电站	汽车服务;充电站;充电站	11100	金荷路宜居苑南侧约250米	[]	云南省	昆明市	西山区	102.683339	24.987483	102.68196338042316	24.99050928328168	102.683339 24.987483	汽车服务	充电站	充电站
汽车充电站(昆明恒宇商业广场快充站)	汽车服务;充电站;充电站	11100	前卫街道前兴路125号恒宇商业广场	4008280768	云南省	昆明市	西山区	102.705379	24.986887	102.70395271572949	24.98987584286579	102.705379 24.986887	汽车服务	充电站	充电站
千法万福充电站(广福城拥金路站)	汽车服务;充电站;充电站	11100	拥金路正东方向160米	0871-67353169	云南省	昆明市	西山区	102.700563	24.98881	102.69914696121008	24.991806044552657	102.700563 24.98881	汽车服务	充电站	充电站
芳菲新能源儿童医院汽车充电站	汽车服务;充电站;充电站	11100	儿童医院旁宏亚停车场内	13888929723	云南省	昆明市	西山区	102.708064	24.990227	102.70663212217724	24.993211509993365	102.708064 24.990227	汽车服务	充电站	充电站
特来电充电站(昆明车云汽修珥季路店)	汽车服务;充电站;充电站	11100	珥季路与龙马段交叉口东100米(车坛汽修厂区内停车位)	4001300001	云南省	昆明市	官渡区	102.728787	24.941484	102.72732142216196	24.944451440690592	102.728787 24.941484	汽车服务	充电站	充电站
蔚来充换电一体站(昆明中石化广福路)	汽车服务;充电站;充电站	11100	广福路678号中国石化(加油站B站)内	[]	云南省	昆明市	西山区	102.68873	24.985292	102.68734134330458	24.98830868835818	102.68873 24.985292	汽车服务	充电站	充电站
云南能投智慧能源股份有限公司电动汽车充电站	汽车服务;充电站;充电站	11100	广福路云南赵树生肛肠病医院西北侧约110米	[]	云南省	昆明市	西山区	102.689081	24.982664	102.68769157750565	24.985680389131467	102.689081 24.982664	汽车服务	充电站	充电站
特来电充电站(特来电站昆明观云温泉酒店)	汽车服务;充电站;充电站	11100	海春路汉庭酒店(前兴路大商汇中心店)	[]	云南省	昆明市	西山区	102.705121	24.98968	102.70369517235552	24.992668877064588	102.705121 24.98968	汽车服务	充电站	充电站
特来电充电站(车云汽修珥季路店)	汽车服务;充电站;充电站	11100	龙马段与珥季路辅路交叉口东南约220米	4001300001	云南省	昆明市	官渡区	102.73008	24.94035	102.72861274974755	24.94331659201044	102.73008 24.94035	汽车服务	充电站	充电站
特来电充电站(昆明大润发官南店)	汽车服务;充电站;充电站	11100	官南大道2169号地下停车场负一层001-009号车位	4001300001	云南省	昆明市	官渡区	102.721867	24.988663	102.72041019449968	24.991630712745906	102.721867 24.988663	汽车服务	充电站	充电站
特来电充电站(AI快充昆明香缇玫瑰)	汽车服务;充电站;充电站	11100	河宏路与前卫西路交叉口东南约160米	13888260869	云南省	昆明市	西山区	102.693792	24.990617	102.6923912253345	24.9936240885106	102.693792 24.990617	汽车服务	充电站	充电站
汽车充电站(艾充广福路清水河)	汽车服务;充电站;充电站	11100	昆明滇池国家旅游度假区广福路(金荷路)清水河停车场内	18987475791	云南省	昆明市	西山区	102.683341	24.987484	102.68196537548124	24.990510279438816	102.683341 24.987484	汽车服务	充电站	充电站
中国南方电网前兴路电动汽车充电站	汽车服务;充电站;充电站	11100	河宏路439号附近	[]	云南省	昆明市	西山区	102.704017	24.987576	102.7025935534228	24.990566807853845	102.704017 24.987576	汽车服务	充电站	充电站
特斯拉目的地充电站(公园1903)	汽车服务;充电站;充电站	11100	滇池国家旅游度假区海宏路地下停车场L011-L014号车位	[]	云南省	昆明市	西山区	102.676562	24.985981	102.6752032217488	24.989020232086627	102.676562 24.985981	汽车服务	充电站	充电站
星星充电汽车充电站(昆明西山区碧海缘快充站)	汽车服务;充电站;充电站	11100	前卫西路东段3号云南碧海缘停车场	4008280768	云南省	昆明市	西山区	102.684739	24.988199	102.68335992919444	24.991222600333924	102.684739 24.988199	汽车服务	充电站	充电站
特来电充电站(昆明双凤路环卫站)	汽车服务;充电站;充电站	11100	双凤路297号	[]	云南省	昆明市	官渡区	102.729872	24.989885	102.72840356272836	24.99284543472456	102.729872 24.989885	汽车服务	充电站	充电站
特来电充电站(昆明爱琴海购物公园)	汽车服务;充电站;充电站	11100	广福路488号	[]	云南省	昆明市	西山区	102.684303	24.9918	102.68292489249194	24.994823954087867	102.684303 24.9918	汽车服务	充电站	充电站
一城风景云台会馆充电站	汽车服务;充电站;充电站	11100	云台会馆庭院餐厅地面停车场	[]	云南省	昆明市	西山区	102.690336	25.004212	102.68894296226487	25.00722345537981	102.690336 25.004212	汽车服务	充电站	充电站
汽车充电站(德利邦快乐海鲜)	汽车服务;充电站;充电站	11100	滇池路1282号快乐海鲜酒楼停车场	[]	云南省	昆明市	西山区	102.684954	25.010368	102.68357376798753	25.01338845598309	102.684954 25.010368	汽车服务	充电站	充电站
特斯拉充电站(南亚风情第壹城充电站)	汽车服务;充电站;充电站	11100	南亚风情第壹城地下负一层停车场A区A123-A138	[]	云南省	昆明市	西山区	102.683807	25.009893	102.682429589324	25.01291563455409	102.683807 25.009893	汽车服务	充电站	充电站
特来电充电站(昆明滇池路滇池时代快速)	汽车服务;充电站;充电站	11100	滇池路滇池时代广场滇池时代广场负二层B003-B018号车位	17687119626	云南省	昆明市	西山区	102.683753	25.011581	102.6823756734064	25.0146035290588	102.683753 25.011581	汽车服务	充电站	充电站
特来电充电站(昆明南亚风情第壹城)	汽车服务;充电站;充电站	11100	南亚风情第壹城地下负一层停车场A区A123-A138	4001300001	云南省	昆明市	西山区	102.684851	25.009321	102.68347104965568	25.01234177363929	102.684851 25.009321	汽车服务	充电站	充电站
特来电充电站(南亚风情第壹城二期)	汽车服务;充电站;充电站	11100	滇池路595号南亚风情第壹城地下负一层停车场T区07通道T001-T010号	[]	云南省	昆明市	西山区	102.683603	25.009945	102.68222608844732	25.012968006682247	102.683603 25.009945	汽车服务	充电站	充电站
易进物联智能充电站	汽车服务;充电站;充电站	11100	前卫西路绿地大城天地22-3栋902室	[]	云南省	昆明市	西山区	102.703806	25.012957	102.70238226267016	25.015944988196903	102.703806 25.012957	汽车服务	充电站	充电站
三峡电能汽车充电站(方舟大酒店)	汽车服务;充电站;充电站	11100	滇池路65号	[]	云南省	昆明市	西山区	102.694484	25.018346	102.69308081987444	25.021348488442182	102.694484 25.018346	汽车服务	充电站	充电站
云能充新能源汽车充电站(滇池大厦站)	汽车服务;充电站;充电站	11100	滇池路799号滇池大厦停车场	15887813219	云南省	昆明市	西山区	102.677273	25.005981	102.67591187854768	25.00901639125684	102.677273 25.005981	汽车服务	充电站	充电站
特来电充电站(昆明市西福路西华公园)	汽车服务;充电站;充电站	11100	福海街道西华山水西华公园	4001300001	云南省	昆明市	西山区	102.682256	25.020904	102.68088208874686	25.0239281913354	102.682256 25.020904	汽车服务	充电站	充电站
星星充电汽车充电站(云南省昆明市官渡区滇池华府桩群)	汽车服务;充电站;充电站	11100	滇池华府	4008280768	云南省	昆明市	西山区	102.685483	24.996724	102.68410186890544	24.999745163728868	102.685483 24.996724	汽车服务	充电站	充电站
宝马充电站(宝马站德凯宝马汽车技术服务有限公司)	汽车服务;充电站;充电站	11100	经开区出口加工区工业南标准厂房C-05	[]	云南省	昆明市	西山区	102.696264	25.020659	102.69485666337596	25.023658187889147	102.696264 25.020659	汽车服务	充电站	充电站
特来电汽车充电站(昆明市西福路西华公园充电站)	汽车服务;充电站;充电站	11100	福海街道西华山水西华公园	4001300001	云南省	昆明市	西山区	102.68226	25.020905	102.68088607885434	25.02392918374504	102.68226 25.020905	汽车服务	充电站	充电站
蔚来汽车充站(昆明广福路红星美凯龙)	汽车服务;充电站;充电站	11100	广福路红星美凯龙全球家居至尊Mall地面停车场内	[]	云南省	昆明市	西山区	102.682632	24.994722	102.68125791207572	24.99774869244525	102.682632 24.994722	汽车服务	充电站	充电站
汽车充电站(中澜环保昆明气象路)	汽车服务;充电站;充电站	11100	气象路王家坝22号	17611069175	云南省	昆明市	西山区	102.696336	25.024132	102.69492839866766	25.0271306530884	102.696336 25.024132	汽车服务	充电站	充电站
邦驰新能源汽车充电站(邦驰充电·红星美凯龙站广福路)	汽车服务;充电站;充电站	11100	广福路红星国际广场-二期内,耀龙大厦东北90米	18208785163	云南省	昆明市	西山区	102.683684	24.995331	102.6823073085123	24.99835565965989	102.683684 24.995331	汽车服务	充电站	充电站
汽车充电站(蔚来超充站昆明广福路红星美凯龙)	汽车服务;充电站;充电站	11100	红星美凯龙(广福路店)	[]	云南省	昆明市	西山区	102.683548	24.994488	102.68217166647368	24.997513017236084	102.683548 24.994488	汽车服务	充电站	充电站
保时捷汽车充电站(昆明滇池保时捷中心充电站)	汽车服务;充电站;充电站	11100	日新东路与海埂路交叉口	[]	云南省	昆明市	西山区	102.703366	24.998198	102.7019436267343	25.00118847558497	102.703366 24.998198	汽车服务	充电站	充电站
保时捷汽车充电站(昆明滇池保时捷中心充电站)	汽车服务;充电站;充电站	11100	日新东路与海埂路交叉口	0871-64589911	云南省	昆明市	西山区	102.703644	24.99831	102.70222103210996	25.00130003519796	102.703644 24.99831	汽车服务	充电站	充电站
芳菲新能源文化空间充电站	汽车服务;充电站;充电站	11100	环城西路321号	[]	云南省	昆明市	西山区	102.691037	25.033389	102.68964145757188	25.036395714652578	102.691037 25.033389	汽车服务	充电站	充电站
星星充电汽车充电站(云南云投集团桩群)	汽车服务;充电站;充电站	11100	云投中心悦云天地B区负一层停车场内	4008280768	云南省	昆明市	西山区	102.681372	25.044418	102.67999959804813	25.04744111235497	102.681372 25.044418	汽车服务	充电站	充电站
特来电充电站(版筑翠园停车场)	汽车服务;充电站;充电站	11100	西站虹山东路4号版筑翠园负一层停车场	4001300001	云南省	昆明市	五华区	102.693315	25.054582	102.69191348888212	25.057582336332697	102.693315 25.054582	汽车服务	充电站	充电站
滇约充电明波汽车充电站	汽车服务;充电站;充电站	11100	西苑浦路与丹霞路交叉口西南约80米	0871-68888889	云南省	昆明市	西山区	102.672913	25.032044	102.67156202451092	25.03508457422165	102.672913 25.032044	汽车服务	充电站	充电站
特来电汽车充电站(版筑翠园停车场充电站)	汽车服务;充电站;充电站	11100	西站虹山东路4号版筑翠园负一层停车场	4001300001	云南省	昆明市	五华区	102.690738	25.053523	102.68934258569772	25.056527970446545	102.690738 25.053523	汽车服务	充电站	充电站
特来电充电站(云南老干部活动中心)	汽车服务;充电站;充电站	11100	安吉巷与安康路交叉口东南约140米	[]	云南省	昆明市	西山区	102.70051	25.027429	102.69909295742492	25.030420411673227	102.70051 25.027429	汽车服务	充电站	充电站
特来电充电站(云南老干部活动中心充电站)	汽车服务;充电站;充电站	11100	安吉路43号老干部活动中心	4001300001	云南省	昆明市	西山区	102.699507	25.027521	102.69809216798907	25.030514015723583	102.699507 25.027521	汽车服务	充电站	充电站
特来电充电站(特来电站铝厂)	汽车服务;充电站;充电站	11100	佴家湾214号(昆明火车站地铁站B口步行340米)	[]	云南省	昆明市	官渡区	102.723666	25.01081	102.72220574007942	25.01377318095619	102.723666 25.01081	汽车服务	充电站	充电站
特来电充电站(AI快充昆明福发路)	汽车服务;充电站;充电站	11100	福发路28号烟草公司院内	18087753380	云南省	昆明市	官渡区	102.723706	25.004889	102.72224585296148	25.007852867414087	102.723706 25.004889	汽车服务	充电站	充电站
昆铁雲行取还车处充电站	汽车服务;充电站;充电站	11100	站前路昆明铁路大厦东南侧约30米	[]	云南省	昆明市	官渡区	102.72351	25.016165	102.72204982148314	25.019127682493217	102.72351 25.016165	汽车服务	充电站	充电站
昆明沃尔玛关上充电站	汽车服务;充电站;充电站	11100	海明路沃尔玛国贸店停车场内	[]	云南省	昆明市	官渡区	102.731337	25.013052	102.7298660104412	25.016008505547862	102.731337 25.013052	汽车服务	充电站	充电站
特来电充电站(昆明关上沃尔玛)	汽车服务;充电站;充电站	11100	春城路289号昆明国贸中心沃尔玛东门停车场内	15912400434	云南省	昆明市	官渡区	102.731328	25.013044	102.72985702191922	25.016000512835863	102.731328 25.013044	汽车服务	充电站	充电站
小桔充电汽车充电站(云滴充汽车充电站云滴总部)	汽车服务;充电站;充电站	11100	云滴出行总部大楼	4000610999	云南省	昆明市	官渡区	102.71844	25.01234	102.7169881451801	25.015308474815907	102.71844 25.01234	汽车服务	充电站	充电站
特来电充电站(昆明明晔中心)	汽车服务;充电站;充电站	11100	南博路与绿荫大道交叉口明晔中心	4001300001	云南省	昆明市	西山区	102.715147	25.008393	102.71370104524942	25.011365844303032	102.715147 25.008393	汽车服务	充电站	充电站
小桔充电汽车充电站(关上会展中心充电站)	汽车服务;充电站;充电站	11100	昆明国际会展中心-东4门	4000610999	云南省	昆明市	官渡区	102.73046	25.011803	102.72899015703456	25.01476028631691	102.73046 25.011803	汽车服务	充电站	充电站
云能充新能源汽车充电站(国际会展中心站)	汽车服务;充电站;充电站	11100	春城路289号(福德地铁站B口步行370米)	0871-68589884	云南省	昆明市	官渡区	102.731629	25.009591	102.7301577493837	25.0125477234726	102.731629 25.009591	汽车服务	充电站	充电站
特来电充电站(中炬广场)	汽车服务;充电站;充电站	11100	春城路250号	4001300001	云南省	昆明市	官渡区	102.725859	25.018611	102.72439524488406	25.02157120211645	102.725859 25.018611	汽车服务	充电站	充电站
艾充充电站(特安呐酒店)	汽车服务;充电站;充电站	11100	关上街道日新路1531号	[]	云南省	昆明市	官渡区	102.731463	25.001615	102.72999219047811	25.004572818926032	102.731463 25.001615	汽车服务	充电站	充电站
官渡区关兴路充电站	汽车服务;充电站;充电站	11100	宝海路78附近	[]	云南省	昆明市	官渡区	102.73483	25.011526	102.7333549246592	25.01448045780568	102.73483 25.011526	汽车服务	充电站	充电站
特来电充电站	汽车服务;充电站;充电站	11100	南博路与绿荫大道交叉口明晔中心	4001300001	云南省	昆明市	西山区	102.714849	25.008182	102.7134035916464	25.011155237878786	102.714849 25.008182	汽车服务	充电站	充电站
艾充汽车充电站(艾充日新路充电站艾充科技)	汽车服务;充电站;充电站	11100	日新路1531号停车场	18987475791	云南省	昆明市	官渡区	102.73107	25.001292	102.72959969182962	25.00425013563488	102.73107 25.001292	汽车服务	充电站	充电站
特来电充电站(昆明火车站南窑客运充电示范站)	汽车服务;充电站;充电站	11100	昆明火车站南窑汽车客运站内	4001300001	云南省	昆明市	官渡区	102.719986	25.019062	102.71853135271228	25.02202795175021	102.719986 25.019062	汽车服务	充电站	充电站
特来电充电站(昆明北京路锦江大酒店)	汽车服务;充电站;充电站	11100	北京路98号A座附近	[]	云南省	昆明市	官渡区	102.720099	25.019968	102.71864413952022	25.022933721002	102.720099 25.019968	汽车服务	充电站	充电站
超能充电站(海埂站)	汽车服务;充电站;充电站	11100	云兴路183号	[]	云南省	昆明市	西山区	102.706946	25.017416	102.70551559648106	25.020398770352127	102.706946 25.017416	汽车服务	充电站	充电站
特来电充电站(云南华之味食品)	汽车服务;充电站;充电站	11100	民小路与福德路交叉口西南320米	[]	云南省	昆明市	官渡区	102.728335	24.995968	102.72686843098728	24.99892887299462	102.728335 24.995968	汽车服务	充电站	充电站
特斯拉汽车充电站(昆明市H公寓站)	汽车服务;充电站;充电站	11100	谭家营街与希望路交叉口东北约120米	0871-63126600	云南省	昆明市	西山区	102.71347	25.008439	102.71202711924506	25.01141394166335	102.71347 25.008439	汽车服务	充电站	充电站
滇约充电汽车充电站(金龙站)	汽车服务;充电站;充电站	11100	北京路165号(环城南路地铁站D口步行450米)	0871-68888889	云南省	昆明市	官渡区	102.722527	25.023734	102.72106812307614	25.02669674505239	102.722527 25.023734	汽车服务	充电站	充电站
特来电充电站(云南云享宝海公园)	汽车服务;充电站;充电站	11100	宝海路宝海公园北门停车场	4001300001	云南省	昆明市	官渡区	102.736611	25.016272	102.735133858982	25.019224913894885	102.736611 25.016272	汽车服务	充电站	充电站
特来电汽车充电站(云南云享宝海公园充电站)	汽车服务;充电站;充电站	11100	宝海路宝海公园北门停车场	14787848670	云南省	昆明市	官渡区	102.73648	25.016207	102.73500299833309	25.01915998904872	102.73648 25.016207	汽车服务	充电站	充电站
星星充电汽车充电站(莹河新能源双凤快充站)	汽车服务;充电站;充电站	11100	莹河新能源双凤快充站	4008280768	云南省	昆明市	官渡区	102.728772	24.994702	102.72730487727362	24.9976626816044	102.728772 24.994702	汽车服务	充电站	充电站
星星充电汽车充电站(浙江晨曦电气昆明)	汽车服务;充电站;充电站	11100	环城南路618号	4008280768	云南省	昆明市	西山区	102.713195	25.021794	102.71175224124669	25.02476768016448	102.713195 25.021794	汽车服务	充电站	充电站
中科智充-新能源充电站(大悦城站)	汽车服务;充电站;充电站	11100	大悦城负二层停车场D区	[]	云南省	昆明市	西山区	102.713225	25.022825	102.71178215508704	25.025798518755803	102.713225 25.022825	汽车服务	充电站	充电站
汽车充电站(山高新能源昆明西山区润城第二大道)	汽车服务;充电站;充电站	11100	日新东路与前兴路交叉口润城第二大道地下停车场B1层C区	[]	云南省	昆明市	西山区	102.707339	24.996175	102.70590841468616	24.999159805420177	102.707339 24.996175	汽车服务	充电站	充电站
特斯拉充电站(昆明润城第二大道超级站新国标)	汽车服务;充电站;充电站	11100	前兴路润城第二大道B1层C区	[]	云南省	昆明市	西山区	102.706689	24.996483	102.70525973158252	24.999468709775165	102.706689 24.996483	汽车服务	充电站	充电站
小桔充电汽车充电站(西山区西昌路充电站)	汽车服务;充电站;充电站	11100	中央丽城-南1门	4000610999	云南省	昆明市	西山区	102.707515	25.023825	102.7060832520763	25.02680618189284	102.707515 25.023825	汽车服务	充电站	充电站
特来电充电站(人民东路金泉大酒店)	汽车服务;充电站;充电站	11100	人民东路93号(交三桥地铁站C口步行410米)	[]	云南省	昆明市	盘龙区	102.72319	25.042507	102.72172953961584	25.045466907465613	102.72319 25.042507	汽车服务	充电站	充电站
特来电充电站(汇都国际)	汽车服务;充电站;充电站	11100	东风东路汇都商业中心噎市停车场D座负三层113号车位至133号	[]	云南省	昆明市	盘龙区	102.728487	25.038027	102.72701898600612	25.040982695409834	102.728487 25.038027	汽车服务	充电站	充电站
特来电充电站(东风东路昆明中心假日酒店)	汽车服务;充电站;充电站	11100	东风东路29号	[]	云南省	昆明市	盘龙区	102.725356	25.037579	102.72389242087074	25.040537424420425	102.725356 25.037579	汽车服务	充电站	充电站
蔚来能源汽车充电站(蔚来目充站昆明恒隆广场)	汽车服务;充电站;充电站	11100	东风东路21-23号昆明恒隆广场B2	[]	云南省	昆明市	盘龙区	102.721474	25.036601	102.72001641459624	25.039563311868346	102.721474 25.036601	汽车服务	充电站	充电站
特来电充电站(昆明新工人文化宫)	汽车服务;充电站;充电站	11100	人民东路196号	4001300001	云南省	昆明市	盘龙区	102.72789	25.045064	102.72642259430629	25.048019380539344	102.72789 25.045064	汽车服务	充电站	充电站
特来电充电站(昆明新工人文化宫二期)	汽车服务;充电站;充电站	11100	人民东路昆明工人文化宫	4001300001	云南省	昆明市	盘龙区	102.727882	25.045051	102.72641460570854	25.04800638857995	102.727882 25.045051	汽车服务	充电站	充电站
开迈斯汽车充电站(昆明市七彩Me Town购物中心站)	汽车服务;充电站;充电站	11100	白塔路399号A140-A145	4006657666	云南省	昆明市	盘龙区	102.72654	25.048382	102.72507438901368	25.05133815034452	102.72654 25.048382	汽车服务	充电站	充电站
汽车充电站(华享新能源和谐园)	汽车服务;充电站;充电站	11100	塘双路11号(塘子巷地铁站C口步行440米)	17611069175	云南省	昆明市	官渡区	102.719503	25.029137	102.71804885954606	25.032102282709246	102.719503 25.029137	汽车服务	充电站	充电站
特来电充电站(昆配吴井电动汽车)	汽车服务;充电站;充电站	11100	吴井路138-1号	17608803237	云南省	昆明市	官渡区	102.726131	25.027635	102.72466658616766	25.03059388758954	102.726131 25.027635	汽车服务	充电站	充电站
云南快来电充电站(联元商务楼)	汽车服务;充电站;充电站	11100	联元商务楼	[]	云南省	昆明市	官渡区	102.721824	25.027189	102.720366131939	25.030152048349176	102.721824 25.027189	汽车服务	充电站	充电站
星星充电站(翠湖宾馆)	汽车服务;充电站;充电站	11100	华山西路翠湖宾馆北门停车场	4008280768	云南省	昆明市	五华区	102.70752	25.047714	102.70608754543848	25.0506924196031	102.70752 25.047714	汽车服务	充电站	充电站
特来电充电站(AI快充昆明联元商务楼)	汽车服务;充电站;充电站	11100	联元商务楼	18087753380	云南省	昆明市	官渡区	102.721881	25.027172	102.7204230417782	25.03013499201553	102.721881 25.027172	汽车服务	充电站	充电站
特来电充电站(昆明泰丽国际酒店)	汽车服务;充电站;充电站	11100	环城南路39号(岔街地铁站D口步行410米)	[]	云南省	昆明市	官渡区	102.732398	25.029668	102.73092521640548	25.032621797628234	102.732398 25.029668	汽车服务	充电站	充电站
特来电充电站(昆明亚朵轻居)	汽车服务;充电站;充电站	11100	东风西路96号(五一路地铁站C口步行210米)	[]	云南省	昆明市	五华区	102.707839	25.036973	102.70640621331772	25.03995217963874	102.707839 25.036973	汽车服务	充电站	充电站
云能充新能源汽车充电站(白龙路站)	汽车服务;充电站;充电站	11100	白龙路138号(白龙路地铁站A口步行180米)	[]	云南省	昆明市	盘龙区	102.73365	25.050582	102.73217511500516	25.053532609680087	102.73365 25.050582	汽车服务	充电站	充电站
特来电充电站(华润悦府二期金标)	汽车服务;充电站;充电站	11100	东郊路61号(岔街地铁站C口步行340米)	15808705508	云南省	昆明市	官渡区	102.735732	25.030054	102.73425538690556	25.033005738582272	102.735732 25.030054	汽车服务	充电站	充电站
特来电充电站(昆明市总工会职工之家)	汽车服务;充电站;充电站	11100	书林街139号地下停车位	4001300001	云南省	昆明市	西山区	102.71165	25.028682	102.71020996056684	25.03165688478247	102.71165 25.028682	汽车服务	充电站	充电站
特来电充电站(昆明市五华区政府)(内部专用)	汽车服务;充电站;充电站	11100	华山西路1号五华区区级机关办公大楼停车场	14787848670	云南省	昆明市	五华区	102.707369	25.043883	102.70593696360218	25.046862066862182	102.707369 25.043883	汽车服务	充电站	充电站
星星充电汽车充电站(昆明翠湖宾馆)	汽车服务;充电站;充电站	11100	华山西路翠湖宾馆北门停车场	[]	云南省	昆明市	五华区	102.707367	25.047724	102.70593485565284	25.05070263874949	102.707367 25.047724	汽车服务	充电站	充电站
特斯拉充电站(昆明彩云里超级站新国标)	汽车服务;充电站;充电站	11100	昆明市西山区书林街128号 彩云里地下停车场 B2	4009100707	云南省	昆明市	西山区	102.711601	25.026343	102.7101611226769	25.02931822542613	102.711601 25.026343	汽车服务	充电站	充电站
特斯拉充电站(昆明新迎新城超级站新国标)	汽车服务;充电站;充电站	11100	新迎新路182号新迎新城购物中心负二层停车场B区17排	[]	云南省	昆明市	盘龙区	102.739381	25.050938	102.7379000852762	25.053885620662907	102.739381 25.050938	汽车服务	充电站	充电站
特来电充电站(华润悦府一期金标)	汽车服务;充电站;充电站	11100	东郊路125号(东郊路地铁站D口步行230米)	15808705508	云南省	昆明市	官渡区	102.740153	25.027942	102.73867205347426	25.0308919427376	102.740153 25.027942	汽车服务	充电站	充电站
科威智能停电场充电站	汽车服务;充电站;充电站	11100	云秀路官渡社区卫生服务中心北侧约50米	[]	云南省	昆明市	官渡区	102.758683	24.95619	102.75719428659627	24.95914830834345	102.758683 24.95619	汽车服务	充电站	充电站
特来电充电站(昆明市官渡区政府站)	汽车服务;充电站;充电站	11100	官渡区区政府云秀路2898号停车位	[]	云南省	昆明市	官渡区	102.748317	24.948805	102.7468323263252	24.95176296604021	102.748317 24.948805	汽车服务	充电站	充电站
邦驰充电星耀汽车充电站	汽车服务;充电站;充电站	11100	饵季路星耀文体康养中心负一层停车场	18208785163	云南省	昆明市	官渡区	102.768107	24.948992	102.76661874099328	24.951955887276146	102.768107 24.948992	汽车服务	充电站	充电站
星星汽车充电站(福润德滇创科技园)	汽车服务;充电站;充电站	11100	云秀路滇创科技园	4008280768	云南省	昆明市	官渡区	102.747973	24.948535	102.74648853563616	24.95149302777651	102.747973 24.948535	汽车服务	充电站	充电站
星星充电汽车充电站(昆明市官渡区政府)	汽车服务;充电站;充电站	11100	云秀路官渡区政府地下室	4008280768	云南省	昆明市	官渡区	102.748571	24.950344	102.74708613524484	24.953301751650688	102.748571 24.950344	汽车服务	充电站	充电站
特来电充电站(特来电站饵季路御晟酒店)	汽车服务;充电站;充电站	11100	广福路逸家商务酒店南侧约70米	[]	云南省	昆明市	官渡区	102.74913	24.954959	102.74764468758526	24.95791613107807	102.74913 24.954959	汽车服务	充电站	充电站
星星充电汽车充电站(云秀路中营快充站)	汽车服务;充电站;充电站	11100	云秀路3216号	4008280768	云南省	昆明市	官渡区	102.744279	24.946072	102.7427970718531	24.94903091767291	102.744279 24.946072	汽车服务	充电站	充电站
星星充电汽车充电站(美丽充银海清溪渡快充站)	汽车服务;充电站;充电站	11100	季宏路银海清溪渡银海金岸C栋户外停车场	4008280768	云南省	昆明市	官渡区	102.748245	24.954404	102.74676020253594	24.957361253770937	102.748245 24.954404	汽车服务	充电站	充电站
特来电昆明银海幸福广场二期汽车充电站	汽车服务;充电站;充电站	11100	银海幸福广场停车场	4001300001	云南省	昆明市	官渡区	102.747937	24.957772	102.74645228389836	24.96072884717596	102.747937 24.957772	汽车服务	充电站	充电站
特来电充电站(昆明官渡古镇立体车库)	汽车服务;充电站;充电站	11100	云南省昆明市官渡区云秀路	[]	云南省	昆明市	官渡区	102.740615	24.943309	102.73913613897648	24.94626935010121	102.740615 24.943309	汽车服务	充电站	充电站
特来电充电站(昆明市官渡区银海幸福广场公共快充站)	汽车服务;充电站;充电站	11100	珥季路与广福路交叉口银海幸福广场	4001300001	云南省	昆明市	官渡区	102.747224	24.957934	102.7457397127305	24.960890897959008	102.747224 24.957934	汽车服务	充电站	充电站
汽车充电站(昆明师专附小官渡学校)	汽车服务;充电站;充电站	11100	矣六街道昆明师范高等专科学校附属小学官渡学校	[]	云南省	昆明市	官渡区	102.774173	24.959512	102.77268637663568	24.962479217963228	102.774173 24.959512	汽车服务	充电站	充电站
泰逸东辉商业中心充电站	汽车服务;充电站;充电站	11100	金源大道海伦国际海伦区	[]	云南省	昆明市	官渡区	102.747991	24.967205	102.74650597293228	24.97016063575694	102.747991 24.967205	汽车服务	充电站	充电站
邦驰充电(海伦国际充电站)	汽车服务;充电站;充电站	11100	海伦国际6号地	4001300001;18208785163	云南省	昆明市	官渡区	102.745117	24.969673	102.7436337672858	24.972628721006824	102.745117 24.969673	汽车服务	充电站	充电站
昆明市金源大道海伦国际充电站	汽车服务;充电站;充电站	11100	金源大道海伦国际5号地停车场内	[]	云南省	昆明市	官渡区	102.745711	24.965302	102.74422748320292	24.96825817077679	102.745711 24.965302	汽车服务	充电站	充电站
星星充电汽车充电站(唯电充电桩群)	汽车服务;充电站;充电站	11100	昆岭路与万裕路交叉口东盟农副产品批发市场1号门旁	4008280768	云南省	昆明市	官渡区	102.743981	24.975779	102.742498416849	24.978734187916984	102.743981 24.975779	汽车服务	充电站	充电站
邦驰汽车充电大都摩天站	汽车服务;充电站;充电站	11100	[]	0871-65098858;18208785163	云南省	昆明市	官渡区	102.76782	24.967673	102.76633112954778	24.9706343057956	102.76782 24.967673	汽车服务	充电站	充电站
星星充电汽车充电站(美丽充昆明大都一期)	汽车服务;充电站;充电站	11100	彩云北路与珥季路交叉口大都一期C座中国邮政银行门口停车场	[]	云南省	昆明市	官渡区	102.765946	24.968702	102.7644567967789	24.97166200992364	102.765946 24.968702	汽车服务	充电站	充电站
星星充电站(云秀路)	汽车服务;充电站;充电站	11100	云秀路与安和路交叉路口	4008280768	云南省	昆明市	官渡区	102.772969	24.966574	102.77148167346414	24.969539284788286	102.772969 24.966574	汽车服务	充电站	充电站
汽车充电站(华享新能源西庄商业中心)	汽车服务;充电站;充电站	11100	珥季路辅路与如意中路交叉口东南约200米	17611069175	云南省	昆明市	官渡区	102.760262	24.962934	102.75877288400764	24.96589199674012	102.760262 24.962934	汽车服务	充电站	充电站
特来电充电站(世纪城国际公寓1号楼停车场)	汽车服务;充电站;充电站	11100	世纪城国际公寓1号楼停车场	13888921288	云南省	昆明市	官渡区	102.765307	24.979709	102.76381739833572	24.98266724129965	102.765307 24.979709	汽车服务	充电站	充电站
特来电汽车充电站(世纪城国际公寓1号楼停车场充电站)	汽车服务;充电站;充电站	11100	世纪城国际公寓1号楼停车场	13888921288	云南省	昆明市	官渡区	102.765305	24.97971	102.76381539810468	24.982668240043875	102.765305 24.97971	汽车服务	充电站	充电站
特来电充电站(世纪金源商务中心3号楼停车场)	汽车服务;充电站;充电站	11100	金源大道与彩云北路辅路交叉口西南约80米	13888921288	云南省	昆明市	官渡区	102.765844	24.977397	102.76435452652126	24.98035584299772	102.765844 24.977397	汽车服务	充电站	充电站
特来电汽车充电站(世纪金源商务中心3号楼停车场充电站)	汽车服务;充电站;充电站	11100	世纪金源商务中心3号楼停车场	13888921288	云南省	昆明市	官渡区	102.76585	24.977398	102.76436052722104	24.980356846375354	102.76585 24.977398	汽车服务	充电站	充电站
小桔充电汽车充电站(小桔充电小板桥充电站)	汽车服务;充电站;充电站	11100	昆洛公路686号	19988490039	云南省	昆明市	官渡区	102.770444	24.980074	102.7689554090828	24.98303556813833	102.770444 24.980074	汽车服务	充电站	充电站
星星充电汽车充电站	汽车服务;充电站;充电站	11100	瑞丰印刷有限公司(劲勋路)	[]	云南省	昆明市	官渡区	102.769323	24.989887	102.76783381010976	24.992846514158067	102.769323 24.989887	汽车服务	充电站	充电站
汽车充电站(昆明路路通)	汽车服务;充电站;充电站	11100	G8511(昆磨高速)路路通物园内	[]	云南省	昆明市	官渡区	102.792171	24.939581	102.7906981171128	24.94257159293399	102.792171 24.939581	汽车服务	充电站	充电站
汽车充电站(德利邦广卫立交)	汽车服务;充电站;充电站	11100	昆玉高速原广卫收费站	13808791134	云南省	昆明市	官渡区	102.79157	24.952922	102.7900961259848	24.955910038804948	102.79157 24.952922	汽车服务	充电站	充电站
融达充电站	汽车服务;充电站;充电站	11100	昆洛路与映华街交叉口	[]	云南省	昆明市	官渡区	102.78479	24.959127	102.7833099125084	24.962105386152007	102.78479 24.959127	汽车服务	充电站	充电站
星星充电汽车充电站(星星银电经景路)	汽车服务;充电站;充电站	11100	小板桥街道经景路	4008280768	云南省	昆明市	官渡区	102.79092	24.958038	102.78944533982214	24.961024480010504	102.79092 24.958038	汽车服务	充电站	充电站
星星充电汽车充电站(云南省昆明市官渡区魅力之城10号地块桩群)	汽车服务;充电站;充电站	11100	魅力之城10号地块桩群	4008280768	云南省	昆明市	官渡区	102.781555	24.95197	102.78007273873844	24.95494554130327	102.781555 24.95197	汽车服务	充电站	充电站
万马爱充汽车充电站(云南快安电新能源有限公司)	汽车服务;充电站;充电站	11100	映华街与昆洛路交叉口西约40米	[]	云南省	昆明市	官渡区	102.784765	24.95921	102.78328489035192	24.96218834525223	102.784765 24.95921	汽车服务	充电站	充电站
星星充电汽车充电站(浩宏产业园快充站)	汽车服务;充电站;充电站	11100	经开区经景路38号浩宏产业园内	4008280768	云南省	昆明市	官渡区	102.801119	24.958147	102.7996555316527	24.96114880267716	102.801119 24.958147	汽车服务	充电站	充电站
万马爱充汽车充电站(云南快安电新能源有限公司)	汽车服务;充电站;充电站	11100	昆洛路万科魅力之城3期旁地块	4000850006	云南省	昆明市	官渡区	102.782843	24.959539	102.78136142459364	24.962515031439526	102.782843 24.959539	汽车服务	充电站	充电站
小桔充电云大西路站	汽车服务;充电站;充电站	11100	云大西路与龙辉路交叉口西北200米	[]	云南省	昆明市	官渡区	102.78716	24.978107	102.78568130601327	24.98108591524988	102.78716 24.978107	汽车服务	充电站	充电站
小桔充电汽车充电站(小桔充电云大西路站)	汽车服务;充电站;充电站	11100	云大西路102号(羊甫头地铁站D口步行180米)	19988490039	云南省	昆明市	官渡区	102.787088	24.978904	102.78560922055728	24.981882722100465	102.787088 24.978904	汽车服务	充电站	充电站
特来电充电站(云南伦邦羊甫)	汽车服务;充电站;充电站	11100	羊甫商业中心旁(羊甫头地铁站B口旁)	0871-67364588	云南省	昆明市	官渡区	102.785026	24.977144	102.78354556658928	24.98012037285075	102.785026 24.977144	汽车服务	充电站	充电站
小桔充电葛洲坝充电站	汽车服务;充电站;充电站	11100	顺通大道第三城·财富中心东北侧约60米	[]	云南省	昆明市	官渡区	102.79547	24.967606	102.79399973825991	24.970597799540784	102.79547 24.967606	汽车服务	充电站	充电站
星星充电汽车充电站(玉缘路补电站)	汽车服务;充电站;充电站	11100	玉缘路地铁口	[]	云南省	昆明市	官渡区	102.784514	24.968394	102.78303342200688	24.9713708676146	102.784514 24.968394	汽车服务	充电站	充电站
云能充骏信汽配城二期充电站	汽车服务;充电站;充电站	11100	骏信国际汽配城二期1号门	[]	云南省	昆明市	官渡区	102.802752	24.96781	102.80129025955377	24.97081323126849	102.802752 24.96781	汽车服务	充电站	充电站
小桔充电汽车充电站(经开区顺通大道充电站)	汽车服务;充电站;充电站	11100	葛洲坝大厦	4000610999	云南省	昆明市	官渡区	102.795494	24.967808	102.79402375839844	24.97079980959001	102.795494 24.967808	汽车服务	充电站	充电站
双创大厦充电站	汽车服务;充电站;充电站	11100	凯成路双创大厦北汽新能源昆明良明熊店前	[]	云南省	昆明市	官渡区	102.804304	24.966281	102.80284426579207	24.969287006130973	102.804304 24.966281	汽车服务	充电站	充电站
德利邦充电站(玉缘路店)	汽车服务;充电站;充电站	11100	官渡区经济技术开发区玉缘路北50米吉利新能源	13808791134	云南省	昆明市	官渡区	102.803033	24.966028	102.80157166368797	24.96903192273676	102.803033 24.966028	汽车服务	充电站	充电站
星星充电汽车充电站(银电吉能物流城快充站)	汽车服务;充电站;充电站	11100	羊甫社区948号	4008280768	云南省	昆明市	官渡区	102.78326	24.969183	102.7817784452894	24.97215828161633	102.78326 24.969183	汽车服务	充电站	充电站
汽车充电站(山高新能源昆明官渡区世纪浩鸿)	汽车服务;充电站;充电站	11100	玉缘路61号(浩鸿商业广场)	[]	云南省	昆明市	官渡区	102.792495	24.965546	102.79102167685076	24.968533725765703	102.792495 24.965546	汽车服务	充电站	充电站
星星充电汽车充电站(玉缘路补电站)	汽车服务;充电站;充电站	11100	小板桥街道玉缘路云路裕庭	4008280768	云南省	昆明市	官渡区	102.792045	24.964972	102.79057124160614	24.9679591621671	102.792045 24.964972	汽车服务	充电站	充电站
云能充(健兴利翡翠酒店充电站)	汽车服务;充电站;充电站	11100	经济技术开发区顺通大道33号健兴利翡翠酒店停车场	15887813219	云南省	昆明市	官渡区	102.796716	24.964423	102.79524720566305	24.96741708541204	102.796716 24.964423	汽车服务	充电站	充电站
芳菲新能源鼎盛轮胎汽配总部区充电站	汽车服务;充电站;充电站	11100	浦发路鼎盛轮胎汽配总部区	[]	云南省	昆明市	官渡区	102.802135	24.968786	102.8006724640955	24.971788093598505	102.802135 24.968786	汽车服务	充电站	充电站
星星充电汽车充电站(星星银电云路裕庭)	汽车服务;充电站;充电站	11100	云路裕庭(玉缘路南150米)	4008280768	云南省	昆明市	官渡区	102.790614	24.963668	102.78913887856416	24.966653337801635	102.790614 24.963668	汽车服务	充电站	充电站
星星充电汽车充电站(富康城乐悦广场)	汽车服务;充电站;充电站	11100	昆明市经开区浦发路与龙辉路交汇处	4008280768	云南省	昆明市	官渡区	102.794548	24.963234	102.79307687550344	24.966224991508195	102.794548 24.963234	汽车服务	充电站	充电站
汽车充电站(君来顺羊甫快充)	汽车服务;充电站;充电站	11100	羊甫社区广和路367号	15368008892	云南省	昆明市	官渡区	102.781946	24.963925	102.78046365557246	24.96689944777004	102.781946 24.963925	汽车服务	充电站	充电站
特来电充电站(艾充昆洛路羊甫)	汽车服务;充电站;充电站	11100	矣六街道子泰路云子中学长丰学校	18987475791	云南省	昆明市	官渡区	102.783152	24.961878	102.78167058160896	24.96485408972677	102.783152 24.961878	汽车服务	充电站	充电站
星星充电汽车充电站(羊甫社区快充站)	汽车服务;充电站;充电站	11100	昆洛公路1137号羊甫社区	[]	云南省	昆明市	官渡区	102.779503	24.966564	102.77801896986804	24.969535452006	102.779503 24.966564	汽车服务	充电站	充电站
特来电充电站(艾充昆洛路羊甫二期)	汽车服务;充电站;充电站	11100	昆洛路与子泰路交叉口	18987475791	云南省	昆明市	官渡区	102.783038	24.962045	102.78155649286056	24.965020936018945	102.783038 24.962045	汽车服务	充电站	充电站
星星充电汽车充电站(美丽充普照汽车市场)	汽车服务;充电站;充电站	11100	贵昆路辅路与３２４国道辅路交叉口西南约160米	4008280768	云南省	昆明市	官渡区	102.807535	24.98913	102.80607881636747	24.99213861068649	102.807535 24.98913	汽车服务	充电站	充电站
小桔充电充电站(经开区广汽传祺4S店站)	汽车服务;充电站;充电站	11100	博望路与宏贸路交叉口西北约40米	4000610999	云南省	昆明市	官渡区	102.806804	24.963522	102.80534759852222	24.96653260301617	102.806804 24.963522	汽车服务	充电站	充电站
AI快充融城金阶充电站	汽车服务;充电站;充电站	11100	民航路与关培路交叉口东南约60米	[]	云南省	昆明市	官渡区	102.746949	25.008575	102.74546338719544	25.01152555143816	102.746949 25.008575	汽车服务	充电站	充电站
滇中汇能官渡体育馆汽车充电站	汽车服务;充电站;充电站	11100	关景路	[]	云南省	昆明市	官渡区	102.749584	25.006307	102.74809692431226	25.009257633584248	102.749584 25.006307	汽车服务	充电站	充电站
特来电充电站(昆明彩云北路)	汽车服务;充电站;充电站	11100	彩云北路1085号(和甸营地铁站C1口步行460米)	4001300001	云南省	昆明市	官渡区	102.759136	25.017043	102.75764541457932	25.019993825657256	102.759136 25.017043	汽车服务	充电站	充电站
特来电充电站(AI快充融城金阶)	汽车服务;充电站;充电站	11100	融城金阶(西南门)	18087753380	云南省	昆明市	官渡区	102.74656	25.009127	102.74507462054896	25.01207753518716	102.74656 25.009127	汽车服务	充电站	充电站
特来电充电站(AI快充昆明三斗物流园)	汽车服务;充电站;充电站	11100	三斗物流园4号门	18087753380	云南省	昆明市	官渡区	102.766863	25.006917	102.7653727949195	25.00987276425805	102.766863 25.006917	汽车服务	充电站	充电站
特来电充电站(AI快充昆明三斗物流园)	汽车服务;充电站;充电站	11100	朱家村立交与彩云北路交叉口南约240米	[]	云南省	昆明市	官渡区	102.766878	25.004706	102.76538786292092	25.00766204528881	102.766878 25.004706	汽车服务	充电站	充电站
汽车充电站(邦驰充电·朱家村立交站)	汽车服务;充电站;充电站	11100	朱家村立交浩宏社区东南226米	0871-65098858	云南省	昆明市	官渡区	102.765302	25.002479	102.76381172268114	25.00543438561405	102.765302 25.002479	汽车服务	充电站	充电站
小桔充电汽车充电站(小桔充电关雨加油站充电站)	汽车服务;充电站;充电站	11100	关雨路中段	19988490039	云南省	昆明市	官渡区	102.760186	25.000092	102.75869579025073	25.003045273061584	102.760186 25.000092	汽车服务	充电站	充电站
特来电充电站(昆明旗骏汽车服务)	汽车服务;充电站;充电站	11100	贵昆公路508号	[]	云南省	昆明市	官渡区	102.770236	25.008744	102.7687464982758	25.011701836530897	102.770236 25.008744	汽车服务	充电站	充电站
尚亿源新能源汽车充电站	汽车服务;充电站;充电站	11100	昆明经济技术开发区昆明双胤城	[]	云南省	昆明市	官渡区	102.772185	25.00359	102.77069628290438	25.00654997838745	102.772185 25.00359	汽车服务	充电站	充电站
特斯拉汽车充电站(温莎KTV官上店)	汽车服务;充电站;充电站	11100	民航路400号温莎KTV官上店门口	[]	云南省	昆明市	官渡区	102.740975	25.0161	102.73949367158036	25.01905105454041	102.740975 25.0161	汽车服务	充电站	充电站
星星充电汽车充电站(金瓦路)	汽车服务;充电站;充电站	11100	青云街道金瓦路中国石油L-CNG加气站(寺瓦路)	4008280768	云南省	昆明市	盘龙区	102.760177	25.045757	102.75868543601862	25.048704848095216	102.760177 25.045757	汽车服务	充电站	充电站
云快充汽车充电站(紫薇广场充电站)	汽车服务;充电站;充电站	11100	金瓦路紫薇广场商场地下一层停车场	4008288517	云南省	昆明市	官渡区	102.752931	25.037205	102.75144147038372	25.04015208281625	102.752931 25.037205	汽车服务	充电站	充电站
盘龙电动汽车充电站	汽车服务;充电站;充电站	11100	二环东路926附近	[]	云南省	昆明市	盘龙区	102.745682	25.050301	102.7441959869869	25.053246856534862	102.745682 25.050301	汽车服务	充电站	充电站
星星充电汽车充电站(景泰街明星快充站)	汽车服务;充电站;充电站	11100	景泰街景泰雅苑旁充电区域停车场	4008280768	云南省	昆明市	盘龙区	102.753243	25.050163	102.75175296560296	25.05310865342343	102.753243 25.050163	汽车服务	充电站	充电站
一城风景小桔金马邮政物流汽车充电站	汽车服务;充电站;充电站	11100	太平路云南建工三村东南侧约80米	[]	云南省	昆明市	官渡区	102.760676	25.032252	102.75918479174425	25.0352015857124	102.760676 25.032252	汽车服务	充电站	充电站
邦驰领东国际充电站	汽车服务;充电站;充电站	11100	领东山语A3地块B2层地下室	0871-65098858	云南省	昆明市	盘龙区	102.769018	25.040372	102.76752723644724	25.04332521389036	102.769018 25.040372	汽车服务	充电站	充电站
特来电充电站(昆明昙华寺景泰街网约车集散中心)	汽车服务;充电站;充电站	11100	景泰街昙华路533号口口车站	4001300001	云南省	昆明市	盘龙区	102.752541	25.048124	102.7510513022728	25.05106980877485	102.752541 25.048124	汽车服务	充电站	充电站
特来电汽车充电站(昆明昙华寺景泰街网约车集散中心充电站)	汽车服务;充电站;充电站	11100	景泰街昙华路533号口口车站	4001300001	云南省	昆明市	盘龙区	102.75306	25.048698	102.75157007915016	25.05164379568348	102.75306 25.048698	汽车服务	充电站	充电站
盘龙区金马汽车广场充电站	汽车服务;充电站;充电站	11100	金瓦路与诚信路交叉口东北420米	[]	云南省	昆明市	盘龙区	102.766418	25.049847	102.76492645284202	25.05279745510112	102.766418 25.049847	汽车服务	充电站	充电站
芳菲新能源(金马立交桥充电站)作业	汽车服务;充电站;充电站	11100	东风东路382号	[]	云南省	昆明市	官渡区	102.746222	25.034533	102.74473609001362	25.03748055587916	102.746222 25.034533	汽车服务	充电站	充电站
滇约充电汽车充电站(十四冶站)	汽车服务;充电站;充电站	11100	太平路太平村中心幼儿园(第二分园)东南侧约150米	[]	云南省	昆明市	官渡区	102.764803	25.029982	102.76331186120446	25.032933792813346	102.764803 25.029982	汽车服务	充电站	充电站
快电充电站	汽车服务;充电站;充电站	11100	归十西路与太平路交叉路口往东约210米	[]	云南省	昆明市	官渡区	102.765852	25.02812	102.76436102295582	25.03107260435324	102.765852 25.02812	汽车服务	充电站	充电站
快电汽车充电站	汽车服务;充电站;充电站	11100	归十西路中国有色金属十四冶设备材料总仓库	[]	云南省	昆明市	官渡区	102.765777	25.02811	102.76428601422889	25.03106256181404	102.765777 25.02811	汽车服务	充电站	充电站
小桔充电汽车充电站(小桔充电金马立交桥充电站)	汽车服务;充电站;充电站	11100	东风东路332号	19988490039	云南省	昆明市	官渡区	102.746097	25.034453	102.7446111756486	25.03740058443384	102.746097 25.034453	汽车服务	充电站	充电站
滇约汽车充电站	汽车服务;充电站;充电站	11100	归十西路云南农产品电子信息交易中心西北侧约170米	15287320121	云南省	昆明市	官渡区	102.770191	25.029873	102.76870085836116	25.032828270323908	102.770191 25.029873	汽车服务	充电站	充电站
特来电充电站(AI快充新未来金马汽车广场)	汽车服务;充电站;充电站	11100	东三环金瓦路金马汽车广场	4006339533	云南省	昆明市	盘龙区	102.766061	25.051604	102.76456935185288	25.05455404729136	102.766061 25.051604	汽车服务	充电站	充电站
南方电网汽车充电站(二环东路)	汽车服务;充电站;充电站	11100	二环东路202号	[]	云南省	昆明市	盘龙区	102.745477	25.050522	102.74399112181568	25.053467868221627	102.745477 25.050522	汽车服务	充电站	充电站
特来电充电站(昆明马军场环卫站)	汽车服务;充电站;充电站	11100	二环东路辅路与菊华立交交叉口东北340米	[]	云南省	昆明市	官渡区	102.746996	25.029052	102.74550975091948	25.03200008878072	102.746996 25.029052	汽车服务	充电站	充电站
昆自新能源汽车充电站(官渡区马军场环卫汽车公共充电站)	汽车服务;充电站;充电站	11100	二环东路辅路与菊华立交交叉口东北320米	[]	云南省	昆明市	官渡区	102.746795	25.028824	102.74530888557427	25.03177214095744	102.746795 25.028824	汽车服务	充电站	充电站
汽车充电站(金秋元电动汽车公共)	汽车服务;充电站;充电站	11100	金马街道昆明金秋园果蔬批发市场(冷库旁)	18987554651	云南省	昆明市	官渡区	102.77113	25.024883	102.76964029178124	25.027839567467986	102.77113 25.024883	汽车服务	充电站	充电站
惠民充汽车充电站(中惠民汽车快速充电站菊花村站)	汽车服务;充电站;充电站	11100	吴井街道东郊路187号(东郊路地铁站D口步行400米)	4008850871	云南省	昆明市	官渡区	102.743045	25.026352	102.74156164402964	25.02930118659684	102.743045 25.026352	汽车服务	充电站	充电站
特来电充电站(昆明市香颂时光花园)	汽车服务;充电站;充电站	11100	金马街道贵昆路1778号	4001300001	云南省	昆明市	官渡区	102.78699	25.000336	102.78551050251974	25.00331190680056	102.78699 25.000336	汽车服务	充电站	充电站
三峡电能汽车充电站(十里铺站)	汽车服务;充电站;充电站	11100	十里铺路与金马路交叉口东北20米	[]	云南省	昆明市	官渡区	102.786357	25.021297	102.78487634627578	25.024269552209923	102.786357 25.021297	汽车服务	充电站	充电站
汽车充电站(华享新能源牛街庄)	汽车服务;充电站;充电站	11100	官渡镇经牛路(牛街庄地铁站B口步行430米)	17611069175	云南省	昆明市	官渡区	102.776917	25.004137	102.77543037376655	25.007101112580635	102.776917 25.004137	汽车服务	充电站	充电站
星星充电汽车充电站(昆明冉冉物业管理有限公司)	汽车服务;充电站;充电站	11100	经宏路中金资本大楼楼下	4008280768	云南省	昆明市	官渡区	102.779626	24.998862	102.77814108956892	25.00182950247352	102.779626 24.998862	汽车服务	充电站	充电站
德利邦新能源汽车充电站(德利邦金马)	汽车服务;充电站;充电站	11100	东三环路云南CY集团砖瓦总厂生活区西北侧约50米	13808791134	云南省	昆明市	官渡区	102.777336	25.021816	102.77584907429323	25.02477837473685	102.777336 25.021816	汽车服务	充电站	充电站
东部车场公交车充电站	汽车服务;充电站;充电站	11100	虹桥路入口与虹桥路辅路交叉口东北480米	[]	云南省	昆明市	盘龙区	102.789172	25.039335	102.78769328530788	25.042309088563755	102.789172 25.039335	汽车服务	充电站	充电站
腾势充电站(昆明驭马平川几何新能源体验中心站)	汽车服务;充电站;充电站	11100	金瓦路车行天下新车市场4栋1-8号门口停车位	[]	云南省	昆明市	盘龙区	102.788922	25.04334	102.78744293765504	25.04631330024085	102.788922 25.04334	汽车服务	充电站	充电站
保时捷汽车充电站(虹桥路)	汽车服务;充电站;充电站	11100	金马街道中致远昆明保时捷中心	0871-63561911	云南省	昆明市	官渡区	102.784257	25.034014	102.7827742795566	25.03698247975117	102.784257 25.034014	汽车服务	充电站	充电站
特来电充电站(昆明车行天下比亚迪4S店)	汽车服务;充电站;充电站	11100	东部客运站旁车行天下比亚迪4S店	13888387160	云南省	昆明市	盘龙区	102.794097	25.047514	102.7926229076243	25.05049405234881	102.794097 25.047514	汽车服务	充电站	充电站
保时捷汽车充电站(昆明虹桥保时捷中心充电站)	汽车服务;充电站;充电站	11100	金马街道中致远昆明保时捷中心	[]	云南省	昆明市	官渡区	102.784477	25.033312	102.78299447101855	25.036280824948253	102.784477 25.033312	汽车服务	充电站	充电站
特来电充电站(昆明驭马平川几何新能源体验中心)	汽车服务;充电站;充电站	11100	金瓦路车行天下新车市场4栋1-8号门口停车位	4001300001	云南省	昆明市	盘龙区	102.795291	25.048671	102.7938181490412	25.05165268457191	102.795291 25.048671	汽车服务	充电站	充电站
特来电汽车充电站(昆明驭马平川几何新能源体验中心充电站)	汽车服务;充电站;充电站	11100	金瓦路车行天下新车市场4栋1-8号门口停车位	4001300001	云南省	昆明市	盘龙区	102.795138	25.048663	102.79366498381604	25.05164445787961	102.795138 25.048663	汽车服务	充电站	充电站
汽车充电站(十里铺电动汽车公共充电站十里铺路站)	汽车服务;充电站;充电站	11100	金马街道文台路江东集团混凝土公司旁	18987554651	云南省	昆明市	官渡区	102.783416	25.03091	102.78193273322483	25.033877846432127	102.783416 25.03091	汽车服务	充电站	充电站
特来电充电站(昆明唐韵大酒店)	汽车服务;充电站;充电站	11100	东三环金色交响家园旁唐韵大酒店背后停车场	4001300001	云南省	昆明市	盘龙区	102.775815	25.042737	102.77432666681489	25.045695485537323	102.775815 25.042737	汽车服务	充电站	充电站
星星充电汽车充电站(美的顺城府交流充电桩群)	汽车服务;充电站;充电站	11100	美的顺城府地下停车场	4008280768	云南省	昆明市	盘龙区	102.779548	25.05292	102.77806143807334	25.0558810498271	102.779548 25.05292	汽车服务	充电站	充电站
汽车充电站(盘龙区苏家营环卫电动汽车公共)	汽车服务;充电站;充电站	11100	东三环金瓦路苏家营环卫站	4008888209	云南省	昆明市	盘龙区	102.781392	25.054764	102.77990658203228	25.057726839830604	102.781392 25.054764	汽车服务	充电站	充电站
小桔充电汽车充电站(小桔充电马村花千集充电站)	汽车服务;充电站;充电站	11100	教场东路与教兴路交叉口西160米	19988490039	云南省	昆明市	五华区	102.708978	25.073508	102.7075418645152	25.076481597216087	102.708978 25.073508	汽车服务	充电站	充电站
汽车充电站(耀联新能源龙泉路)	汽车服务;充电站;充电站	11100	龙泉路军创园内22栋前	4008288517	云南省	昆明市	五华区	102.719533	25.100784	102.71807670483835	25.103741771523296	102.719533 25.100784	汽车服务	充电站	充电站
昆明市公交集团北市区公交车场充电站	汽车服务;充电站;充电站	11100	红兴路6北市区公交车场	[]	云南省	昆明市	五华区	102.728024	25.098247	102.7265548414643	25.101196849403	102.728024 25.098247	汽车服务	充电站	充电站
特来电充电站(昆明现代广场)	汽车服务;充电站;充电站	11100	长青路94号	[]	云南省	昆明市	盘龙区	102.715547	25.06849	102.7140985641306	25.07145549956915	102.715547 25.06849	汽车服务	充电站	充电站
特来电充电站(昆明市长城小区)	汽车服务;充电站;充电站	11100	教益路158号长城小区	13888627165	云南省	昆明市	五华区	102.700627	25.068545	102.69920850657256	25.071531651962783	102.700627 25.068545	汽车服务	充电站	充电站
德利邦新能源金星广场充电站	汽车服务;充电站;充电站	11100	金星路126号	[]	云南省	昆明市	盘龙区	102.726195	25.069705	102.72472925503952	25.072659162042687	102.726195 25.069705	汽车服务	充电站	充电站
特来电汽车充电站(昆明市长城小区充电站)	汽车服务;充电站;充电站	11100	教益路158号长城小区	13888627165	云南省	昆明市	五华区	102.70059	25.06856	102.69917158733254	25.07154670952029	102.70059 25.06856	汽车服务	充电站	充电站
特来电充电站(昆配霖雨路电动汽车)	汽车服务;充电站;充电站	11100	霖雨路146号昆明公交集团停车场	17608803237	云南省	昆明市	五华区	102.727898	25.097506	102.72642903662522	25.10045601934989	102.727898 25.097506	汽车服务	充电站	充电站
特来电充电站(昆明北京路北辰)	汽车服务;充电站;充电站	11100	北京路与金色大道交叉口西南约180米	[]	云南省	昆明市	盘龙区	102.731015	25.079957	102.7295424404326	25.08290628450921	102.731015 25.079957	汽车服务	充电站	充电站
特来电充电站(昆明北京路北辰)	汽车服务;充电站;充电站	11100	北京路与金色大道交叉口西南约140米	4001300001	云南省	昆明市	盘龙区	102.731407	25.080305	102.72993393840798	25.083253973343645	102.731407 25.080305	汽车服务	充电站	充电站
特斯拉超级充电站(昆明北辰特斯拉中心站)	汽车服务;充电站;充电站	11100	北京路1050号(金星地铁站A口步行330米)	0871-68095833	云南省	昆明市	盘龙区	102.729392	25.078759	102.72792157300596	25.081709606899945	102.729392 25.078759	汽车服务	充电站	充电站
云能充新能源汽车充电站(北二环站)	汽车服务;充电站;充电站	11100	二环北路云能充电站190号	18206846027	云南省	昆明市	五华区	102.68324	25.076564	102.6818620688542	25.07958019382649	102.68324 25.076564	汽车服务	充电站	充电站
德利邦新能源金家山充电站	汽车服务;充电站;充电站	11100	普吉街道办事处联家社区金家山1318地块	[]	云南省	昆明市	五华区	102.682164	25.07402	102.68078879277046	25.077038455830007	102.682164 25.07402	汽车服务	充电站	充电站
特来电充电站(昆明市北二环彦精汽车)	汽车服务;充电站;充电站	11100	服务区与二环快速Ｂ线（北）交叉口东南约60米	4001300001	云南省	昆明市	五华区	102.683462	25.07569	102.68208354818938	25.0787058689624	102.683462 25.07569	汽车服务	充电站	充电站
小桔充电学府路充电站	汽车服务;充电站;充电站	11100	学府路442号	19988490039	云南省	昆明市	五华区	102.686468	25.06456	102.68508252362456	25.06757147504576	102.686468 25.06456	汽车服务	充电站	充电站
永云学府路充电站	汽车服务;充电站;充电站	11100	莲华街道办事处苏家塘社区学府路470号	18788193245	云南省	昆明市	五华区	102.6858	25.064772	102.68441614177058	25.06778467573585	102.6858 25.064772	汽车服务	充电站	充电站
汽车充电站(邦驰充电·墨花阁酒店站)	汽车服务;充电站;充电站	11100	红锦路204墨花阁酒店内	18208785163	云南省	昆明市	五华区	102.727316	25.104261	102.72584764520568	25.10721090653453	102.727316 25.104261	汽车服务	充电站	充电站
德利邦汽车充电站(德利邦金家山)	汽车服务;充电站;充电站	11100	服务区与二环快速Ｂ线（北）交叉口南约200米	13808791134	云南省	昆明市	五华区	102.682442	25.074201	102.6810661018217	25.077218918369127	102.682442 25.074201	汽车服务	充电站	充电站
德利邦汽车充电站(德利邦金星广场)	汽车服务;充电站;充电站	11100	联盟街道办事处金星路金星广场113号	15802348069	云南省	昆明市	盘龙区	102.726239	25.069687	102.72477319229044	25.07264112521192	102.726239 25.069687	汽车服务	充电站	充电站
云南交运虹山东路充电站	汽车服务;充电站;充电站	11100	虹山东路66号	18687869668	云南省	昆明市	五华区	102.688726	25.056795	102.68733529479395	25.059803208590097	102.688726 25.056795	汽车服务	充电站	充电站
特来电充电站(昆明莲花国际商贸城)	汽车服务;充电站;充电站	11100	学府路147号远建商务大厦	[]	云南省	昆明市	五华区	102.702561	25.062318	102.70113848596895	25.06530225628046	102.702561 25.062318	汽车服务	充电站	充电站
万福充电站小庄立交桥站	汽车服务;充电站;充电站	11100	小庄立交桥东侧金锡路溪畔丽景小区西侧	19143119431	云南省	昆明市	盘龙区	102.734717	25.070757	102.7332403012416	25.073704815420296	102.734717 25.070757	汽车服务	充电站	充电站
芳菲新能源(学府路充电站)	汽车服务;充电站;充电站	11100	学府路452号(金鼎山北路地铁站C口步行120米)	[]	云南省	昆明市	五华区	102.686367	25.064496	102.68498177073911	25.06750766638158	102.686367 25.064496	汽车服务	充电站	充电站
蔚来能源汽车充电站(蔚来目充站昆明同德广场站)	汽车服务;充电站;充电站	11100	同德昆明广场购物中心	[]	云南省	昆明市	盘龙区	102.723755	25.068056	102.7222929206132	25.071012579833628	102.723755 25.068056	汽车服务	充电站	充电站
万福溪畔丽景汽车充电站	汽车服务;充电站;充电站	11100	丽景路	[]	云南省	昆明市	盘龙区	102.736118	25.069672	102.73463980135594	25.072619149460703	102.736118 25.069672	汽车服务	充电站	充电站
山高新能源小菜园立交桥充电站	汽车服务;充电站;充电站	11100	环城北路347号(小菜园机动车检测站站内)	[]	云南省	昆明市	五华区	102.710495	25.058342	102.70905632267534	25.061315090811352	102.710495 25.058342	汽车服务	充电站	充电站
千法万福充电站(金星立交桥溪畔丽景站)	汽车服务;充电站;充电站	11100	金星立交旁溪畔丽景小区1号门	[]	云南省	昆明市	盘龙区	102.736085	25.069811	102.7346068324524	25.07275815261552	102.736085 25.069811	汽车服务	充电站	充电站
特来电充电站(昆明泽联酒店)	汽车服务;充电站;充电站	11100	小菜园99号2幢6号	[]	云南省	昆明市	五华区	102.710889	25.05785	102.70944957236316	25.06082260998876	102.710889 25.05785	汽车服务	充电站	充电站
汽车充电站(万福充电站小庄立交站)	汽车服务;充电站;充电站	11100	万福充电站小庄立交站	0871-67353169	云南省	昆明市	盘龙区	102.734568	25.070392	102.73309147943448	25.07333993985309	102.734568 25.070392	汽车服务	充电站	充电站
昆明供电局羊仙坡充电站	汽车服务;充电站;充电站	11100	羊仙坡路与金鼎山北路交叉口北约160米	[]	云南省	昆明市	五华区	102.682532	25.067685	102.68115606694536	25.070703419046467	102.682532 25.067685	汽车服务	充电站	充电站
昆自新能源汽车充电站(五华区王家桥)	汽车服务;充电站;充电站	11100	王家桥路五华公安分局普吉派出所东南侧约120米	[]	云南省	昆明市	五华区	102.673822	25.088663	102.67246713850558	25.09169581202425	102.673822 25.088663	汽车服务	充电站	充电站
汽车充电站(盘龙区金星立交桥溪畔丽景站)	汽车服务;充电站;充电站	11100	金锡路	0871-67353169	云南省	昆明市	盘龙区	102.735557	25.069929	102.73407939805658	25.07287642577131	102.735557 25.069929	汽车服务	充电站	充电站
特来电充电站(昆明王旗营金领地快速)	汽车服务;充电站;充电站	11100	王旗营路89号	17687119626	云南省	昆明市	盘龙区	102.730249	25.060761	102.72877798465277	25.063712815361644	102.730249 25.060761	汽车服务	充电站	充电站
小桔充电汽车充电站(永安国际充电站)	汽车服务;充电站;充电站	11100	永安国际-停车场	18687007277	云南省	昆明市	盘龙区	102.738923	25.065917	102.73744207565647	25.06886319916512	102.738923 25.065917	汽车服务	充电站	充电站
特来电充电站(昆明穿金路宿之屋酒店充电站)	汽车服务;充电站;充电站	11100	穿金路180号	4001300001	云南省	昆明市	盘龙区	102.73622	25.063347	102.73474187988715	25.066294756594804	102.73622 25.063347	汽车服务	充电站	充电站
邦驰新能源汽车充电站(邦驰充电·白邑游园站穿金路)	汽车服务;充电站;充电站	11100	穿金路671号白邑游园内	18208785163	云南省	昆明市	盘龙区	102.739227	25.065405	102.73774580197392	25.06835112500773	102.739227 25.065405	汽车服务	充电站	充电站
安悦充电汽车充电站	汽车服务;充电站;充电站	11100	世博路12号世博生态城-低碳中心C栋商务体验馆低碳中心商务体验馆一楼VIP车位	[]	云南省	昆明市	盘龙区	102.756291	25.082402	102.75479903990272	25.085344811201715	102.756291 25.082402	汽车服务	充电站	充电站
特斯拉汽车充电站(低碳中心C栋商务体验馆)	汽车服务;充电站;充电站	11100	世博路12号世博生态城1层	[]	云南省	昆明市	盘龙区	102.757301	25.081756	102.75580882085686	25.08469912587909	102.757301 25.081756	汽车服务	充电站	充电站
汽车充电站(世博)	汽车服务;充电站;充电站	11100	穿金路634号	17787116911	云南省	昆明市	盘龙区	102.750723	25.077874	102.7492332272408	25.08081656372068	102.750723 25.077874	汽车服务	充电站	充电站
君来顺穿金路充电站	汽车服务;充电站;充电站	11100	穿金路733号附1号	15368008892	云南省	昆明市	盘龙区	102.749159	25.075272	102.74767010707126	25.07821484128336	102.749159 25.075272	汽车服务	充电站	充电站
特来电充电站(特来电站峻苇休闲园)	汽车服务;充电站;充电站	11100	Ｚ０４０与００４县道交叉口南约100米	[]	云南省	昆明市	盘龙区	102.798796	25.085801	102.7973259958288	25.08878418068892	102.798796 25.085801	汽车服务	充电站	充电站
特来电充电站(春城商务中心)	汽车服务;充电站;充电站	11100	穿金路727号	4001300001	云南省	昆明市	盘龙区	102.746658	25.072344	102.74517068344102	25.07528735828389	102.746658 25.072344	汽车服务	充电站	充电站
盛唐城充电站	汽车服务;充电站;充电站	11100	盛唐城C区负一层	15925178589	云南省	昆明市	盘龙区	102.745422	25.076077	102.743935402302	25.07902017666259	102.745422 25.076077	汽车服务	充电站	充电站
汽车充电站(金标瑞电昆明北部客运站)	汽车服务;充电站;充电站	11100	沣源路昆明市北部汽车客运站	15808812611	云南省	昆明市	盘龙区	102.761466	25.109245	102.75997245187502	25.11218706296046	102.761466 25.109245	汽车服务	充电站	充电站
小桔老车行天下充电站	汽车服务;充电站;充电站	11100	G56(杭瑞高速)	4000610999	云南省	昆明市	盘龙区	102.741088	25.080994	102.73960465182309	25.08393783266389	102.741088 25.080994	汽车服务	充电站	充电站
特来电充电站(昆明金江小区云苑)	汽车服务;充电站;充电站	11100	北京路1123号(羊肠村地铁站D口步行110米)	[]	云南省	昆明市	盘龙区	102.742691	25.102258	102.74120567745368	25.10519934792473	102.742691 25.102258	汽车服务	充电站	充电站
德利邦北市区龙头街充电站	汽车服务;充电站;充电站	11100	沣源路朴食私房菜旁(龙头街地铁站A口步行440米)	[]	云南省	昆明市	盘龙区	102.750692	25.113741	102.74920117650704	25.11668030441478	102.750692 25.113741	汽车服务	充电站	充电站
汽车充电站(德利邦北部客运站)	汽车服务;充电站;充电站	11100	龙头街道办事处北京路与沣源路交叉口	13808791134	云南省	昆明市	盘龙区	102.750692	25.113733	102.74920117674488	25.116672305065567	102.750692 25.113733	汽车服务	充电站	充电站
特来电充电站(昆明金江小区融苑)	汽车服务;充电站;充电站	11100	北京路2184号金江小区融苑停车场	4001300001	云南省	昆明市	盘龙区	102.741353	25.10165	102.7398688101998	25.104591816794613	102.741353 25.10165	汽车服务	充电站	充电站
德利邦新能源汽车充电站(德利邦北部客运站)	汽车服务;充电站;充电站	11100	龙头街道办事处北京路与沣源路交叉口	[]	云南省	昆明市	盘龙区	102.750644	25.11391	102.7491531947076	25.116849289865904	102.750644 25.11391	汽车服务	充电站	充电站
星星充电汽车充电站(美的顺城府交流充电桩群)	汽车服务;充电站;充电站	11100	侍瓦路美的顺城府(白龙寺地铁站A口步行240米)	4008280768	云南省	昆明市	盘龙区	102.74861	25.06251	102.7471217910398	25.06545419017835	102.74861 25.06251	汽车服务	充电站	充电站
艾充昆明湖充电站	汽车服务;充电站;充电站	11100	盘江西路与昆澜路交叉路口昆明湖瀑布公园停车场内50米	[]	云南省	昆明市	盘龙区	102.758875	25.126385	102.75738120350712	25.12932473681228	102.758875 25.126385	汽车服务	充电站	充电站
特来电充电站(昆明市盘龙区黑龙潭公园)	汽车服务;充电站;充电站	11100	茨坝街道黑龙潭公园	4001300001	云南省	昆明市	盘龙区	102.750964	25.141631	102.74947221713052	25.14456827560947	102.750964 25.141631	汽车服务	充电站	充电站
艾充科技汽车充电站(艾充昆明湖)	汽车服务;充电站;充电站	11100	盘江西路与昆澜路交叉口	[]	云南省	昆明市	盘龙区	102.759346	25.126905	102.75785212055764	25.12984485668485	102.759346 25.126905	汽车服务	充电站	充电站
特斯拉汽车充电站	汽车服务;充电站;充电站	11100	石安公路12公里处昆明七彩云南土特产馆后面停车场	[]	云南省	昆明市	呈贡区	102.849359	24.980014	102.84796291643882	24.98310054744778	102.849359 24.980014	汽车服务	充电站	充电站
现代科技学校充电站	汽车服务;充电站;充电站	11100	[]	[]	云南省	昆明市	官渡区	102.84244	24.993621	102.8410342577472	24.99669360759212	102.84244 24.993621	汽车服务	充电站	充电站
滇新产业城新能源充电站	汽车服务;充电站;充电站	11100	滇新产业城	15198933336	云南省	昆明市	官渡区	102.831762	25.00635	102.83034044482208	25.009401195589707	102.831762 25.00635	汽车服务	充电站	充电站
邦驰汽车充电站(阿拉金马村充电站)	汽车服务;充电站;充电站	11100	阿拉街道高坡社区金马村001号	[]	云南省	昆明市	官渡区	102.851906	25.031044	102.8505116332666	25.03412860225203	102.851906 25.031044	汽车服务	充电站	充电站
千法新能源小石坝综合批发市场充电站	汽车服务;充电站;充电站	11100	小石坝综合批发市场	15288039985	云南省	昆明市	官渡区	102.825037	24.976328	102.82360629143568	24.979370236270263	102.825037 24.976328	汽车服务	充电站	充电站
汽车充电站(官渡区G320国道滇新产业城)	汽车服务;充电站;充电站	11100	[]	0871-67353169	云南省	昆明市	官渡区	102.831572	25.006513	102.8301501579542	25.00956381684361	102.831572 25.006513	汽车服务	充电站	充电站
云能充经开区城管中队充电站	汽车服务;充电站;充电站	11100	春漫大道5号	[]	云南省	昆明市	呈贡区	102.846419	24.941456	102.84502019302154	24.944542366406683	102.846419 24.941456	汽车服务	充电站	充电站
特来电汽车充电站(天朗能源宝象临空物流场站)	汽车服务;充电站;充电站	11100		[]	云南省	昆明市	官渡区	102.888436	25.03636	102.88706629151449	25.03948722286311	102.888436 25.03636	汽车服务	充电站	充电站
星星充电汽车充电站(星星银电消防训练总队)	汽车服务;充电站;充电站	11100	阿拉街道云南赛力德液压技术服务有限公司	4008280768	云南省	昆明市	官渡区	102.827689	25.001295	102.82626152241268	25.0043391153509	102.827689 25.001295	汽车服务	充电站	充电站
万福昆石路太古可乐汽车充电站	汽车服务;充电站;充电站	11100	昆石公路地勘物资集散中心	0871-67353169	云南省	昆明市	官渡区	102.820741	24.98611	102.81930362270688	24.98914291399863	102.820741 24.98611	汽车服务	充电站	充电站
小桔充电站(经开区文体中心)	汽车服务;充电站;充电站	11100	辰逸路昆明观山酒店西南侧约200米	[]	云南省	昆明市	呈贡区	102.840017	24.951775	102.83860906480632	24.95484850817852	102.840017 24.951775	汽车服务	充电站	充电站
星星汽车充电站	汽车服务;充电站;充电站	11100	普照大汽车市场吉利远程商用车云南运营中心	[]	云南省	昆明市	官渡区	102.80932	24.989232	102.80786622002282	24.99224370985797	102.80932 24.989232	汽车服务	充电站	充电站
特来电充电站(官渡区大板桥文博路荣帆)	汽车服务;充电站;充电站	11100	大板桥街道西冲社区瓦角居民小组	15911604845	云南省	昆明市	官渡区	102.864263	25.040917	102.8628816715711	25.04401947218667	102.864263 25.040917	汽车服务	充电站	充电站
汽车充电站(耀联新能源大板桥)	汽车服务;充电站;充电站	11100	Ｚ０５１与呈黄路辅路交叉口东约120米	4008288517	云南省	昆明市	官渡区	102.88488	25.040082	102.8835099559621	25.04320653779124	102.88488 25.040082	汽车服务	充电站	充电站
星星充电汽车充电站(美丽充大板桥)	汽车服务;充电站;充电站	11100	３２０国道与３２０国道辅路交叉口西南约420米	4008280768	云南省	昆明市	官渡区	102.888732	25.042932	102.88736209590265	25.04605863646772	102.888732 25.042932	汽车服务	充电站	充电站
云能充新能源汽车充电站(文体中心站)	汽车服务;充电站;充电站	11100	辰逸路昆明开发区文化体育中心	[]	云南省	昆明市	呈贡区	102.840114	24.951823	102.83870620117597	24.954896680183573	102.840114 24.951823	汽车服务	充电站	充电站
小桔充电汽车充电站(小桔充电观山公园充电站)	汽车服务;充电站;充电站	11100	云景路	19988490039	云南省	昆明市	呈贡区	102.84165	24.953256	102.84024432643062	24.95633230524521	102.84165 24.953256	汽车服务	充电站	充电站
星星充电汽车充电站(莹河新能源大板桥)	汽车服务;充电站;充电站	11100	大板桥街道呈黄路	4008280768	云南省	昆明市	官渡区	102.884049	25.045648	102.88267866308216	25.048771308442834	102.884049 25.045648	汽车服务	充电站	充电站
特来电充电站(云南名御堂汽修)	汽车服务;充电站;充电站	11100	云南奇峰石油机械有限公司	[]	云南省	昆明市	官渡区	102.812867	24.983821	102.81141829554156	24.98683970666713	102.812867 24.983821	汽车服务	充电站	充电站
星星充电汽车充电站(清缘)	汽车服务;充电站;充电站	11100	G320国道(雄得大酒店对面)华裕钢材	4008280768	云南省	昆明市	官渡区	102.902201	25.051023	102.90082629437812	25.05415240929561	102.902201 25.051023	汽车服务	充电站	充电站
特来电充电站(云南云琪酒店)	汽车服务;充电站;充电站	11100	春漫大道68号	4001300001	云南省	昆明市	呈贡区	102.829593	24.953104	102.82816977037965	24.95615782579088	102.829593 24.953104	汽车服务	充电站	充电站
特来电充电站(昆明七甸工业园区哨云南路)(装修中)	汽车服务;充电站;充电站	11100	昆明阳宗海风景名胜区七甸工业园区哨云南路3号	4001300001	云南省	昆明市	呈贡区	102.914241	24.955573	102.9128575158586	24.958710658702408	102.914241 24.955573	汽车服务	充电站	充电站
汽车充电站(昆明市生态环境局经开分局公共)	汽车服务;充电站;充电站	11100	洛羊街道昆明经济技术开发区文化馆	[]	云南省	昆明市	呈贡区	102.841397	24.950331	102.8399910563654	24.95340721941689	102.841397 24.950331	汽车服务	充电站	充电站
星星充电汽车充电站(美丽充经开区春漫大道)	汽车服务;充电站;充电站	11100	呈贡区经开区春漫大道与云景路交叉口云瑞龙宸旅游文化创意园	4008280768	云南省	昆明市	呈贡区	102.842844	24.94678	102.8414401783108	24.94985930206684	102.842844 24.94678	汽车服务	充电站	充电站
百源智联汽车充电站(昆明京东)	汽车服务;充电站;充电站	11100	小哨井	4008288517	云南省	昆明市	呈贡区	102.928955	24.96217	102.92754740593595	24.96529379967909	102.928955 24.96217	汽车服务	充电站	充电站
冢琰百智联源充电站(昆明巨力物流站)	汽车服务;充电站;充电站	11100	石龙路辅路	[]	云南省	昆明市	呈贡区	102.848171	24.937037	102.84677462769363	24.94012699492273	102.848171 24.937037	汽车服务	充电站	充电站
星星充电汽车充电站(星星云内动力)	汽车服务;充电站;充电站	11100	昆明经济技术开发区经景路云内动力集团公司	4008280768	云南省	昆明市	官渡区	102.81452	24.963805	102.81307422699888	24.96682924947573	102.81452 24.963805	汽车服务	充电站	充电站
星星充电汽车充电站(吉利远程普照)	汽车服务;充电站;充电站	11100	贵昆路普照大汽车市场吉利远程商用车云南运营中心	[]	云南省	昆明市	官渡区	102.809085	24.989235	102.80763090032488	24.99224629709152	102.809085 24.989235	汽车服务	充电站	充电站
云南能投汽车充电站(亿豪城堡温泉酒店站)	汽车服务;充电站;充电站	11100	贵昆路枫丹白露旁	15887813219	云南省	昆明市	官渡区	102.810702	24.984528	102.80925025388228	24.98754274331213	102.810702 24.984528	汽车服务	充电站	充电站
星星充电汽车充电站(昆明银电璟沂)	汽车服务;充电站;充电站	11100	官渡经开区云景路63号	4008280768	云南省	昆明市	呈贡区	102.839799	24.938279	102.83839114662194	24.941353837190054	102.839799 24.938279	汽车服务	充电站	充电站
百源智联充电站(昆明巨力物流站)	汽车服务;充电站;充电站	11100	巨力国际物流园	4008288517	云南省	昆明市	呈贡区	102.843286	24.932338	102.8418832081297	24.935419948301973	102.843286 24.932338	汽车服务	充电站	充电站
小桔充电汽车充电站(小桔充电秋锦路充电站)	汽车服务;充电站;充电站	11100	石龙路辅路	19988490039	云南省	昆明市	呈贡区	102.84622	24.933699	102.84482115234012	24.936786007984	102.84622 24.933699	汽车服务	充电站	充电站
特来电充电站(昆明市经开区大冲农贸市场)	汽车服务;充电站;充电站	11100	秋锦路与林溪路交叉口西约180米	4001300001	云南省	昆明市	呈贡区	102.827625	24.941698	102.82619916632092	24.9447495630401	102.827625 24.941698	汽车服务	充电站	充电站
星星充电汽车充电站(配齐物流)	汽车服务;充电站;充电站	11100	托翔路209号	4008280768	云南省	昆明市	呈贡区	102.834022	24.960005	102.83260513747642	24.96306629871552	102.834022 24.960005	汽车服务	充电站	充电站
芳菲新能源汽车充电站(芳菲新能源丰硕路站)	汽车服务;充电站;充电站	11100		19988490039	云南省	昆明市	呈贡区	102.825542	24.932264	102.82411333154757	24.93531282841085	102.825542 24.932264	汽车服务	充电站	充电站
滇约充电(机场站)	汽车服务;充电站;充电站	11100	大板桥街道小一段	[]	云南省	昆明市	官渡区	102.908988	25.10139	102.90760621699188	25.104513238513043	102.908988 25.10139	汽车服务	充电站	充电站
汽车充电站(机场站)	汽车服务;充电站;充电站	11100	大板桥街道小一段	13888122554	云南省	昆明市	官渡区	102.908891	25.100955	102.90750932605044	25.1040783075326	102.908891 25.100955	汽车服务	充电站	充电站
汽车充电站(德利邦机场盛达)	汽车服务;充电站;充电站	11100	大板桥街道办事处复兴社区长港路延长线路边	13808791134	云南省	昆明市	官渡区	102.909786	25.094856	102.90840359514068	25.097979559208586	102.909786 25.094856	汽车服务	充电站	充电站
小桔充电机场宾馆充电站	汽车服务;充电站;充电站	11100	长水机场宾馆	4000610999	云南省	昆明市	官渡区	102.917939	25.076511	102.91654701077148	25.079631946276265	102.917939 25.076511	汽车服务	充电站	充电站
特来电充电站(机场南路海航酒店)	汽车服务;充电站;充电站	11100	长水国际机场内线机场南路祥鹏大厦内	4001300001	云南省	昆明市	官渡区	102.913114	25.077163	102.91172838149434	25.08028683343154	102.913114 25.077163	汽车服务	充电站	充电站
万福充电站(长水机场大板桥站)	汽车服务;充电站;充电站	11100	云南司法警官职业学院(G320西)德天再生资源公司生活区内	0871-67353169	云南省	昆明市	官渡区	102.902295	25.063946	102.90091985860391	25.067074009283004	102.902295 25.063946	汽车服务	充电站	充电站
电动汽车充电站	汽车服务;充电站;充电站	11100	航远路空港佳苑东区	[]	云南省	昆明市	官渡区	102.931008	25.068699	102.929593109628	25.07180750789305	102.931008 25.068699	汽车服务	充电站	充电站
达克云汽车充电站(云南豪润缘泉疆)	汽车服务;充电站;充电站	11100	大板桥圳机场甘海子村12号兴旺停车场	17611069175	云南省	昆明市	官渡区	102.917184	25.071048	102.91579324643368	25.07417003278365	102.917184 25.071048	汽车服务	充电站	充电站
特来电充电站(昆明宜尙酒店)	汽车服务;充电站;充电站	11100	长水航城小区2-6号地块	13888627165	云南省	昆明市	官渡区	102.935471	25.070142	102.93404626792676	25.07324412725502	102.935471 25.070142	汽车服务	充电站	充电站
特来电充电站(昆明长水航城凌翔路湾顶)	汽车服务;充电站;充电站	11100	大板桥街道凌翔街	4001300001	云南省	昆明市	官渡区	102.937656	25.076949	102.93622592975082	25.08004707756221	102.937656 25.076949	汽车服务	充电站	充电站
小桔充电汽车充电站(徽商国际酒店充电站)	汽车服务;充电站;充电站	11100	徽商国际酒店	4000610999	云南省	昆明市	官渡区	102.933242	25.06928	102.93182230533382	25.07238543464782	102.933242 25.06928	汽车服务	充电站	充电站
星星充电汽车充电站(美丽充昆明长水机场)	汽车服务;充电站;充电站	11100	长水航城诚悦酒店旁安航停车场	4008280768	云南省	昆明市	官渡区	102.941931	25.073525	102.94049034794654	25.07661628847345	102.941931 25.073525	汽车服务	充电站	充电站
木喳箐加水站电动汽车充电站	汽车服务;充电站;充电站	11100	[]	[]	云南省	昆明市	宜良县	103.241548	24.881069	103.23973892171875	24.884029951155185	103.241548 24.881069	汽车服务	充电站	充电站
汽车充电站(昆明宜良)	汽车服务;充电站;充电站	11100	匡远镇温泉村委会沐晨机动车检测站入口右转50米处	[]	云南省	昆明市	宜良县	103.143304	24.953255	103.1414014025368	24.956063417271693	103.143304 24.953255	汽车服务	充电站	充电站
滇中汇能光储充电站	汽车服务;充电站;充电站	11100	云水路1号滇中智能制造产业园内滇中新区管委会旁边	[]	云南省	昆明市	官渡区	102.979498	25.120427	102.97793234102468	25.12342464265654	102.979498 25.120427	汽车服务	充电站	充电站
云快充汽车充电站(宜良良城美景充电站)	汽车服务;充电站;充电站	11100	良城美景小区2期地下负二层	4008288517	云南省	昆明市	宜良县	103.139187	24.925472	103.13728128444114	24.928277690495857	103.139187 24.925472	汽车服务	充电站	充电站
艾充空港中关村充电站	汽车服务;充电站;充电站	11100	大板桥街道云水路1号中关村电子城(昆明)科技产业园内	[]	云南省	昆明市	官渡区	102.980955	25.121786	102.97938370571106	25.124779353341808	102.980955 25.121786	汽车服务	充电站	充电站
星星充电汽车充电站(七甸工业园)	汽车服务;充电站;充电站	11100	G324七甸街道办事处旺角KTV	4008280768	云南省	昆明市	呈贡区	102.94789	24.954475	102.94643664080462	24.95756933757225	102.94789 24.954475	汽车服务	充电站	充电站
大板桥服务区星星充电电动汽车充电站	汽车服务;充电站;充电站	11100	大板桥街道大板桥服务区B区	4008280768	云南省	昆明市	官渡区	103.016078	25.126947	103.01436693550356	25.12983495074007	103.016078 25.126947	汽车服务	充电站	充电站
大板桥服务区星星充电电动汽车充电站	汽车服务;充电站;充电站	11100	G85银昆高速出口与G85银昆高速交叉口北460米	[]	云南省	昆明市	官渡区	103.013184	25.126172	103.01148433169796	25.129068528961312	103.013184 25.126172	汽车服务	充电站	充电站
万福充电站(空港滇中宝湾物流中心)	汽车服务;充电站;充电站	11100	空港大道1号路	19143119431	云南省	昆明市	官渡区	102.969021	25.1048	102.96749470717488	25.1078278265526	102.969021 25.1048	汽车服务	充电站	充电站
云能充新能源汽车充电站(万纬物流站)	汽车服务;充电站;充电站	11100	向贤路万纬昆明长水空港物流园(一期)	15887813219	云南省	昆明市	官渡区	102.979717	25.115587	102.97815065069564	25.11858439874441	102.979717 25.115587	汽车服务	充电站	充电站
特来电充电站(昆明市聚睿新能源长水机场)	汽车服务;充电站;充电站	11100	鹏程路与阔叶街交叉口西南80米	13888148281	云南省	昆明市	官渡区	102.95346	25.088466	102.95198618385392	25.09153305752568	102.95346 25.088466	汽车服务	充电站	充电站
小桔充电长坡充电站	汽车服务;充电站;充电站	11100	３２０国道与秧旺街交叉口北约20米	[]	云南省	昆明市	官渡区	102.977413	25.122861	102.97585520161536	25.12586438083305	102.977413 25.122861	汽车服务	充电站	充电站
云快充汽车充电站(普洛斯昆明滇中物流园)	汽车服务;充电站;充电站	11100	大板桥街道长水空港普洛斯物流园	4008288517	云南省	昆明市	官渡区	102.9671	25.106424	102.96558049036652	25.109456718522576	102.9671 25.106424	汽车服务	充电站	充电站
云快充汽车充电站(普洛斯昆明滇中物流园充电站)	汽车服务;充电站;充电站	11100	秧旺街1号	[]	云南省	昆明市	官渡区	102.972268	25.109561	102.97072978829291	25.11257971290186	102.972268 25.109561	汽车服务	充电站	充电站
特来电充电站(石林红杉湖酒店)	汽车服务;充电站;充电站	11100	鹿阜街道大道红杉湖温泉酒店旁	4001300001	云南省	昆明市	石林彝族自治县	103.290307	24.775212	103.2884394552242	24.77815534353983	103.290307 24.775212	汽车服务	充电站	充电站
星星充电汽车充电站(石林北大村客运)	汽车服务;充电站;充电站	11100	石林公交北大村客运停车场	4008280768	云南省	昆明市	石林彝族自治县	103.350834	24.857492	103.34881018497568	24.86032016565764	103.350834 24.857492	汽车服务	充电站	充电站
特来电充电站(石林银瑞林大酒店)	汽车服务;充电站;充电站	11100	石林中路银瑞林国际大酒店主楼背后	[]	云南省	昆明市	石林彝族自治县	103.315096	24.819223	103.31316719231592	24.822121658073097	103.315096 24.819223	汽车服务	充电站	充电站
搜能汽车充电站(石林俪邦豪庭点)	汽车服务;充电站;充电站	11100	狮山路丽邦豪庭	0871-66239967	云南省	昆明市	石林彝族自治县	103.265738	24.769594	103.26391317699232	24.77256255607905	103.265738 24.769594	汽车服务	充电站	充电站
星星充电汽车充电站(石林公司县城客运)	汽车服务;充电站;充电站	11100	石林县公交公司	4008280768	云南省	昆明市	石林彝族自治县	103.323646	24.811325	103.32169477544804	24.81420837315841	103.323646 24.811325	汽车服务	充电站	充电站
星星充电汽车充电站(石林政务中心)	汽车服务;充电站;充电站	11100	石林公交政务中心门口停车场	4008280768	云南省	昆明市	石林彝族自治县	103.293711	24.77612	103.29183601316812	24.779058422520755	103.293711 24.77612	汽车服务	充电站	充电站
星星充电汽车充电站(石林公司圭山)	汽车服务;充电站;充电站	11100	奎山客运内	4008280768	云南省	昆明市	石林彝族自治县	103.271355	24.762523	103.26952256805691	24.765488143655684	103.271355 24.762523	汽车服务	充电站	充电站
汽车充电站(禄劝车管所)	汽车服务;充电站;充电站	11100	屏山街道角家营村西南方向	[]	云南省	昆明市	禄劝彝族苗族自治县	102.480219	25.51324	102.4787408994804	25.51616402680488	102.480219 25.51324	汽车服务	充电站	充电站
汽车充电站(寻甸柯渡镇)	汽车服务;充电站;充电站	11100	柯渡镇柯渡卫生院旁	[]	云南省	昆明市	寻甸回族彝族自治县	102.855041	25.545553	102.85363535712057	25.54868685911414	102.855041 25.545553	汽车服务	充电站	充电站
禄劝客运站充电站	汽车服务;充电站;充电站	11100	屏山街道禄大路迎春里村西侧禄劝客运站	0871-68965012	云南省	昆明市	禄劝彝族苗族自治县	102.474809	25.57164	102.4733130700223	25.574570478025663	102.474809 25.57164	汽车服务	充电站	充电站
快来充汽车充电站(安达)	汽车服务;充电站;充电站	11100	屏山镇永平村184号	13888075881	云南省	昆明市	禄劝彝族苗族自治县	102.473996	25.538299	102.47249869479386	25.5412143758534	102.473996 25.538299	汽车服务	充电站	充电站
汽车充电站(禄劝县政府)	汽车服务;充电站;充电站	11100	东山路1号附近	[]	云南省	昆明市	禄劝彝族苗族自治县	102.471963	25.552274	102.47045941733415	25.55518908024105	102.471963 25.552274	汽车服务	充电站	充电站
汽车充电站(寻甸鸡街镇)	汽车服务;充电站;充电站	11100	鸡街镇顺昌路	[]	云南省	昆明市	寻甸回族彝族自治县	102.779023	25.634955	102.77751868160198	25.638000398972288	102.779023 25.634955	汽车服务	充电站	充电站
禄劝忠爱医院昆自集团电动汽车充电站	汽车服务;充电站;充电站	11100	秀屏路69号	[]	云南省	昆明市	禄劝彝族苗族自治县	102.474549	25.565393	102.47305249702691	25.568320247621568	102.474549 25.565393	汽车服务	充电站	充电站
特来电充电站(富民党校)	汽车服务;充电站;充电站	11100	大营街道旧县路7号	4001300001	云南省	昆明市	富民县	102.51631	25.217695	102.51495304519668	25.22068027758989	102.51631 25.217695	汽车服务	充电站	充电站
富民服务区(昆明方向)充电站	汽车服务;充电站;充电站	11100	克林路与大营街交叉口东南300米	[]	云南省	昆明市	富民县	102.53636	25.221573	102.53505903672624	25.22461279790652	102.53636 25.221573	汽车服务	充电站	充电站
汽车充电站(禄劝阳光尚居小区对面)	汽车服务;充电站;充电站	11100	阳光尚居(北区)约95米	[]	云南省	昆明市	禄劝彝族苗族自治县	102.475246	25.541309	102.47375225299253	25.544228920976693	102.475246 25.541309	汽车服务	充电站	充电站
特来电充电站(昆明市禄劝县禄大路凤家古镇)	汽车服务;充电站;充电站	11100	崇德街道禄大路凤家古镇	4001300001	云南省	昆明市	禄劝彝族苗族自治县	102.47959	25.522402	102.47810972998772	25.52532734909593	102.47959 25.522402	汽车服务	充电站	充电站
云快充汽车充电站(禄劝绿能吉兴路充电站)	汽车服务;充电站;充电站	11100	吉兴路	4008288517	云南省	昆明市	禄劝彝族苗族自治县	102.468978	25.556315	102.46746586661676	25.55922369612136	102.468978 25.556315	汽车服务	充电站	充电站
云快充汽车充电站(禄劝绿能掌鸠河南路充电站)	汽车服务;充电站;充电站	11100	掌鸠河南路	4008288517	云南省	昆明市	禄劝彝族苗族自治县	102.470891	25.544848	102.46938458700136	25.547757396479494	102.470891 25.544848	汽车服务	充电站	充电站
云快充汽车充电站(禄劝绿能体育场南路充电站)	汽车服务;充电站;充电站	11100	体育场南路	4008288517	云南省	昆明市	禄劝彝族苗族自治县	102.471556	25.55137	102.47005128231496	25.55428363989732	102.471556 25.55137	汽车服务	充电站	充电站
汽车充电站(富民县人民医院大门口)	汽车服务;充电站;充电站	11100	永定街文昌路中段	18987554651	云南省	昆明市	富民县	102.492504	25.224656	102.49107241586069	25.22757011858826	102.492504 25.224656	汽车服务	充电站	充电站
富民服务区国家电网电动汽车充电站	汽车服务;充电站;充电站	11100		[]	云南省	昆明市	富民县	102.538025	25.222927	102.5367281560973	25.2259708937068	102.538025 25.222927	汽车服务	充电站	充电站
昆自新能源汽车充电站(禄劝县掌鸠河公园环卫充电站)	汽车服务;充电站;充电站	11100	掌鸠河北路17号	[]	云南省	昆明市	禄劝彝族苗族自治县	102.472955	25.555417	102.47145417178064	25.558335973192257	102.472955 25.555417	汽车服务	充电站	充电站
昆自新能源汽车充电站(富民县人民医院)	汽车服务;充电站;充电站	11100	文昌路159号	[]	云南省	昆明市	富民县	102.492598	25.224584	102.49116671399597	25.22749839985141	102.492598 25.224584	汽车服务	充电站	充电站
云南交投倘甸服务区电动汽车充电站(暂停营业)	汽车服务;充电站;充电站	11100	倘甸服务区与S91滇中环线高速出口交叉口西约160米	[]	云南省	昆明市	寻甸回族彝族自治县	102.93058	25.750743	102.92914583550636	25.754001058392497	102.93058 25.750743	汽车服务	充电站	充电站
杨桥街道两轮电动车充电站	汽车服务;充电站;充电站	11100	杨桥街与嵩玉线交叉路口往东约100米	[]	云南省	昆明市	嵩明县	103.044802	25.304023	103.04298202706832	25.306834673206783	103.044802 25.304023	汽车服务	充电站	充电站
星星充电汽车充电站(美丽充嵩明快)	汽车服务;充电站;充电站	11100	嵩阳街道嵩玉线	4008280768	云南省	昆明市	嵩明县	103.050057	25.328096	103.04822010568428	25.33089861621377	103.050057 25.328096	汽车服务	充电站	充电站
星星汽车充电站(嵩明采腾物流站)	汽车服务;充电站;充电站	11100	嵩玉线采腾物流有限公司后面停车场	18987761216	云南省	昆明市	嵩明县	103.049336	25.328052	103.04750125734552	25.33085610565898	103.049336 25.328052	汽车服务	充电站	充电站
特来电充电站(新纪元大酒店)	汽车服务;充电站;充电站	11100	彩云路85号新纪元酒店内	0871-67987777	云南省	昆明市	嵩明县	103.035918	25.3312	103.0341266460458	25.33403542272427	103.035918 25.3312	汽车服务	充电站	充电站
特来电充电站(嵩明圆山馨苑)	汽车服务;充电站;充电站	11100	嵩明圆山馨苑滨河南路与盟台路交叉口旁	4001300001	云南省	昆明市	嵩明县	103.040704	25.342728	103.03889603900588	25.345553070472462	103.040704 25.342728	汽车服务	充电站	充电站
汽车充电站(昆明嘉丽泽养生谷)	汽车服务;充电站;充电站	11100	2号道路与1号道路交叉口东南240米	[]	云南省	昆明市	嵩明县	103.100285	25.261902	103.09835899130223	25.264648987497107	103.100285 25.261902	汽车服务	充电站	充电站
星星充电汽车充电站(一汽大众昆明捷通达直流)(内部专用)	汽车服务;充电站;充电站	11100	环城西路金辉建材城一汽大众4S店	4008280768	云南省	昆明市	嵩明县	103.034949	25.326504	103.0331611725671	25.32934136560315	103.034949 25.326504	汽车服务	充电站	充电站
山高新能源嘉丽泽养生谷汽车充电站	汽车服务;充电站;充电站	11100	2号道路与1号道路交叉口南280米	[]	云南省	昆明市	嵩明县	103.099751	25.261259	103.09782533981424	25.264005920897915	103.099751 25.261259	汽车服务	充电站	充电站
特来电充电站(嵩明县空港大道北汽工厂)	汽车服务;充电站;充电站	11100	空港大道11号	4001300001	云南省	昆明市	嵩明县	103.03516	25.264553	103.03337345349642	25.267385406293933	103.03516 25.264553	汽车服务	充电站	充电站
云南德宝新能源汽车杨林充电站	汽车服务;充电站;充电站	11100	国家级嵩明杨林经济技术开发区管理委员会	18782909343	云南省	昆明市	嵩明县	103.042601	25.251849	103.04078979576278	25.254662930687395	103.042601 25.251849	汽车服务	充电站	充电站
特来电充电站(嵩明县空港大道北汽工厂)	汽车服务;充电站;充电站	11100	金山路与空港大道交叉口东440米	4001300001	云南省	昆明市	嵩明县	103.028897	25.266949	103.02713277518856	25.26979788752733	103.028897 25.266949	汽车服务	充电站	充电站
特来电充电站(嵩明县空港大道北汽工厂)	汽车服务;充电站;充电站	11100	金山路与空港大道交叉口东420米	4001300001	云南省	昆明市	嵩明县	103.028734	25.267055	103.026970368725	25.269904331158703	103.028734 25.267055	汽车服务	充电站	充电站
达克云汽车充电站(杨林)(内部专用)	汽车服务;充电站;充电站	11100	杨林镇客运站旁	17611069175	云南省	昆明市	嵩明县	103.06	25.231	103.05813886206494	25.233778652175182	103.06 25.231	汽车服务	充电站	充电站
嵩明服务区(上行-昆明方向)充电站	汽车服务;充电站;充电站	11100	G56杭瑞高速与嵩明服务区交叉口西420米	[]	云南省	昆明市	嵩明县	102.978148	25.31202	102.9765816220124	25.31502100744996	102.978148 25.31202	汽车服务	充电站	充电站
云快充汽车充电站(普洛斯昆明杨林物流园充电站)	汽车服务;充电站;充电站	11100	南环路恒宸工业园北侧约60米	4008288517	云南省	昆明市	嵩明县	103.035495	25.232709	103.03370832275829	25.235539813535905	103.035495 25.232709	汽车服务	充电站	充电站
汽车充电站(园博园公共停车场)	汽车服务;充电站;充电站	11100	杨林镇文林路园博园	[]	云南省	昆明市	嵩明县	102.999698	25.234897	102.9980488637317	25.23783033005688	102.999698 25.234897	汽车服务	充电站	充电站
昆自新能源汽车充电站(杨林里外)	汽车服务;充电站;充电站	11100	文苑路3号里外里3B栋地下1层	4008888209;18987554651	云南省	昆明市	嵩明县	102.997284	25.239455	102.99564443866572	25.242395706987903	102.997284 25.239455	汽车服务	充电站	充电站
嵩明服务区云南交投新能源电动汽车快速充电站	汽车服务;充电站;充电站	11100	公投强林加油站南(杭瑞高速公路南)	[]	云南省	昆明市	嵩明县	102.981263	25.310251	102.97968472876204	25.31324293285388	102.981263 25.310251	汽车服务	充电站	充电站
星星充电汽车充电站(羊街充电站1)	汽车服务;充电站;充电站	11100	羊街镇213国道	4008280768	云南省	昆明市	寻甸回族彝族自治县	103.123492	25.434597	103.12155840960224	25.437379950469783	103.123492 25.434597	汽车服务	充电站	充电站
汽车充电站(寻甸金所乡)	汽车服务;充电站;充电站	11100	金所街道客喜源宾馆客房部	[]	云南省	昆明市	寻甸回族彝族自治县	103.196226	25.552223	103.19437187086378	25.555163479164523	103.196226 25.552223	汽车服务	充电站	充电站
汽车充电站(寻甸六哨乡)	汽车服务;充电站;充电站	11100	六哨乡清泉街	[]	云南省	昆明市	寻甸回族彝族自治县	102.969281	25.621888	102.96773801138312	25.62499889328852	102.969281 25.621888	汽车服务	充电站	充电站
汽车充电站(寻甸甸沙乡)	汽车服务;充电站;充电站	11100	甸沙乡80县道	[]	云南省	昆明市	寻甸回族彝族自治县	103.109368	25.687429	103.10742400713524	25.69030003214248	103.109368 25.687429	汽车服务	充电站	充电站
潘所服务区(上行-昆明方向)充电站	汽车服务;充电站;充电站	11100	G85银昆高速与潘所服务区交叉口西60米	[]	云南省	昆明市	寻甸回族彝族自治县	103.20638	25.538875	103.20453696113364	25.541826358176912	103.20638 25.538875	汽车服务	充电站	充电站
潘所服务区国家电网电动汽车充电站	汽车服务;充电站;充电站	11100	潘所服务区与Ｇ８５银昆高速交叉口东约80米	[]	云南省	昆明市	寻甸回族彝族自治县	103.207312	25.535737	103.20546991619103	25.53868855673155	103.207312 25.535737	汽车服务	充电站	充电站
汽车充电站(寻甸马过河公路)	汽车服务;充电站;充电站	11100	仁德街道马过河公路	[]	云南省	昆明市	寻甸回族彝族自治县	103.293405	25.543278	103.29150496863522	25.54623052343545	103.293405 25.543278	汽车服务	充电站	充电站
汽车充电站(寻甸先锋镇)	汽车服务;充电站;充电站	11100	仁德街道蛤蚂塘	[]	云南省	昆明市	寻甸回族彝族自治县	103.26968	25.554949	103.2678237647005	25.55793251481779	103.26968 25.554949	汽车服务	充电站	充电站
新能源汽车充电站	汽车服务;充电站;充电站	11100	凤梧路32号	[]	云南省	昆明市	寻甸回族彝族自治县	103.257276	25.545845	103.2554350312952	25.548831431091724	103.257276 25.545845	汽车服务	充电站	充电站
充电汽车服务站	汽车服务;充电站;充电站	11100	凤梧路28号	13987170274	云南省	昆明市	寻甸回族彝族自治县	103.25722	25.545939	103.25537908169782	25.548925482129945	103.25722 25.545939	汽车服务	充电站	充电站
汽车充电站(寻甸易天线)	汽车服务;充电站;充电站	11100	仁德街道易天线	[]	云南省	昆明市	寻甸回族彝族自治县	103.257168	25.534177	103.25532752453488	25.53715918112901	103.257168 25.534177	汽车服务	充电站	充电站
汽车充电站(寻甸供销大厦)	汽车服务;充电站;充电站	11100	仁德街道玉屏街12号寻甸回族彝族自治县供销大厦	[]	云南省	昆明市	寻甸回族彝族自治县	103.255194	25.5577	103.25335453946872	25.56069146278292	103.255194 25.5577	汽车服务	充电站	充电站
汽车充电站(寻甸凤梧路阳光保险)	汽车服务;充电站;充电站	11100	仁德街道凤梧路50号城关小区	[]	云南省	昆明市	寻甸回族彝族自治县	103.257592	25.547527	103.25575067049192	25.55051397026472	103.257592 25.547527	汽车服务	充电站	充电站
汽车充电站(寻甸三月三路万顺叫车)	汽车服务;充电站;充电站	11100	仁德街道三月三路中国石油加油站	[]	云南省	昆明市	寻甸回族彝族自治县	103.254137	25.544738	103.2522988715708	25.54772472480345	103.254137 25.544738	汽车服务	充电站	充电站
星星充电汽车充电站(云南省昆明市寻甸县汽车客运站)	汽车服务;充电站;充电站	11100	仁德街道新星英语寻甸汽车客运站	4008280768	云南省	昆明市	寻甸回族彝族自治县	103.265343	25.545582	103.26349300236184	25.54856482635322	103.265343 25.545582	汽车服务	充电站	充电站
星星充电汽车充电站(格巧高速东川服务区左幅电动汽车)	汽车服务;充电站;充电站	11100	格巧高速东川服务区左幅	4008280768	云南省	昆明市	东川区	103.235754	25.939481	103.2339109160457	25.94268886295341	103.235754 25.939481	汽车服务	充电站	充电站
星星充电汽车充电站(美丽充东川利东检测站)	汽车服务;充电站;充电站	11100	铜都街道利东检测站内直行50米	4008280768	云南省	昆明市	东川区	103.174973	26.075899	103.17307324911782	26.07911729743601	103.174973 26.075899	汽车服务	充电站	充电站
汽车充电站(寻甸金源乡)	汽车服务;充电站;充电站	11100	金源乡瀚艺艺术培训学校金源店禄发石化加油站	[]	云南省	昆明市	寻甸回族彝族自治县	103.128497	25.853815	103.12655159936992	25.856803080793885	103.128497 25.853815	汽车服务	充电站	充电站
汽车充电站(寻甸联合乡)	汽车服务;充电站;充电站	11100	联合乡243乡道	[]	云南省	昆明市	寻甸回族彝族自治县	102.997085	25.934956	102.99542424291693	25.93817557175136	102.997085 25.934956	汽车服务	充电站	充电站
特来电充电站(昆明寻甸功山重卡)	汽车服务;充电站;充电站	11100	Ｓ２３巧功高速出口与Ｇ８５银昆高速交叉口西南约280米	4001300001	云南省	昆明市	寻甸回族彝族自治县	103.271675	25.742719	103.2698094665493	25.7457933569864	103.271675 25.742719	汽车服务	充电站	充电站
岗纪服务区云南交投新能源电动汽车快速充电站	汽车服务;充电站;充电站	11100	银昆高速岗纪服务区-下行昭通方向	[]	云南省	昆明市	寻甸回族彝族自治县	103.337755	25.763161	103.33573313053355	25.766143200553035	103.337755 25.763161	汽车服务	充电站	充电站
岗纪服务区云南交投新能源电动汽车快速充电站	汽车服务;充电站;充电站	11100	G85渝昆高速附近	[]	云南省	昆明市	寻甸回族彝族自治县	103.340295	25.764439	103.33826637366006	25.76741724141279	103.340295 25.764439	汽车服务	充电站	充电站
