name	type	typecode	address	tel	pname	cityname	adname	gcj02_lon	gcj02_lat	wgs84_lon	wgs84_lat	合并坐标	大类	中类	小类
依威能源汽车充电站(碧桂园清远假日半岛鸟语花香会所)	汽车服务;充电站;充电站	011100	石角镇碧桂园半岛鸟语花香会所碧桂园清远假日半岛鸟语花香会所	4001800910	广东省	清远市	清城区	113.05255	23.471176	113.04709079176511	23.47362966628303	113.05255 23.471176	汽车服务	充电站	充电站
依威能源汽车充电站(碧桂园清远假日半岛映月湾40街)	汽车服务;充电站;充电站	011100	石角镇碧桂园半岛映月湾40街	4001800910	广东省	清远市	清城区	113.042281	23.479883	113.03684789230144	23.4823581807146	113.042281 23.479883	汽车服务	充电站	充电站
依威能源汽车充电站(美林湖贝沙湾)	汽车服务;充电站;充电站	011100	美林湖大道附近美林湖贝沙湾	[]	广东省	清远市	清城区	113.042033	23.489158	113.0365999508303	23.491633259904606	113.042033 23.489158	汽车服务	充电站	充电站
特来电充电站(清远假日半岛一期站)	汽车服务;充电站;充电站	011100	[]	[]	广东省	清远市	清城区	113.066798	23.485732	113.06130799156404	23.48816072807621	113.066798 23.485732	汽车服务	充电站	充电站
依威能源汽车充电站(美林湖美汇半岛)	汽车服务;充电站;充电站	011100	美林湖大道(美汇半岛西侧)	4001800910	广东省	清远市	清城区	113.056139	23.48983	113.05067016843412	23.492275750395542	113.056139 23.48983	汽车服务	充电站	充电站
依威能源汽车充电站(美林湖汇泉湾)	汽车服务;充电站;充电站	011100	美林湖国际社区美林湖汇泉湾旁	4001800910	广东省	清远市	清城区	113.038718	23.491441	113.0332942617666	23.49392405422472	113.038718 23.491441	汽车服务	充电站	充电站
依威能源汽车充电站(美林湖维景湾)	汽车服务;充电站;充电站	011100	石角镇美林湖维景湾	4001800910	广东省	清远市	清城区	113.062562	23.506984	113.0570784429502	23.509418196695872	113.062562 23.506984	汽车服务	充电站	充电站
特来电充电站(广东清远美林湖哥弟大酒店新能源车)	汽车服务;充电站;充电站	011100	石角镇美林湖国际社区大家元博爱小区哥弟大酒店地库	[]	广东省	清远市	清城区	113.03727	23.495884	113.03185020742312	23.4983704221816	113.03727 23.495884	汽车服务	充电站	充电站
小桔充电汽车充电站(清城区兴仁桥充电站)	汽车服务;充电站;充电站	011100	兴仁桥-道路	4000610999	广东省	清远市	清城区	113.003932	23.474725	112.99862501692358	23.477306637471383	113.003932 23.474725	汽车服务	充电站	充电站
依威能源汽车充电站(美林湖怡景湾)	汽车服务;充电站;充电站	011100	石角镇美林湖大道168号	4001800910	广东省	清远市	清城区	113.065477	23.514526	113.0599873869056	23.51695563894958	113.065477 23.514526	汽车服务	充电站	充电站
特来电充电站(金御广场)	汽车服务;充电站;充电站	011100	大地幼儿园	4001300001	广东省	清远市	清城区	112.995561	23.518237	112.99028101138148	23.520842345873177	112.995561 23.518237	汽车服务	充电站	充电站
龙湾停车区充电站	汽车服务;充电站;充电站	011100	S14汕湛高速与龙湾停车区交叉口西南400米	[]	广东省	清远市	清新区	112.897048	23.711714	112.89197137330744	23.714513030009307	112.897048 23.711714	汽车服务	充电站	充电站
龙湾停车区充电站	汽车服务;充电站;充电站	011100	S14汕湛高速与龙湾停车区交叉口南160米	[]	广东省	清远市	清新区	112.900244	23.712422	112.89516684857742	23.715221636319	112.900244 23.712422	汽车服务	充电站	充电站
清新区三坑镇安庆围公共汽车充电站	汽车服务;充电站;充电站	011100	三坑镇安庆村委会安庆围村靠清四公路旁	0763-5862308;18820586298	广东省	清远市	清新区	112.816604	23.611899	112.81143660660663	23.6145696998263	112.816604 23.611899	汽车服务	充电站	充电站
广东电网充电站(清远市清新供电局太平营业厅)	汽车服务;充电站;充电站	011100	354省道与369县道交叉口东南280米	[]	广东省	清远市	清新区	112.885981	23.670699	112.88090513473864	23.673484850743453	112.885981 23.670699	汽车服务	充电站	充电站
星星充电汽车充电站(运维自建-阿尔发埃德伟控汽车配件有限公司桩群)	汽车服务;充电站;充电站	011100	太平镇龙湾工业区A6	4008280768	广东省	清远市	清新区	112.889536	23.686563	112.88446030576554	23.68935395072806	112.889536 23.686563	汽车服务	充电站	充电站
特来电充电站(清远恒大酒店)	汽车服务;充电站;充电站	011100	G0421许广高速出口与G0421许广高速交叉口东460米	[]	广东省	清远市	清新区	112.917715	23.847056	112.91261761792332	23.84988934140353	112.917715 23.847056	汽车服务	充电站	充电站
广东电网充电站(清新供电局山塘营业厅)	汽车服务;充电站;充电站	011100	山塘镇平安二街1号	[]	广东省	清远市	清新区	112.951718	23.632937	112.94657124549464	23.635667527141344	112.951718 23.632937	汽车服务	充电站	充电站
南方电网汽车充电站	汽车服务;充电站;充电站	011100	石潭镇114省道大洛村委会佛仔塘村对面	[]	广东省	清远市	清新区	112.775828	24.112042	112.77057303808829	24.11481607541741	112.775828 24.112042	汽车服务	充电站	充电站
新村停车区充电站	汽车服务;充电站;充电站	011100	[]	[]	广东省	清远市	清新区	112.658661	24.102395	112.65355130581902	24.105272823851475	112.658661 24.102395	汽车服务	充电站	充电站
睿电新能源清新服务区南行侧汽车充电站	汽车服务;充电站;充电站	011100	清连高速清新服务区南行侧	[]	广东省	清远市	清新区	112.924664	23.934956	112.91955210669244	23.93781636079096	112.924664 23.934956	汽车服务	充电站	充电站
清新服务区睿电新能源北行侧电动汽车充电站	汽车服务;充电站;充电站	011100	Ｇ０４２１许广高速与清新服务区交叉口东南约340米	[]	广东省	清远市	清新区	112.926991	23.934136	112.92187573935584	23.936993534787124	112.926991 23.934136	汽车服务	充电站	充电站
广东电网充电站(清远市清新供电局禾云营业厅)	汽车服务;充电站;充电站	011100	禾云镇禾兴大道8号	[]	广东省	清远市	清新区	112.922145	23.918907	112.91703758760424	23.92176344996126	112.922145 23.918907	汽车服务	充电站	充电站
杨梅服务区充电站	汽车服务;充电站;充电站	011100	G78汕昆高速与杨梅服务区交叉口西340米	[]	广东省	清远市	阳山县	112.543379	24.095628	112.53828846308912	24.09850500500944	112.543379 24.095628	汽车服务	充电站	充电站
杨梅服务区充电站	汽车服务;充电站;充电站	011100	杨梅服务区与G78汕昆高速交叉口东140米	[]	广东省	清远市	阳山县	112.541974	24.092982	112.53688025622785	24.09585466770073	112.541974 24.092982	汽车服务	充电站	充电站
清远绿盈九龙小镇充电站	汽车服务;充电站;充电站	011100	九龙镇岩下村九龙峰林小镇P2停车场	[]	广东省	清远市	英德市	112.926078	24.120525	112.920951612685	24.12346133099133	112.926078 24.120525	汽车服务	充电站	充电站
清远绿盈汽车充电站(九龙镇)	汽车服务;充电站;充电站	011100	九龙镇国业旅游	[]	广东省	清远市	英德市	112.925919	24.12118	112.9207928041098	24.12411677506728	112.925919 24.12118	汽车服务	充电站	充电站
广东天路汽车充电站(汕昆高速九龙东行)	汽车服务;充电站;充电站	011100	九龙镇G78汕昆高速九龙服务区	4000053636	广东省	清远市	英德市	112.915289	24.105525	112.91017680962152	24.10846418122848	112.915289 24.105525	汽车服务	充电站	充电站
广东交通集团汽车充电站(汕昆高速九龙西行)	汽车服务;充电站;充电站	011100	九龙镇G78汕昆高速九龙服务区	[]	广东省	清远市	英德市	112.917895	24.106328	112.91278009238444	24.10926579689974	112.917895 24.106328	汽车服务	充电站	充电站
依威能源汽车充电站(北部万科城五期)	汽车服务;充电站;充电站	011100	石角镇石角居委会S253线石角段清远万科城五期北部万科城五期	4001800910	广东省	清远市	清城区	113.049613	23.528546	113.04415707536312	23.53100365644584	113.049613 23.528546	汽车服务	充电站	充电站
顺易充电站	汽车服务;充电站;充电站	011100	清远大道新力翡翠湾南侧约140米	[]	广东省	清远市	清城区	113.038852	23.650603	113.03341695709464	23.65309478610208	113.038852 23.650603	汽车服务	充电站	充电站
特斯拉超级充电站(清远狮子湖喜来登度假酒店)	汽车服务;充电站;充电站	011100	狮子湖大道1号喜来登酒店地下B2层停车场B区	[]	广东省	清远市	清城区	113.014836	23.630472	113.00947995426874	23.63302623607564	113.014836 23.630472	汽车服务	充电站	充电站
特来电充电站(时代花城)	汽车服务;充电站;充电站	011100	时代花城	18127216837	广东省	清远市	清城区	113.018699	23.677594	113.013326415816	23.68014450837129	113.018699 23.677594	汽车服务	充电站	充电站
睿电新能源清远大道汽车充电站	汽车服务;充电站;充电站	011100	横荷街道清远大道党校斜对面	[]	广东省	清远市	清城区	113.038773	23.650565	113.03333818973786	23.65305697219768	113.038773 23.650565	汽车服务	充电站	充电站
联电充电站(星星充电站)	汽车服务;充电站;充电站	011100	时代花城后门旁(顺丰快递楼下)	4008280768	广东省	清远市	清城区	113.018598	23.679438	113.0132256351489	23.68198914810507	113.018598 23.679438	汽车服务	充电站	充电站
中能易电充电站(金凤加油站站)	汽车服务;充电站;充电站	011100	横荷街道189乡道中国石化清远市金凤加油站	[]	广东省	清远市	清城区	113.022754	23.676938	113.0173677472462	23.679476805127933	113.022754 23.676938	汽车服务	充电站	充电站
粤万通电瓶单车共享充电站	汽车服务;充电站;充电站	011100	人民路32号卧龙五洲世纪城2栋2单元车库	[]	广东省	清远市	清城区	113.032191	23.682182	113.0267738672235	23.6846961102836	113.032191 23.682182	汽车服务	充电站	充电站
顺易充汽车充电站	汽车服务;充电站;充电站	011100	富强路与锦绣西路交叉口东北480米	[]	广东省	清远市	清城区	113.035791	23.675932	113.03036327475638	23.678435689280644	113.035791 23.675932	汽车服务	充电站	充电站
星星充电汽车充电站(清远美东-雷克萨斯充电桩群)	汽车服务;充电站;充电站	011100	横荷街道人民四路38号汽车城4-2栋	4008280768	广东省	清远市	清城区	113.022194	23.677984	113.01680955072904	23.68052458354395	113.022194 23.677984	汽车服务	充电站	充电站
云快充汽车充电站(狮子湖乡村俱乐部充电站)	汽车服务;充电站;充电站	011100	狮子湖大道1号狮子湖乡村俱乐部(地面停车场)	[]	广东省	清远市	清城区	113.012523	23.617915	113.00717588524788	23.620474513670363	113.012523 23.617915	汽车服务	充电站	充电站
闪充-海港成天荷壹号充电站	汽车服务;充电站;充电站	011100	横荷街办新城西E45号区露天停车位	4000610999	广东省	清远市	清城区	113.049061	23.652273	113.04359795270987	23.654741902253225	113.049061 23.652273	汽车服务	充电站	充电站
清远市澳星雅轩汽车充电站	汽车服务;充电站;充电站	011100	广清大道85号澳星雅轩露天停车场	[]	广东省	清远市	清城区	113.053498	23.664045	113.04802325207982	23.666506906682887	113.053498 23.664045	汽车服务	充电站	充电站
分享大厦汽车充电站	汽车服务;充电站;充电站	011100	荷花路与富裕路交叉口北约40米	4008288517	广东省	清远市	清城区	113.056712	23.655394	113.05123047145064	23.65784845101584	113.056712 23.655394	汽车服务	充电站	充电站
充电站	汽车服务;充电站;充电站	011100	富强路与北江三路交叉口南220米	[]	广东省	清远市	清城区	113.024239	23.692366	113.01884674924422	23.69490365526165	113.024239 23.692366	汽车服务	充电站	充电站
小桔充电汽车充电站(义乌商贸城充电站)	汽车服务;充电站;充电站	011100	人民三路32号	4000610999	广东省	清远市	清城区	113.034466	23.678691	113.02904209737484	23.6811985658714	113.034466 23.678691	汽车服务	充电站	充电站
闪充-荷兴广场充电站	汽车服务;充电站;充电站	011100	清远大道与厚德路交叉口东南约80米	4000610999	广东省	清远市	清城区	113.050066	23.655512	113.04460019391163	23.6579793329532	113.050066 23.655512	汽车服务	充电站	充电站
云快充汽车充电站(卧龙五洲世纪城充电站)	汽车服务;充电站;充电站	011100	人民三路34号五洲世纪城四号楼车库086车位	4008288517	广东省	清远市	清城区	113.032581	23.682535	113.0271626307383	23.68504816118204	113.032581 23.682535	汽车服务	充电站	充电站
特来电充电站(金御言葉Coffee)	汽车服务;充电站;充电站	011100	清远金御商务中心	4001300001	广东省	清远市	清城区	113.052929	23.664828	113.04745554948744	23.667291147135057	113.052929 23.664828	汽车服务	充电站	充电站
尚尚科技快速充电站(横荷点站)	汽车服务;充电站;充电站	011100	清远大道辅路与荷花路交叉路口西南	[]	广东省	清远市	清城区	113.054689	23.65789	113.04921189236396	23.660348596558485	113.054689 23.65789	汽车服务	充电站	充电站
驿充电汽车充电站(清远市云山诗意交流)	汽车服务;充电站;充电站	011100	广清大道88号云山诗意大厦露天停车场	4008129338	广东省	清远市	清城区	113.04883	23.669141	113.04336637653242	23.671613220471126	113.04883 23.669141	汽车服务	充电站	充电站
广州发展汽车充电站	汽车服务;充电站;充电站	011100	清三公路98号	[]	广东省	清远市	清城区	112.980865	23.61145	112.9756303605296	23.614103585346857	112.980865 23.61145	汽车服务	充电站	充电站
云快充汽车充电站(广东聚腾广清大道充电站)	汽车服务;充电站;充电站	011100	广清大道67号	4008288517	广东省	清远市	清城区	113.052245	23.667273	113.0467730228535	23.669737918131005	113.052245 23.667273	汽车服务	充电站	充电站
汽车充电站(凤翔雅居)	汽车服务;充电站;充电站	011100	威信路-道路	15920468108	广东省	清远市	清城区	113.061745	23.67612	113.05625137943538	23.678569456527217	113.061745 23.67612	汽车服务	充电站	充电站
睿电新能源市税务局充电站	汽车服务;充电站;充电站	011100	半环北路18号清远市税务局停车场	[]	广东省	清远市	清城区	113.05792	23.672504	113.05243462798649	23.67495923383285	113.05792 23.672504	汽车服务	充电站	充电站
回澜停车区汽车充电站	汽车服务;充电站;充电站	011100	[]	[]	广东省	清远市	清新区	112.960626	23.676696	112.95545169669758	23.67941333201732	112.960626 23.676696	汽车服务	充电站	充电站
小桔充电汽车充电站(清城区聚腾新能源广场充电站)	汽车服务;充电站;充电站	011100	广清大道67号	4000610999	广东省	清远市	清城区	113.052399	23.667522	113.04692663418888	23.66998665756448	113.052399 23.667522	汽车服务	充电站	充电站
小桔充电汽车充电站(清城区二〇一勘探队充电站)	汽车服务;充电站;充电站	011100	二O一勘探队充电站,源潭环城路金御酒店门口	4000610999	广东省	清远市	清城区	113.024165	23.692357	113.01877299499222	23.69489486010364	113.024165 23.692357	汽车服务	充电站	充电站
睿电新能源顺盈时代广场充电站	汽车服务;充电站;充电站	011100	顺盈时代广场B1层	[]	广东省	清远市	清城区	113.067024	23.674422	113.06152054771977	23.67686324240957	113.067024 23.674422	汽车服务	充电站	充电站
特来电充电站(清远迎宾馆)	汽车服务;充电站;充电站	011100	清远迎宾馆北门	17868068470	广东省	清远市	清城区	113.05522	23.684229	113.04973984745304	23.686691341034702	113.05522 23.684229	汽车服务	充电站	充电站
星星充电汽车充电站(清远骏风广本)	汽车服务;充电站;充电站	011100	清远市高新技术产业开发区创兴大道6号-A9	4008280768	广东省	清远市	清城区	113.060442	23.634105	113.05495393991156	23.636549808470782	113.060442 23.634105	汽车服务	充电站	充电站
小桔充电汽车充电站(高新区百加充电站)	汽车服务;充电站;充电站	011100	东风日产(清城百加店)	4000610999	广东省	清远市	清城区	113.059616	23.63462	113.0541296238745	23.637066263498024	113.059616 23.63462	汽车服务	充电站	充电站
清远智途充电站(建滔酒店)	汽车服务;充电站;充电站	011100	北江二路8号	15915177779	广东省	清远市	清城区	113.058717	23.68342	113.05322915195734	23.685875894974785	113.058717 23.68342	汽车服务	充电站	充电站
高裕商贸广场充电站	汽车服务;充电站;充电站	011100	铁塔一路高裕商贸广场地下停车场	[]	广东省	清远市	清城区	113.069578	23.677377	113.06406999566146	23.6798153932877	113.069578 23.677377	汽车服务	充电站	充电站
驿充电新能源汽车充电站(清远建设二路北辰)	汽车服务;充电站;充电站	011100	建设二路与德宝路交叉口南约200米	4008129338	广东省	清远市	清城区	113.06146	23.627277	113.05597033494551	23.629719238255152	113.06146 23.627277	汽车服务	充电站	充电站
万城万充汽车充电站(高裕商贸广场)	汽车服务;充电站;充电站	011100	铁塔一路高裕商贸广场地下停车场	4008083392	广东省	清远市	清城区	113.06961	23.677448	113.06410193822926	23.679886365805032	113.06961 23.677448	汽车服务	充电站	充电站
小桔充电汽车充电站(保利天汇充电站)	汽车服务;充电站;充电站	011100	保利天汇·熙园-停车场	4000610999	广东省	清远市	清城区	113.068593	23.692341	113.06308559645092	23.694783600525533	113.068593 23.692341	汽车服务	充电站	充电站
银盏村委会充电站	汽车服务;充电站;充电站	011100	龙塘镇银盏村委会停车场	[]	广东省	清远市	清城区	113.127403	23.559843	113.12188862081032	23.56226696842888	113.127403 23.559843	汽车服务	充电站	充电站
银盏商业广场汽车充电站(斑羚充电)	汽车服务;充电站;充电站	011100	银盏商业广场1号楼133号商铺旁	13211100628	广东省	清远市	清城区	113.129843	23.56136	113.12433111235455	23.56378691368091	113.129843 23.56136	汽车服务	充电站	充电站
睿电新能源阳光100小区汽车充电站(暂停营业)	汽车服务;充电站;充电站	011100	107国道阳光100凤凰社对面	[]	广东省	清远市	清城区	113.102711	23.586061	113.09718186275242	23.58846946985228	113.102711 23.586061	汽车服务	充电站	充电站
清远市清城220kV岭塘站公共充电站	汽车服务;充电站;充电站	011100	站前路	[]	广东省	清远市	清城区	113.125145	23.680022	113.11962005987904	23.68245767445626	113.125145 23.680022	汽车服务	充电站	充电站
特来电充电站(清远站站前路)	汽车服务;充电站;充电站	011100	站前路与站前四路交叉路口往西南约130米	13802898180	广东省	清远市	清城区	113.130458	23.692864	113.12493766736006	23.695308336437705	113.130458 23.692864	汽车服务	充电站	充电站
小桔充电站(闪充-金丰华府)	汽车服务;充电站;充电站	011100	金丰华府	4000610999	广东省	清远市	清城区	113.086061	23.673727	113.08053281067376	23.67614971609944	113.086061 23.673727	汽车服务	充电站	充电站
闪充汽车充电站	汽车服务;充电站;充电站	011100	铁塔路金信海怡花园西侧	15920468108	广东省	清远市	清城区	113.071015	23.679383	113.06550454689176	23.68181998372995	113.071015 23.679383	汽车服务	充电站	充电站
利满园充电站	汽车服务;充电站;充电站	011100	连石路清远市华侨中学北侧约260米	[]	广东省	清远市	清城区	113.073236	23.673217	113.06772260109985	23.675650251162786	113.073236 23.673217	汽车服务	充电站	充电站
特来电充电站(清远市利满园)	汽车服务;充电站;充电站	011100	连石路与人民东路交叉口西南约80米	4001300001	广东省	清远市	清城区	113.073432	23.672277	113.0679183801041	23.674709862371124	113.073432 23.672277	汽车服务	充电站	充电站
小桔充电汽车充电站(清新保利花园充电站)	汽车服务;充电站;充电站	011100	保利花园-停车场	4000610999	广东省	清远市	清新区	112.990879	23.723799	112.98560181136251	23.72644275589372	112.990879 23.723799	汽车服务	充电站	充电站
南方电网汽车充电站(太和路)	汽车服务;充电站;充电站	011100	太和镇太和路42号	[]	广东省	清远市	清新区	112.995176	23.724684	112.9898834400764	23.727315021090984	112.995176 23.724684	汽车服务	充电站	充电站
清远绿盈充电站	汽车服务;充电站;充电站	011100	清新大道公交总站入口	13425235934	广东省	清远市	清新区	113.00322	23.724706	112.9978986299921	23.72731264284421	113.00322 23.724706	汽车服务	充电站	充电站
蔚景汽车充电站(清远绿盈)	汽车服务;充电站;充电站	011100	清新大道与新宁路交叉口东南约80米	[]	广东省	清远市	清新区	113.003204	23.724661	112.99788269030456	23.727267680544124	113.003204 23.724661	汽车服务	充电站	充电站
凤城水产汽车充电站	汽车服务;充电站;充电站	011100	清远大桥北侧宝马4S店楼下	[]	广东省	清远市	清城区	113.009627	23.702503	113.00428432593964	23.70508527246982	113.009627 23.702503	汽车服务	充电站	充电站
粤万通电瓶单车共享充电站	汽车服务;充电站;充电站	011100	环城中路25号清新凯伦堡C栋	[]	广东省	清远市	清新区	112.98851	23.737389	112.98324027505464	23.74004317437253	112.98851 23.737389	汽车服务	充电站	充电站
睿电新能源清新花园酒店充电站	汽车服务;充电站;充电站	011100	环城路清新花园酒店内停车场	[]	广东省	清远市	清新区	112.996399	23.739723	112.99110104450568	23.74235403735049	112.996399 23.739723	汽车服务	充电站	充电站
星星充电汽车充电站(清远合鼎新能源)	汽车服务;充电站;充电站	011100	如一出行清远分公司	4008280768	广东省	清远市	清新区	113.006563	23.738144	113.0012287762498	23.740743846476008	113.006563 23.738144	汽车服务	充电站	充电站
小桔充电站(天天充电-翡翠凤凰园)	汽车服务;充电站;充电站	011100	时代路北侧三角地块(翡翠凤凰小区门前)	4000610999	广东省	清远市	清城区	113.042963	23.717918	113.03751163376964	23.72041317127562	113.042963 23.717918	汽车服务	充电站	充电站
特来电充电站(东方明珠)	汽车服务;充电站;充电站	011100	东方明珠花园	[]	广东省	清远市	清城区	113.046247	23.70973	113.0407872930343	23.712215923233085	113.046247 23.70973	汽车服务	充电站	充电站
小桔充电充电站(绿茵华府站)	汽车服务;充电站;充电站	011100	东城大道	[]	广东省	清远市	清城区	113.045748	23.709286	113.0402896514478	23.71177292274228	113.045748 23.709286	汽车服务	充电站	充电站
特来电充电站(时代颐景园充电站)	汽车服务;充电站;充电站	011100	东城时代颐景园北门入口右侧	17868068470	广东省	清远市	清城区	113.043117	23.720348	113.03766503951822	23.722843384508657	113.043117 23.720348	汽车服务	充电站	充电站
时代瀚江府充电站	汽车服务;充电站;充电站	011100	时代倾城八期1号铺	17868068470	广东省	清远市	清城区	113.037914	23.72268	113.03247673772422	23.72518831035585	113.037914 23.72268	汽车服务	充电站	充电站
特来电充电站(时代倾城瀚林府)	汽车服务;充电站;充电站	011100	长埔路时代倾城-十期西南侧约80米	18127216837	广东省	清远市	清城区	113.040075	23.725905	113.03463123240913	23.72840884009028	113.040075 23.725905	汽车服务	充电站	充电站
南方电网汽车充电站	汽车服务;充电站;充电站	011100	东政路与东岗路交叉口西约120米	[]	广东省	清远市	清城区	113.051551	23.72442	113.0460767550478	23.72689818130415	113.051551 23.72442	汽车服务	充电站	充电站
小桔充电汽车充电站(闪充-金丰创世纪充电站)	汽车服务;充电站;充电站	011100	长埔路金丰创世纪户外停车场	[]	广东省	清远市	清城区	113.040085	23.726394	113.0346411699421	23.72889793395934	113.040085 23.726394	汽车服务	充电站	充电站
金碧湾花园汽车充电站	汽车服务;充电站;充电站	011100	金碧路体育公园	13922609984	广东省	清远市	清城区	113.052983	23.699732	113.04750700610823	23.70220177201936	113.052983 23.699732	汽车服务	充电站	充电站
汽车充电站(飞来湖8号停车场)	汽车服务;充电站;充电站	011100	凤城街道飞来南路飞来湖湿地公园孔繁森雕像停车场	4006872880	广东省	清远市	清城区	113.028927	23.725173	113.02351722183413	23.727705085356035	113.028927 23.725173	汽车服务	充电站	充电站
小桔充电汽车充电站(飞来湖一号充电站)	汽车服务;充电站;充电站	011100	飞来南路与桥北路交叉口东北240米	4000610999	广东省	清远市	清城区	113.029188	23.724804	113.023777412343	23.72733529501713	113.029188 23.724804	汽车服务	充电站	充电站
特来电充电站(清远好来登)	汽车服务;充电站;充电站	011100	广清大道辅路与北江二路交叉口东南约60米	18127216837	广东省	清远市	清城区	113.039514	23.694988	113.03407398094043	23.69748625889151	113.039514 23.694988	汽车服务	充电站	充电站
特来电充电站(清远湖景湾)	汽车服务;充电站;充电站	011100	湖西路广东省清远市清城区环城二路38号1号猪什王	18127216837	广东省	清远市	清城区	113.022221	23.7057	113.01683456198371	23.708246151666064	113.022221 23.7057	汽车服务	充电站	充电站
特来电充电站(天福花园)	汽车服务;充电站;充电站	011100	天福花园商铺6号楼背后	18127216837	广东省	清远市	清城区	113.01955	23.709719	113.01417231471063	23.71227366233582	113.01955 23.709719	汽车服务	充电站	充电站
快得充电站	汽车服务;充电站;充电站	011100	环城二路拉尾岗162号	19902818128	广东省	清远市	清城区	113.016348	23.705353	113.01098160173972	23.70791598310028	113.016348 23.705353	汽车服务	充电站	充电站
汽车充电站(飞来湖3号停车场)	汽车服务;充电站;充电站	011100	太和镇飞来路飞来湖湿地公园	4006872880	广东省	清远市	清新区	113.016796	23.723175	113.011426835408	23.72574074329186	113.016796 23.723175	汽车服务	充电站	充电站
小桔充电汽车充电站(闪充-海港成海境界充电站)	汽车服务;充电站;充电站	011100	清远市第三中学	4000610999	广东省	清远市	清城区	113.017493	23.711049	113.0121222637266	23.71360990850762	113.017493 23.711049	汽车服务	充电站	充电站
特来电充电站(清新美林购物广场)	汽车服务;充电站;充电站	011100	美林广场-地下停车场	4001300001	广东省	清远市	清新区	113.021963	23.733665	113.01657551089336	23.73621842657171	113.021963 23.733665	汽车服务	充电站	充电站
广东电网充电站(清远市清新供电局办公大楼)	汽车服务;充电站;充电站	011100	府前路9号清新供电局	[]	广东省	清远市	清新区	113.019871	23.73288	113.01449063608293	23.73543920018503	113.019871 23.73288	汽车服务	充电站	充电站
粤万通电瓶单车共享充电站	汽车服务;充电站;充电站	011100	环城路108号	[]	广东省	清远市	清新区	113.029515	23.740854	113.02410226481264	23.74338839525875	113.029515 23.740854	汽车服务	充电站	充电站
驿充电充电站(广州岭南大学清远校区第一期桩)	汽车服务;充电站;充电站	011100	岭南大学(清远校区)第一期充电桩	[]	广东省	清远市	清城区	113.104314	23.720344	113.09877554327086	23.72277405191161	113.104314 23.720344	汽车服务	充电站	充电站
特来电充电站(清远市粤运大学城)	汽车服务;充电站;充电站	011100	学府路	13926671801	广东省	清远市	清城区	113.096252	23.7172	113.0907148617625	23.719628571303293	113.096252 23.7172	汽车服务	充电站	充电站
清远服务区广东交通集团电动汽车充电站	汽车服务;充电站;充电站	011100	东城街道清远服务区	[]	广东省	清远市	清城区	113.154993	23.759425	113.14950418073464	23.76192321967856	113.154993 23.759425	汽车服务	充电站	充电站
广东交通集团汽车充电站(汕湛高速清远东行)	汽车服务;充电站;充电站	011100	东城街道汕湛高速清远服务区	[]	广东省	清远市	清城区	113.155834	23.757536	113.15034678224475	23.760035205696223	113.155834 23.757536	汽车服务	充电站	充电站
源潭服务区广东交通集团电动汽车充电站	汽车服务;充电站;充电站	011100	源潭镇源潭服务区内	4000053636	广东省	清远市	清城区	113.229356	23.685471	113.22398796391506	23.68806898412376	113.229356 23.685471	汽车服务	充电站	充电站
广东天路汽车充电站(乐广高速源潭单侧北行)	汽车服务;充电站;充电站	011100	源潭服务区与G0423乐广高速交叉口东南320米	4000053636	广东省	清远市	清城区	113.228828	23.685246	113.22345960353542	23.687843536529524	113.228828 23.685246	汽车服务	充电站	充电站
广东电网充电站(清远市清城供电局源潭供电所)	汽车服务;充电站;充电站	011100	240国道与沿江二路交叉口西北400米	[]	广东省	清远市	清城区	113.191101	23.667217	113.18568476364514	23.669761161852456	113.191101 23.667217	汽车服务	充电站	充电站
广东电网充电站(清远市清城供电局飞来峡营业厅)	汽车服务;充电站;充电站	011100	飞来峡镇江口大街253号	[]	广东省	清远市	清城区	113.229355	23.740219	113.22398320656752	23.742829373617983	113.229355 23.740219	汽车服务	充电站	充电站
黎溪服务区广东交通集团汽车充电站	汽车服务;充电站;充电站	011100	黎溪镇黎溪服务区	[]	广东省	清远市	英德市	113.224548	23.977528	113.21915602987144	23.980217203947188	113.224548 23.977528	汽车服务	充电站	充电站
广东交通集团汽车充电站(乐广高速黎溪北行)	汽车服务;充电站;充电站	011100	黎溪服务区与G0423乐广高速交叉口西南640米	4000053636	广东省	清远市	英德市	113.226526	23.976091	113.2211357937076	23.978781361516376	113.226526 23.976091	汽车服务	充电站	充电站
黎溪服务区广东交通集团电动汽车充电站	汽车服务;充电站;充电站	011100	黎溪镇黎溪服务区	[]	广东省	清远市	英德市	113.226547	23.976055	113.22115681312516	23.978745364535467	113.226547 23.976055	汽车服务	充电站	充电站
汽车充电站	汽车服务;充电站;充电站	011100	大洞镇大田村委会乌交洛组	[]	广东省	清远市	英德市	113.029109	23.982474	113.0236808591059	23.985094270822824	113.029109 23.982474	汽车服务	充电站	充电站
睿电新能源连樟村充电站	汽车服务;充电站;充电站	011100	连江口镇连樟中心村停车场	[]	广东省	清远市	英德市	113.340127	23.963241	113.33461468581928	23.96581844758343	113.340127 23.963241	汽车服务	充电站	充电站
睿电新能源天鹅湖酒店充电站	汽车服务;充电站;充电站	011100	天鹅湖大道1号	[]	广东省	清远市	英德市	113.364028	24.122902	113.3584619362141	24.12550655146609	113.364028 24.122902	汽车服务	充电站	充电站
南方电网汽车充电站	汽车服务;充电站;充电站	011100	帽子峰五号路东边	[]	广东省	清远市	英德市	113.418819	24.177514	113.41322933003843	24.18011781952922	113.418819 24.177514	汽车服务	充电站	充电站
英德停车区电动汽车充电站	汽车服务;充电站;充电站	011100	英城街道G0423乐广高速英德停车区	[]	广东省	清远市	英德市	113.341401	24.152573	113.33587277936826	24.155227228891736	113.341401 24.152573	汽车服务	充电站	充电站
睿电新能源黎溪白水寨风景区汽车充电站	汽车服务;充电站;充电站	011100	黎溪镇白水寨风景区	[]	广东省	清远市	英德市	113.306369	23.919218	113.30092824155568	23.921840723990908	113.306369 23.919218	汽车服务	充电站	充电站
睿电新能源英德西高铁站充电站	汽车服务;充电站;充电站	011100	广场路与英德西站前一路交叉口东南约120米	[]	广东省	清远市	英德市	113.35302	24.159943	113.34746931726102	24.16257973287296	113.35302 24.159943	汽车服务	充电站	充电站
广东交通集团汽车充电站(乐广高速英德北行)	汽车服务;充电站;充电站	011100	Ｇ０４２３乐广高速与英德停车区交叉口南约200米	[]	广东省	清远市	英德市	113.341915	24.151164	113.33638586254072	24.153816712108707	113.341915 24.151164	汽车服务	充电站	充电站
依威能源汽车充电站(碧桂园清远英德)	汽车服务;充电站;充电站	011100	峰光西路英德碧桂园C区露天停车场碧桂园清远英德	4001800910	广东省	清远市	英德市	113.384291	24.188922	113.3786974414499	24.19153100279104	113.384291 24.188922	汽车服务	充电站	充电站
云快充汽车充电站(英德市英城君玉街汽车充电站)	汽车服务;充电站;充电站	011100	英城街道君玉街西十五巷2号	13750135270	广东省	清远市	英德市	113.399275	24.18573	113.39367587954474	24.18833111435452	113.399275 24.18573	汽车服务	充电站	充电站
特斯拉目的地充电站(广东英德英洲大酒店站)	汽车服务;充电站;充电站	011100	百花路1号英洲大酒店	[]	广东省	清远市	英德市	113.416514	24.181904	113.41092196820046	24.18450796068853	113.416514 24.181904	汽车服务	充电站	充电站
广东交通集团汽车充电站(二广高速小三江南行)	汽车服务;充电站;充电站	011100		4000053636	广东省	清远市	连山壮族瑶族自治县	112.123025	24.278114	112.1175736626828	24.28077308156111	112.123025 24.278114	汽车服务	充电站	充电站
广东天路汽车充电站(二广高速小三江南行)	汽车服务;充电站;充电站	011100	小三江服务区与G55二广高速交叉口南380米	4000053636	广东省	清远市	连山壮族瑶族自治县	112.12021	24.278798	112.11475516513242	24.2814546567919	112.12021 24.278798	汽车服务	充电站	充电站
永丰停车区电动汽车充电站	汽车服务;充电站;充电站	011100	234国道与814乡道交叉口南340米	[]	广东省	清远市	连山壮族瑶族自治县	112.086249	24.470497	112.0807664251258	24.47319671858903	112.086249 24.470497	汽车服务	充电站	充电站
小三江服务区广东交通集团电动汽车充电站	汽车服务;充电站;充电站	011100	小三江镇小三江服务区内	[]	广东省	清远市	连山壮族瑶族自治县	112.119824	24.278785	112.1143687169234	24.28144131003754	112.119824 24.278785	汽车服务	充电站	充电站
白沙服务区电动汽车充电站	汽车服务;充电站;充电站	011100	[]	[]	广东省	清远市	连山壮族瑶族自治县	112.239173	24.704213	112.23389772835404	24.707106325103865	112.239173 24.704213	汽车服务	充电站	充电站
白沙服务区电动汽车充电站	汽车服务;充电站;充电站	011100	太保镇白沙服务区内	[]	广东省	清远市	连山壮族瑶族自治县	112.239232	24.706308	112.23395661863132	24.709201268230466	112.239232 24.706308	汽车服务	充电站	充电站
连南南方电网充电站	汽车服务;充电站;充电站	011100	朝阳路49号	[]	广东省	清远市	连南瑶族自治县	112.286492	24.716722	112.28119804241337	24.719592365334485	112.286492 24.716722	汽车服务	充电站	充电站
睿电新能源连南博物馆充电站	汽车服务;充电站;充电站	011100	东和路与沿江东路交叉口东南400米	[]	广东省	清远市	连南瑶族自治县	112.298809	24.715526	112.293497242825	24.7183786958459	112.298809 24.715526	汽车服务	充电站	充电站
特斯拉充电站(清远连南金瑶峰度假村超级站新国标)	汽车服务;充电站;充电站	011100	金瑶峰度假村地面停车场	[]	广东省	清远市	连南瑶族自治县	112.287848	24.704949	112.28255310527364	24.70781810715068	112.287848 24.704949	汽车服务	充电站	充电站
南方电网充电站(电力新村)	汽车服务;充电站;充电站	011100	三江镇电力花苑内	[]	广东省	清远市	连南瑶族自治县	112.285829	24.722631	112.28053546885398	24.72550191741473	112.285829 24.722631	汽车服务	充电站	充电站
清远睿电充电站(连南瑶族自治县博物馆)	汽车服务;充电站;充电站	011100	朝阳路113号	[]	广东省	清远市	连南瑶族自治县	112.298851	24.715666	112.29353916517746	24.718518622781485	112.298851 24.715666	汽车服务	充电站	充电站
广东电网充电站(清远市连南供电局三江营业厅)	汽车服务;充电站;充电站	011100	三江镇民族一路	[]	广东省	清远市	连南瑶族自治县	112.283545	24.71641	112.27825466964268	24.71928401976402	112.283545 24.71641	汽车服务	充电站	充电站
睿电新能源连山充电站	汽车服务;充电站;充电站	011100	鹿鸣西路	[]	广东省	清远市	连山壮族瑶族自治县	112.07697	24.572903	112.07148591871548	24.57562234510578	112.07697 24.572903	汽车服务	充电站	充电站
青龙停车区电动汽车充电站	汽车服务;充电站;充电站	011100	连州镇青龙停车区	[]	广东省	清远市	连州市	112.287954	24.815474	112.28265129565526	24.81833475194352	112.287954 24.815474	汽车服务	充电站	充电站
青龙停车区电动汽车充电站	汽车服务;充电站;充电站	011100	连州镇青龙停车区	4000053636	广东省	清远市	连州市	112.286533	24.816019	112.28123209920037	24.81888154036455	112.286533 24.816019	汽车服务	充电站	充电站
连州城南充电站	汽车服务;充电站;充电站	011100	城南大道西50米	[]	广东省	清远市	连州市	112.380751	24.759783	112.37529590140882	24.762498272491445	112.380751 24.759783	汽车服务	充电站	充电站
中国南方电网汽车充电站	汽车服务;充电站;充电站	011100	文明街与油榨街交叉口东南260米	[]	广东省	清远市	阳山县	112.427672	24.558906	112.42223792483776	24.561625901982293	112.427672 24.558906	汽车服务	充电站	充电站
广东交通集团汽车充电站(二广高速青龙停车区北行)	汽车服务;充电站;充电站	011100	青龙停车区青龙停车区	4000053636	广东省	清远市	连州市	112.287732	24.815871	112.2824295598934	24.81873200224865	112.287732 24.815871	汽车服务	充电站	充电站
阳山北服务区电动汽车充电站	汽车服务;充电站;充电站	011100	清连高速公路南行侧阳山北服务区	[]	广东省	清远市	阳山县	112.428802	24.580565	112.42336785712904	24.583287904773503	112.428802 24.580565	汽车服务	充电站	充电站
阳山北服务区电动汽车充电站	汽车服务;充电站;充电站	011100	清连高速公路北行侧阳山北服务区	[]	广东省	清远市	阳山县	112.431367	24.579883	112.42593642445222	24.58260904720004	112.431367 24.579883	汽车服务	充电站	充电站
特来电充电站(清远市连山粤运)	汽车服务;充电站;充电站	011100	吉田镇吉田养护所(道班)	[]	广东省	清远市	连山壮族瑶族自治县	112.074896	24.562814	112.06941447449395	24.56553460366223	112.074896 24.562814	汽车服务	充电站	充电站
广东天路汽车充电站(二广高速丰阳南行)	汽车服务;充电站;充电站	011100	丰阳服务区与G55二广高速交叉口南460米	4000053636	广东省	清远市	连州市	112.254459	25.046017	112.24916416208384	25.048874216791795	112.254459 25.046017	汽车服务	充电站	充电站
丰阳服务区广东交通集团电动汽车充电站	汽车服务;充电站;充电站	011100	丰阳镇丰阳服务区内	4000053636	广东省	清远市	连州市	112.254404	25.046071	112.24910916089571	25.04892822004277	112.254404 25.046071	汽车服务	充电站	充电站
丰阳服务区广东交通集团电动汽车充电站(二广高速丰阳北行)	汽车服务;充电站;充电站	011100	丰阳镇丰阳服务区	[]	广东省	清远市	连州市	112.258012	25.044653	112.2527168207536	25.04750950852329	112.258012 25.044653	汽车服务	充电站	充电站
能源汽车充电站	汽车服务;充电站;充电站	011100	阳山大道与思贤路交叉口东约80米	[]	广东省	清远市	阳山县	112.644796	24.466492	112.63969079646974	24.46951158031518	112.644796 24.466492	汽车服务	充电站	充电站
能源汽车充电站	汽车服务;充电站;充电站	011100	阳城镇阳山大道373号	13512758163	广东省	清远市	阳山县	112.644686	24.466467	112.63958101303392	24.469486754331687	112.644686 24.466467	汽车服务	充电站	充电站
蔚景汽车充电站(英德市大湾镇公共)	汽车服务;充电站;充电站	011100	大湾医院正门右侧侧边	[]	广东省	清远市	英德市	112.946288	24.339765	112.94110724486085	24.342750671123373	112.946288 24.339765	汽车服务	充电站	充电站
睿电新能源九州驿站汽车充电站	汽车服务;充电站;充电站	011100	石牯塘镇九州驿站度假区停车场内	19902844740	广东省	清远市	英德市	113.110478	24.406755	113.10489219775651	24.409432964065395	113.110478 24.406755	汽车服务	充电站	充电站
睿电新能源英德九州驿站充电站	汽车服务;充电站;充电站	011100	[]	[]	广东省	清远市	英德市	113.110785	24.407159	113.10519927460558	24.40983722012901	113.110785 24.407159	汽车服务	充电站	充电站
国家电网充电站	汽车服务;充电站;充电站	011100	连江大道连江花园西侧约30米	[]	广东省	清远市	阳山县	112.626498	24.469449	112.62142364056506	24.472494607381066	112.626498 24.469449	汽车服务	充电站	充电站
南方电网汽车充电站	汽车服务;充电站;充电站	011100	连江大道与韩愈路交叉口东约100米	[]	广东省	清远市	阳山县	112.626432	24.469469	112.62135773144884	24.472514685260844	112.626432 24.469469	汽车服务	充电站	充电站
阳山南服务区北行充电站	汽车服务;充电站;充电站	011100	阳山南服务区与G0421许广高速交叉口北400米	[]	广东省	清远市	阳山县	112.699059	24.234592	112.69385106771236	24.23744817784296	112.699059 24.234592	汽车服务	充电站	充电站
英德市绿粤充电站	汽车服务;充电站;充电站	011100	金子山一号路北北江三号路东英洲工业园三耀礼品厂东面	4008288517	广东省	清远市	英德市	113.419381	24.205652	113.41378985662212	24.208267213815105	113.419381 24.205652	汽车服务	充电站	充电站
英德市盛华汽车充电站	汽车服务;充电站;充电站	011100	英城街道和平北路盛华大厦旁	4000610999	广东省	清远市	英德市	113.413196	24.191448	113.40760081020748	24.194053830314747	113.413196 24.191448	汽车服务	充电站	充电站
南方电网汽车充电站(阳山县政府站)	汽车服务;充电站;充电站	011100	阳城镇行政中心四路阳山县人民政府	[]	广东省	清远市	阳山县	112.640271	24.465411	112.63517446055477	24.46843750919004	112.640271 24.465411	汽车服务	充电站	充电站
阳山南服务区电动汽车充电站	汽车服务;充电站;充电站	011100	Ｇ０４２１许广高速与阳山南服务区交叉口西南约220米	[]	广东省	清远市	阳山县	112.698069	24.22914	112.69286342713744	24.231995786790808	112.698069 24.22914	汽车服务	充电站	充电站
睿电新能源英玖红汽车充电站	汽车服务;充电站;充电站	011100	英红镇英红工业园内英玖红主题酒店旁	[]	广东省	清远市	英德市	113.413343	24.302854	113.4077399149748	24.30549981883219	113.413343 24.302854	汽车服务	充电站	充电站
依威能源汽车充电站(碧桂园清远阳山江山八街)	汽车服务;充电站;充电站	011100	阳城镇东社区阳山大道389号碧桂园清远阳山江山八街	4001800910	广东省	清远市	阳山县	112.644498	24.46498	112.63939348009934	24.46799979388624	112.644498 24.46498	汽车服务	充电站	充电站
睿电新能源英德城北充电站	汽车服务;充电站;充电站	011100	马山公路与和平北路交叉口西北460米	[]	广东省	清远市	英德市	113.409793	24.218281	113.4041939290369	24.2208957133281	113.409793 24.218281	汽车服务	充电站	充电站
小桔充电汽车充电站(英德市顺景农庄充电站)	汽车服务;充电站;充电站	011100	顺景农庄	4000610999	广东省	清远市	英德市	112.920122	24.194611	112.91499860893911	24.19758291069453	112.920122 24.194611	汽车服务	充电站	充电站
广东交通集团汽车充电站(汕昆高速石灰铺西行)	汽车服务;充电站;充电站	011100	石灰铺镇G78汕昆高速石灰铺服务区	[]	广东省	清远市	英德市	113.187815	24.22615	113.1823540420428	24.228888999339432	113.187815 24.22615	汽车服务	充电站	充电站
汽车充电站(蔚来超充站清远奥园希尔顿)	汽车服务;充电站;充电站	011100	英德奥园希尔顿逸林度假酒店	[]	广东省	清远市	英德市	113.385997	24.308809	113.38039366833355	24.31145959467101	113.385997 24.308809	汽车服务	充电站	充电站
云快充汽车充电站(英德市绿粤充电站)	汽车服务;充电站;充电站	011100	金子山一号路宝通汽车城东面	[]	广东省	清远市	英德市	113.419539	24.205404	113.4139480291191	24.208019240822857	113.419539 24.205404	汽车服务	充电站	充电站
特斯拉充电站(倚峦风吕温泉度假酒店)	汽车服务;充电站;充电站	011100	仙湖温泉旅游度假区倚峦风吕温泉度假酒店门口停车场	0763-2606888	广东省	清远市	英德市	113.323629	24.339129	113.31812398971076	24.341883407826945	113.323629 24.339129	汽车服务	充电站	充电站
广东交通集团汽车充电站(汕昆高速石灰铺东行)(暂停营业)	汽车服务;充电站;充电站	011100	石灰铺镇G78汕昆高速石灰铺服务区	[]	广东省	清远市	英德市	113.187853	24.223798	113.18239227577848	24.22653619032157	113.187853 24.223798	汽车服务	充电站	充电站
星星充电汽车充电站(英德骏英广本充电桩)	汽车服务;充电站;充电站	011100	英城和平北路东北江三号路西	4008280768	广东省	清远市	英德市	113.414858	24.208337	113.40926277078349	24.21095022462441	113.414858 24.208337	汽车服务	充电站	充电站
广东天路汽车充电站(汕湛高速汤塘西行)	汽车服务;充电站;充电站	011100	S14汕湛高速与汤塘服务区交叉口西北660米	4000053636	广东省	清远市	佛冈县	113.557901	23.758445	113.55273032479803	23.76121513035257	113.557901 23.758445	汽车服务	充电站	充电站
汤塘服务区广东交通集团电动汽车充电站	汽车服务;充电站;充电站	011100	汤塘镇服务区	[]	广东省	清远市	佛冈县	113.558001	23.758509	113.55283054425952	23.761279322157133	113.558001 23.758509	汽车服务	充电站	充电站
广东交通集团汽车充电站(汕湛高速汤塘东行)	汽车服务;充电站;充电站	011100	汤塘镇服务区	[]	广东省	清远市	佛冈县	113.55759	23.756704	113.55241874372716	23.75947311186661	113.55759 23.756704	汽车服务	充电站	充电站
南方电网汽车充电站	汽车服务;充电站;充电站	011100	汤塘镇106国道荣铺工业园	[]	广东省	清远市	佛冈县	113.485069	23.739455	113.47966802477856	23.74202635781636	113.485069 23.739455	汽车服务	充电站	充电站
特来电充电站(佛冈旅游服务区)	汽车服务;充电站;充电站	011100	G106(京广线)	13926102628	广东省	清远市	佛冈县	113.513457	23.840067	113.50814858597973	23.84275349349992	113.513457 23.840067	汽车服务	充电站	充电站
佛冈停车区南方电网电动汽车充电站	汽车服务;充电站;充电站	011100	清远市京港澳高速佛冈服务区(北行)公共充电站	[]	广东省	清远市	佛冈县	113.51636	23.837417	113.51106181119208	23.84011107728258	113.51636 23.837417	汽车服务	充电站	充电站
汽车充电站(清远吉多宝)	汽车服务;充电站;充电站	011100	106国道吉多宝制罐厂	4006872880	广东省	清远市	佛冈县	113.456503	23.740543	113.45101377068116	23.74303907913809	113.456503 23.740543	汽车服务	充电站	充电站
佛冈服务区南方电网电动汽车充电站	汽车服务;充电站;充电站	011100	京珠高速南行侧佛冈服务区停车场	[]	广东省	清远市	佛冈县	113.523572	23.845732	113.51829766823371	23.84844949883964	113.523572 23.845732	汽车服务	充电站	充电站
依威能源汽车充电站(碧桂园佛冈鸣泉谷7号楼)	汽车服务;充电站;充电站	011100	鸣泉谷二十八街7号楼碧桂园佛冈清泉城7号楼	4001800910	广东省	清远市	佛冈县	113.633842	23.849708	113.62870547800148	23.85251600016606	113.633842 23.849708	汽车服务	充电站	充电站
依威能源汽车充电站(碧桂园佛冈林泉谷1号楼)(内部专用)	汽车服务;充电站;充电站	011100	林泉谷十街1号楼碧桂园佛冈清泉城1号楼	4001800910	广东省	清远市	佛冈县	113.611726	23.858584	113.60660307136776	23.86141706213723	113.611726 23.858584	汽车服务	充电站	充电站
特斯拉充电站(佛冈碧桂园假日温泉酒店)	汽车服务;充电站;充电站	011100	羊角山旅游区碧桂园清泉城	[]	广东省	清远市	佛冈县	113.622591	23.856925	113.61746343370432	23.8597488210498	113.622591 23.856925	汽车服务	充电站	充电站
广东电网充电站(清远市佛冈供电局迳头营业厅)	汽车服务;充电站;充电站	011100	迳头镇大坡开发区374县道镇政府旁	[]	广东省	清远市	佛冈县	113.662193	23.98592	113.65700932382124	23.98873370826271	113.662193 23.98592	汽车服务	充电站	充电站
高岗服务区电动汽车充电站	汽车服务;充电站;充电站	011100	Ｇ４京港澳高速与高岗服务区交叉口北约260米	[]	广东省	清远市	佛冈县	113.607986	23.98022	113.60285537296195	23.98310231249076	113.607986 23.98022	汽车服务	充电站	充电站
高岗服务区电动汽车充电站	汽车服务;充电站;充电站	011100	Ｇ４京港澳高速与高岗服务区交叉口南约140米	[]	广东省	清远市	佛冈县	113.608166	23.97665	113.60303560342336	23.97953075812513	113.608166 23.97665	汽车服务	充电站	充电站
广东电网充电站(高岗营业厅)	汽车服务;充电站;充电站	011100	高岗镇高岗中学对面	[]	广东省	清远市	佛冈县	113.590288	24.019682	113.58514865557778	24.022581817529545	113.590288 24.019682	汽车服务	充电站	充电站
卓三新能源汽车	汽车服务;充电站;充电站	011100	G106(京广线)	[]	广东省	清远市	佛冈县	113.557802	23.864379	113.55262393585843	23.8671827739811	113.557802 23.864379	汽车服务	充电站	充电站
佛冈县永通充电站	汽车服务;充电站;充电站	011100	鑫源恒业电缆科技有限公司对面	0763-4279788	广东省	清远市	佛冈县	113.51526	23.86294	113.50995626462618	23.86563981222752	113.51526 23.86294	汽车服务	充电站	充电站
南方电网汽车充电站	汽车服务;充电站;充电站	011100	振兴路园山街3号	[]	广东省	清远市	佛冈县	113.534354	23.860565	113.5291132180796	23.86331652910913	113.534354 23.860565	汽车服务	充电站	充电站
小桔充电汽车充电站(清远-英德鎏明设计院站)	汽车服务;充电站;充电站	011100	广东鎏明文化艺术有限公司(英德分公司)	[]	广东省	清远市	英德市	113.722859	24.159579	113.71758701923254	24.162365759624937	113.722859 24.159579	汽车服务	充电站	充电站
佛冈县永通园山街充电站	汽车服务;充电站;充电站	011100	园山街佛冈振兴粤运汽车站西北侧	0763-4279788	广东省	清远市	佛冈县	113.53117	23.860294	113.5259193211673	23.86303721161499	113.53117 23.860294	汽车服务	充电站	充电站
卓越新能源汽车充电站	汽车服务;充电站;充电站	011100	奥园大桥正对面	18125995597	广东省	清远市	佛冈县	113.557747	23.864368	113.55256881302569	23.867171673760343	113.557747 23.864368	汽车服务	充电站	充电站
鱼湾服务区中国南方电网电动汽车充电站	汽车服务;充电站;充电站	011100	东华镇京珠高速鱼湾服务区南行	[]	广东省	清远市	英德市	113.662894	24.154348	113.65769771151106	24.15723084178013	113.662894 24.154348	汽车服务	充电站	充电站
鱼湾服务区南方电网电动充电站	汽车服务;充电站;充电站	011100	京珠高速鱼湾服务区北行	[]	广东省	清远市	英德市	113.664572	24.154145	113.65937310610552	24.15702459841355	113.664572 24.154145	汽车服务	充电站	充电站
清远-英德鎏明设计院汽车充电站	汽车服务;充电站;充电站	011100	[]	[]	广东省	清远市	英德市	113.723092	24.160158	113.71781985989048	24.16294476284307	113.723092 24.160158	汽车服务	充电站	充电站
广东电网充电站(石角供电所)	汽车服务;充电站;充电站	011100	石角镇106国道旁	[]	广东省	清远市	佛冈县	113.579767	23.867726	113.57462737924564	23.87055927607323	113.579767 23.867726	汽车服务	充电站	充电站
云快充汽车充电站(英德市青塘镇和盛新能源汽车充电)	汽车服务;充电站;充电站	011100	青塘镇G106国道英德交通警察大队青塘中队斜对面	4008288517	广东省	清远市	英德市	113.83326	24.184161	113.82815240797076	24.18704704242609	113.83326 24.184161	汽车服务	充电站	充电站
云快充汽车充电站(兆通汽车)	汽车服务;充电站;充电站	011100	浈阳东路与杨万里大道交叉口西140米	[]	广东省	清远市	英德市	113.433056	24.17363	113.42748515566136	24.17624737495044	113.433056 24.17363	汽车服务	充电站	充电站
星星充电汽车充电站(广连高速公路龙山服务区)	汽车服务;充电站;充电站	011100	振兴北路与沿江中路交叉口北500米	4008280768	广东省	清远市	佛冈县	113.532	23.879199	113.52675063997096	23.88195125124858	113.532 23.879199	汽车服务	充电站	充电站
特斯拉超级充电站(篁胜国际温泉花园酒店站)	汽车服务;充电站;充电站	011100	石角镇北园路	[]	广东省	清远市	佛冈县	113.529161	23.881352	113.52390249120651	23.884097563430885	113.529161 23.881352	汽车服务	充电站	充电站
小桔充电汽车充电站(清远+佛冈岸上渔民鱼庄充电站)	汽车服务;充电站;充电站	011100	岸上渔民	4000610999	广东省	清远市	佛冈县	113.52531	23.866038	113.52004002727551	23.868767509611875	113.52531 23.866038	汽车服务	充电站	充电站
小桔充电汽车充电站(英德-锦岸花园站)	汽车服务;充电站;充电站	011100	浈阳东路比亚迪4S店	4000610999	广东省	清远市	英德市	113.433039	24.173537	113.42746813421026	24.17615431464107	113.433039 24.173537	汽车服务	充电站	充电站
英德市东宝充电站	汽车服务;充电站;充电站	011100	东华镇东宝S252线西侧	13410507305	广东省	清远市	英德市	113.67399	24.244591	113.66877002632738	24.24748747855456	113.67399 24.244591	汽车服务	充电站	充电站
清远英德东华环园北路充电站	汽车服务;充电站;充电站	011100	３５８国道与５８２乡道交叉口西南约40米	4000610999	广东省	清远市	英德市	113.691745	24.26272	113.68649706189107	24.26559001602488	113.691745 24.26272	汽车服务	充电站	充电站
南方电网汽车充电站	汽车服务;充电站;充电站	011100	[]	[]	广东省	清远市	英德市	113.662996	24.22976	113.65779436826638	24.232671966669265	113.662996 24.22976	汽车服务	充电站	充电站
利民易充充电站	汽车服务;充电站;充电站	011100	望埠大街与商业街交叉口东南约120米	13714077797	广东省	清远市	英德市	113.47648	24.263646	113.4710136176936	24.26639125077004	113.47648 24.263646	汽车服务	充电站	充电站
东华服务区广东交通集团电动汽车充电站	汽车服务;充电站;充电站	011100		4000053636	广东省	清远市	英德市	113.629143	24.247581	113.62398387415917	24.250554124881287	113.629143 24.247581	汽车服务	充电站	充电站
广东交通集团汽车充电站(汕昆高速东华东行)	汽车服务;充电站;充电站	011100	东华镇东华服务区	[]	广东省	清远市	英德市	113.629506	24.245651	113.62434668621307	24.24862298834816	113.629506 24.245651	汽车服务	充电站	充电站
横石水服务区国家电网电动汽车充电站	汽车服务;充电站;充电站	011100	G4京港澳高速附近	[]	广东省	清远市	英德市	113.775239	24.408514	113.76997830892093	24.4113803420233	113.775239 24.408514	汽车服务	充电站	充电站
横石水服务区国家电网电动汽车充电站	汽车服务;充电站;充电站	011100	京港澳高速横石水服务区(北行)	[]	广东省	清远市	英德市	113.777374	24.408238	113.77211686217366	24.41110629841523	113.777374 24.408238	汽车服务	充电站	充电站
望埠停车区广东交通集团汽车充电站	汽车服务;充电站;充电站	011100	望埠镇G78汕昆高速石灰铺服务区	[]	广东省	清远市	英德市	113.465947	24.290966	113.46044567450572	24.293692351909968	113.465947 24.290966	汽车服务	充电站	充电站
乐广高速英红服务区电动汽车充电站	汽车服务;充电站;充电站	011100	[]	[]	广东省	清远市	英德市	113.433449	24.379031	113.42786408893384	24.381717987598726	113.433449 24.379031	汽车服务	充电站	充电站
广东交通集团汽车充电站(汕昆高速望埠西行)	汽车服务;充电站;充电站	011100	望埠镇望埠停车区	[]	广东省	清远市	英德市	113.468139	24.292098	113.46264421346888	24.29483037251713	113.468139 24.292098	汽车服务	充电站	充电站
广东交通集团英红服务区汽车充电站	汽车服务;充电站;充电站	011100	英红镇英红服务区	4000053636	广东省	清远市	英德市	113.433471	24.378958	113.4278861310276	24.38164499929159	113.433471 24.378958	汽车服务	充电站	充电站
广东天路汽车充电站(乐广高速英红南行)	汽车服务;充电站;充电站	011100	英红镇英红服务区	4000053636	广东省	清远市	英德市	113.434019	24.378821	113.42843506604758	24.38150873154648	113.434019 24.378821	汽车服务	充电站	充电站
英红服务区广东交通集团电动汽车充电站	汽车服务;充电站;充电站	011100	英红镇英红服务区	4000053636	广东省	清远市	英德市	113.435193	24.375581	113.42961132935906	24.378269576775864	113.435193 24.375581	汽车服务	充电站	充电站
