name	type	typecode	address	tel	pname	cityname	adname	gcj02_lon	gcj02_lat	wgs84_lon	wgs84_lat	合并坐标	大类	中类	小类
富逸花园裕富通汽车充电站	汽车服务;充电站;充电站	011100	珠峰大道与764县道交叉口东北140米	15916218621	广东省	珠海市	斗门区	113.165404	22.143552	113.16004268158412	22.146245014221464	113.165404 22.143552	汽车服务	充电站	充电站
新能源汽车充电站	汽车服务;充电站;充电站	011100	平沙镇福泰花园10栋2单元极兔速递代理点	[]	广东省	珠海市	金湾区	113.18065	22.095898	113.17531999966272	22.09860015647911	113.18065 22.095898	汽车服务	充电站	充电站
驿充电充电站(高栏国码有限公司)	汽车服务;充电站;充电站	011100	南水镇珠海高栏港国际货柜码头停车场大院内	[]	广东省	珠海市	金湾区	113.237887	21.936672	113.23263941800676	21.939375885919187	113.237887 21.936672	汽车服务	充电站	充电站
电动汽车充电站	汽车服务;充电站;充电站	011100	临港一路与环港西路交叉口南520米	[]	广东省	珠海市	金湾区	113.225928	21.918299	113.22067442312418	21.92098623109356	113.225928 21.918299	汽车服务	充电站	充电站
驿充电汽车充电站(珠海高栏港货柜码头停车场免停车费)	汽车服务;充电站;充电站	011100	南水镇环岛西路高栏港国际货柜码头停车场大院内	4008129338	广东省	珠海市	金湾区	113.237653	21.936784	113.2324053219446	21.939487832742888	113.237653 21.936784	汽车服务	充电站	充电站
汇华物业安检中心汽车充电站	汽车服务;充电站;充电站	011100	环港西路高栏石化仓储区安检中心停车场	[]	广东省	珠海市	金湾区	113.226037	21.918188	113.22078351908198	21.92087527366896	113.226037 21.918188	汽车服务	充电站	充电站
珠海驿联汽车充电站(珠海高栏港货柜码头停车场免停车费)	汽车服务;充电站;充电站	011100	高栏港国际货柜码头停车场大院内	4008129338	广东省	珠海市	金湾区	113.237913	21.936736	113.23266542365748	21.93943992791076	113.237913 21.936736	汽车服务	充电站	充电站
小飞充电汽车充电站(中航通飞)	汽车服务;充电站;充电站	011100	航空纵一路中航通飞华南飞机工业有限公司	18376026705	广东省	珠海市	金湾区	113.37225	22.00417	113.36681772034004	22.00674031952884	113.37225 22.00417	汽车服务	充电站	充电站
珠海银积科技南水充电站	汽车服务;充电站;充电站	011100	X582(南港路)珠海银积科技(南水充电站)	13922936902	广东省	珠海市	金湾区	113.22391	22.019866	113.2186481892388	22.02259913186308	113.22391 22.019866	汽车服务	充电站	充电站
汇华物业囗岸大厦汽车充电站	汽车服务;充电站;充电站	011100	高栏港大道口岸大厦后面	[]	广东省	珠海市	金湾区	113.208584	21.973985	113.20330777783732	21.976678680474222	113.208584 21.973985	汽车服务	充电站	充电站
鹏辉能源汽车充电站(平沙连湾工业区)	汽车服务;充电站;充电站	011100	日泉湾花园临珠海大道	4008935718	广东省	珠海市	金湾区	113.245683	22.065312	113.24042890969535	22.068077843357084	113.245683 22.065312	汽车服务	充电站	充电站
宝马充电站(宝马站荔湾区教育研发中心)	汽车服务;充电站;充电站	011100	鸿雁路1号	[]	广东省	珠海市	金湾区	113.227307	22.082647	113.22204396554191	22.08541129697184	113.227307 22.082647	汽车服务	充电站	充电站
小飞充电汽车充电站(三润集团)	汽车服务;充电站;充电站	011100	红旗镇青年路三润混凝土公司	13726272673	广东省	珠海市	金湾区	113.266105	22.099368	113.26084195345908	22.10214395654686	113.266105 22.099368	汽车服务	充电站	充电站
蔚景云充电站(新堂商业广场站)	汽车服务;充电站;充电站	011100	井岸镇新堂路新堂城市商业广场	4008935718	广东省	珠海市	斗门区	113.275945	22.167595	113.27066862296094	22.17039070097425	113.275945 22.167595	汽车服务	充电站	充电站
蔚景云汽车充电站(车港兴汽车)	汽车服务;充电站;充电站	011100	井岸镇鸡咀路	[]	广东省	珠海市	斗门区	113.275496	22.158886	113.27022066867605	22.16167881051553	113.275496 22.158886	汽车服务	充电站	充电站
电动汽车充电站	汽车服务;充电站;充电站	011100	[]	[]	广东省	珠海市	斗门区	113.286409	22.148635	113.28112074073898	22.151411734536826	113.286409 22.148635	汽车服务	充电站	充电站
蔚景汽车充电站(盛客购物广场)	汽车服务;充电站;充电站	011100	井岸镇新青科技工业园内休闲广场东侧	4008935718	广东省	珠海市	斗门区	113.281125	22.171262	113.27584233242156	22.17405372099176	113.281125 22.171262	汽车服务	充电站	充电站
鹏辉能源汽车充电站(新青五路)	汽车服务;充电站;充电站	011100	新青五路与欣荣路交叉口西北	4008935718	广东省	珠海市	斗门区	113.291606	22.16423	113.28630899124812	22.16700576106343	113.291606 22.16423	汽车服务	充电站	充电站
依威能源汽车充电站(腾峰豪苑宁海优家)	汽车服务;充电站;充电站	011100	井岸镇新堂路34号	4001800910	广东省	珠海市	斗门区	113.287495	22.172549	113.2822036364879	22.175333482621387	113.287495 22.172549	汽车服务	充电站	充电站
中国南方电网电动汽车充电站	汽车服务;充电站;充电站	011100	珠峰大道珠海理工(斗门校区)西北侧约150米	[]	广东省	珠海市	斗门区	113.297835	22.165107	113.29252773066398	22.167873808927315	113.297835 22.165107	汽车服务	充电站	充电站
格力钛充电站	汽车服务;充电站;充电站	011100	[]	[]	广东省	珠海市	金湾区	113.368707	22.073856	113.3632745631676	22.07646222959742	113.368707 22.073856	汽车服务	充电站	充电站
蔚景云充电站(新湛松饭店站)	汽车服务;充电站;充电站	011100	三灶镇金岛路159号	4008935718	广东省	珠海市	金湾区	113.37705	22.0637	113.37160854888523	22.066292196965183	113.37705 22.0637	汽车服务	充电站	充电站
中国南方电网汽车充电站	汽车服务;充电站;充电站	011100	金海岸大道东	[]	广东省	珠海市	金湾区	113.371614	22.060332	113.36617879451278	22.06292867082135	113.371614 22.060332	汽车服务	充电站	充电站
依威能源汽车充电站(金海华府)	汽车服务;充电站;充电站	011100	三灶镇金岛路114号	4001800910	广东省	珠海市	金湾区	113.37921	22.067006	113.37376624957088	22.06959756826272	113.37921 22.067006	汽车服务	充电站	充电站
小飞充电汽车充电站(银积东咀)	汽车服务;充电站;充电站	011100	虹阳路13号体验店	13411545956	广东省	珠海市	金湾区	113.383615	22.076602	113.3781669541076	22.07919404290893	113.383615 22.076602	汽车服务	充电站	充电站
BP快速汽车充电站(珠海三灶泰锋电器城)	汽车服务;充电站;充电站	011100	金海岸大道东862号	[]	广东省	珠海市	金湾区	113.360383	22.056495	113.35496368538271	22.0591051477751	113.360383 22.056495	汽车服务	充电站	充电站
小桔充电汽车充电站(BP快速充电站珠海三灶泰锋电器城)	汽车服务;充电站;充电站	011100	泰锋电器(三灶店)	4000610999	广东省	珠海市	金湾区	113.360485	22.056515	113.35506552478094	22.059125003428235	113.360485 22.056515	汽车服务	充电站	充电站
金碧苑充电站	汽车服务;充电站;充电站	011100	虹阳路金碧苑	13726272673	广东省	珠海市	金湾区	113.392437	22.065661	113.38698483141197	22.068242979061143	113.392437 22.065661	汽车服务	充电站	充电站
蔚景云充电站(凯豪酒店站)	汽车服务;充电站;充电站	011100	三灶镇金海岸大道西18号	4008935718	广东省	珠海市	金湾区	113.35049	22.049575	113.34508783650608	22.05219801243193	113.35049 22.049575	汽车服务	充电站	充电站
依威能源汽车充电站(长盈花园)	汽车服务;充电站;充电站	011100	三灶镇华阳路1号	4001800910	广东省	珠海市	金湾区	113.396065	22.074087	113.3906113039534	22.0766714516466	113.396065 22.074087	汽车服务	充电站	充电站
小飞充电汽车充电站(万科城市花园5栋地下停车场充电桩)	汽车服务;充电站;充电站	011100	万科城市花园	18923368320	广东省	珠海市	金湾区	113.390577	22.069759	113.38512529491943	22.072343636248952	113.390577 22.069759	汽车服务	充电站	充电站
鹏辉能源汽车充电站(珠海市棠安驾校)	汽车服务;充电站;充电站	011100	金海岸大道西86号	4008935718	广东省	珠海市	金湾区	113.35185	22.053327	113.34644516182424	22.05594938478717	113.35185 22.053327	汽车服务	充电站	充电站
安博充电站	汽车服务;充电站;充电站	011100	雄业路爱立方幼儿园东南侧约180米	[]	广东省	珠海市	金湾区	113.357235	22.044497	113.3518215256133	22.04710660956127	113.357235 22.044497	汽车服务	充电站	充电站
蔚景汽车充电站(鑫桩-三灶唐人街便民)	汽车服务;充电站;充电站	011100	三灶镇银柜量贩式KTV	13226000158	广东省	珠海市	金湾区	113.347304	22.051924	113.34190751528114	22.054553606925587	113.347304 22.051924	汽车服务	充电站	充电站
蔚景云充电站(珠海市棠安驾校站)	汽车服务;充电站;充电站	011100	金海岸大道西86号	4008935718	广东省	珠海市	金湾区	113.345346	22.047668	113.33995346769784	22.05029917476312	113.345346 22.047668	汽车服务	充电站	充电站
蔚景汽车充电站(鑫桩-安博新能源)	汽车服务;充电站;充电站	011100	三灶镇雄业路2号安博汽车充电站	13226000158	广东省	珠海市	金湾区	113.357213	22.044441	113.35179956551104	22.04705061897877	113.357213 22.044441	汽车服务	充电站	充电站
驿充电新能源汽车充电站(珠海棠安新能源)	汽车服务;充电站;充电站	011100	三灶镇琴石路	4008129338	广东省	珠海市	金湾区	113.364448	22.045149	113.35902331302778	22.047748147924374	113.364448 22.045149	汽车服务	充电站	充电站
万城万充珠海格林春晓汽车充电站	汽车服务;充电站;充电站	011100	机场北路水泊围格林春晓花园地面停车场	4008083392	广东省	珠海市	金湾区	113.334669	22.101921	113.32929386973044	22.104595668131697	113.334669 22.101921	汽车服务	充电站	充电站
鹏辉能源汽车充电站(金列圣商业广场)	汽车服务;充电站;充电站	011100	金列圣新村	4008935718	广东省	珠海市	金湾区	113.343653	22.05031	113.33826352126724	22.052945415868628	113.343653 22.05031	汽车服务	充电站	充电站
电动汽车充电站	汽车服务;充电站;充电站	011100	X590草堂农贸市场(潮雲肠粉店)	[]	广东省	珠海市	金湾区	113.391533	22.043535	113.3860826246956	22.04610747200028	113.391533 22.043535	汽车服务	充电站	充电站
万城万充汽车充电站(金湾区三灶粮仓)	汽车服务;充电站;充电站	011100	三灶镇伟民路133号(谭家围停车场内)	13160652228	广东省	珠海市	金湾区	113.34852	22.046027	113.34312165249456	22.04865181998683	113.34852 22.046027	汽车服务	充电站	充电站
金璨鑫智慧能源充电站(鑫桩-安博新能源站)	汽车服务;充电站;充电站	011100	三灶镇雄业路2号	[]	广东省	珠海市	金湾区	113.357343	22.044219	113.35192936615022	22.04682831367938	113.357343 22.044219	汽车服务	充电站	充电站
蔚景云充电站(翰林金寓站)	汽车服务;充电站;充电站	011100	三灶镇百川路翰林金寓	4008935718	广东省	珠海市	金湾区	113.386663	22.038448	113.38121540551435	22.04102086102667	113.386663 22.038448	汽车服务	充电站	充电站
蔚景汽车充电站(鑫桩-三灶镇超田牛庄)	汽车服务;充电站;充电站	011100	三灶镇安基路(超田牛庄)	13226000158	广东省	珠海市	金湾区	113.360238	22.042017	113.35481986145967	22.04462085369557	113.360238 22.042017	汽车服务	充电站	充电站
依威能源汽车充电站(金地格林春晓)	汽车服务;充电站;充电站	011100	红旗镇机场北路金地·格林春晓二期162号金地格林春晓	4001800910	广东省	珠海市	金湾区	113.333239	22.097559	113.32786704313068	22.10023452660281	113.333239 22.097559	汽车服务	充电站	充电站
金璨鑫智慧能源充电站(鑫桩-三灶湘福超田牛庄站)	汽车服务;充电站;充电站	011100	三灶镇聚源华府	[]	广东省	珠海市	金湾区	113.360229	22.042008	113.35481087615295	22.04461186318989	113.360229 22.042008	汽车服务	充电站	充电站
汽车充电站(蔚来目充站珠海金湾华发商都)	汽车服务;充电站;充电站	011100	金湾华发商都	[]	广东省	珠海市	金湾区	113.362136	22.113346	113.3567102550624	22.11597813257149	113.362136 22.113346	汽车服务	充电站	充电站
小可乐充电站(汤臣倍健)	汽车服务;充电站;充电站	011100	星汉路汤臣倍健2号门	[]	广东省	珠海市	金湾区	113.329772	22.040867	113.32441078459188	22.04352415730457	113.329772 22.040867	汽车服务	充电站	充电站
新能源汽车充电站	汽车服务;充电站;充电站	011100	定湾三路与胜利路交叉路口往东南约280米	[]	广东省	珠海市	金湾区	113.323117	22.047693	113.31776892273156	22.050365927656525	113.323117 22.047693	汽车服务	充电站	充电站
银积科技充电站	汽车服务;充电站;充电站	011100	定湾三路银积科技-充电站	[]	广东省	珠海市	金湾区	113.322956	22.047582	113.31760825796457	22.050255183322605	113.322956 22.047582	汽车服务	充电站	充电站
鹏辉能源汽车充电站(翰林金寓南)	汽车服务;充电站;充电站	011100	三灶镇百川路翰林金寓	4008935718	广东省	珠海市	金湾区	113.392579	22.044314	113.38712818722207	22.04688637108424	113.392579 22.044314	汽车服务	充电站	充电站
鹏辉能源充电站(银兴山庄)	汽车服务;充电站;充电站	011100	安基东路81号附近	[]	广东省	珠海市	金湾区	113.399359	22.039222	113.3939072525164	22.04179024347386	113.399359 22.039222	汽车服务	充电站	充电站
汽车充电站(珠海银积科技园)	汽车服务;充电站;充电站	011100	定湾三路新能源汽车充电站	13726272673	广东省	珠海市	金湾区	113.322006	22.046931	113.3166602340727	22.04960569135176	113.322006 22.046931	汽车服务	充电站	充电站
蔚景云充电站(珠海国际健康港站)	汽车服务;充电站;充电站	011100	三灶镇机场西路628号	4008935718	广东省	珠海市	金湾区	113.323511	22.039582	113.31816264706391	22.04225051199876	113.323511 22.039582	汽车服务	充电站	充电站
小桔充电站(金湾智造大街加速器)	汽车服务;充电站;充电站	011100	珠海正川塑胶制品公司	4000610999	广东省	珠海市	金湾区	113.324678	22.112646	113.31932250875396	22.115344201339504	113.324678 22.112646	汽车服务	充电站	充电站
鹏辉能源汽车充电站(草堂湾驿站)	汽车服务;充电站;充电站	011100	广东省珠海市金湾区三灶镇金海东路	[]	广东省	珠海市	金湾区	113.403273	22.039593	113.39782149217083	22.042161261405127	113.403273 22.039593	汽车服务	充电站	充电站
依威能源汽车充电站(诚讳丽苑)	汽车服务;充电站;充电站	011100	湖心路与白藤二路交界处诚讳丽苑	4001800910	广东省	珠海市	斗门区	113.355837	22.148523	113.3504190252519	22.151179034963707	113.355837 22.148523	汽车服务	充电站	充电站
易启充金湾海景中心充电站	汽车服务;充电站;充电站	011100	金湾路98号并宏大厦海景中心地面停车场	18125233770	广东省	珠海市	金湾区	113.366973	22.136712	113.36153874632336	22.13934692838035	113.366973 22.136712	汽车服务	充电站	充电站
易启充汽车充电站(易启充-金湾海景中心)	汽车服务;充电站;充电站	011100	红旗镇并宏大厦靠金湾路侧地面停车场	18125233770	广东省	珠海市	金湾区	113.36667	22.136603	113.36123616878848	22.13923828840129	113.36667 22.136603	汽车服务	充电站	充电站
汽车充电站(易启充-海景中心二期)	汽车服务;充电站;充电站	011100	红旗镇并宏大厦	18125233770	广东省	珠海市	金湾区	113.366559	22.136073	113.36112535656608	22.13870822455952	113.366559 22.136073	汽车服务	充电站	充电站
怡景豪庭充电站	汽车服务;充电站;充电站	011100	金铭东路与金城路交叉口东北约140米	[]	广东省	珠海市	金湾区	113.367342	22.128888	113.36190775982624	22.131519285665	113.367342 22.128888	汽车服务	充电站	充电站
银积科技-充电站(怡景豪庭)	汽车服务;充电站;充电站	011100	金铭东路金湾怡景豪庭	18923368320	广东省	珠海市	金湾区	113.367316	22.128905	113.36188179391162	22.13153632682249	113.367316 22.128905	汽车服务	充电站	充电站
汽车充电站(红旗镇中心)	汽车服务;充电站;充电站	011100	番怡路金支点建材有限公司	[]	广东省	珠海市	金湾区	113.343314	22.131174	113.33791988088323	22.133844702900927	113.343314 22.131174	汽车服务	充电站	充电站
依威能源汽车充电站(荷塘物语)	汽车服务;充电站;充电站	011100	红旗镇东珠路159号2幢	4001800910	广东省	珠海市	金湾区	113.344664	22.131703	113.33926726163928	22.13437147394845	113.344664 22.131703	汽车服务	充电站	充电站
哈啰出行汽车充电站	汽车服务;充电站;充电站	011100	番怡路与虹晖路交叉口东南80米	[]	广东省	珠海市	金湾区	113.33663	22.125519	113.33124938885864	22.12819978348609	113.33663 22.125519	汽车服务	充电站	充电站
驿充电充电站(珠海市桃园假日酒店)	汽车服务;充电站;充电站	011100	湖滨二路白藤湖湖滨一区17号	4008129338	广东省	珠海市	斗门区	113.330015	22.182819	113.3246440211892	22.185534513128555	113.330015 22.182819	汽车服务	充电站	充电站
汽车充电站(红旗镇中心)	汽车服务;充电站;充电站	011100	番怡路与虹晖路交口处	13726272673	广东省	珠海市	金湾区	113.3365	22.125715	113.33111963616784	22.128396107977903	113.3365 22.125715	汽车服务	充电站	充电站
驿充电充电站(智造大街)	汽车服务;充电站;充电站	011100	红旗镇珠海大道珠海豪门雕塑开发公司东北90米	4008129338	广东省	珠海市	金湾区	113.340566	22.123663	113.3351777116226	22.12633568404588	113.340566 22.123663	汽车服务	充电站	充电站
依威能源汽车充电站(中珠上郡4期)	汽车服务;充电站;充电站	011100	红旗镇双湖北路154号	4001800910	广东省	珠海市	金湾区	113.33874	22.130794	113.33335484296984	22.13347297634028	113.33874 22.130794	汽车服务	充电站	充电站
南方电网汽车充电站	汽车服务;充电站;充电站	011100	三板路与顺达路交叉口西南约140米	[]	广东省	珠海市	金湾区	113.329634	22.127144	113.3242674393394	22.129838719661457	113.329634 22.127144	汽车服务	充电站	充电站
广东电网充电站(珠海市金湾供电局红旗营业厅)	汽车服务;充电站;充电站	011100	南翔路与金荷路交叉口东南约140米	[]	广东省	珠海市	金湾区	113.345317	22.128473	113.33991923315472	22.13113899224408	113.345317 22.128473	汽车服务	充电站	充电站
依威能源汽车充电站(中珠上郡3期)	汽车服务;充电站;充电站	011100	红旗镇永泰路42号	4001800910	广东省	珠海市	金湾区	113.33626	22.130044	113.33087983355202	22.13272731996097	113.33626 22.130044	汽车服务	充电站	充电站
广东电网充电站(井岸镇中国南方电网白藤湖营业厅)	汽车服务;充电站;充电站	011100	白藤湖湖中村一巷2号	[]	广东省	珠海市	斗门区	113.3295	22.178301	113.32413036763546	22.181015841043774	113.3295 22.178301	汽车服务	充电站	充电站
蔚景云充电站(指点科技园站)	汽车服务;充电站;充电站	011100	红旗镇金荷路576号指点科技园	4008935718	广东省	珠海市	金湾区	113.334935	22.121768	113.32955803658092	22.124450443494705	113.334935 22.121768	汽车服务	充电站	充电站
蔚景汽车充电站(鑫诺桩企红旗镇中心)	汽车服务;充电站;充电站	011100	番怡路与虹晖路交叉口南约100米	[]	广东省	珠海市	金湾区	113.336554	22.125275	113.3311735568825	22.1279558267738	113.336554 22.125275	汽车服务	充电站	充电站
蔚景汽车充电站(鑫桩-红旗中心交流慢充站)	汽车服务;充电站;充电站	011100	红旗镇番怡路与虹晖路交口	13226000158	广东省	珠海市	金湾区	113.336401	22.126144	113.33102080629794	22.12882546925768	113.336401 22.126144	汽车服务	充电站	充电站
依威能源汽车充电站(金地格林泊乐)	汽车服务;充电站;充电站	011100	白蕉镇禾益围虹桥三路胜利西岸金地格林泊乐	4001800910	广东省	珠海市	斗门区	113.336197	22.201052	113.3308123071407	22.20376227795764	113.336197 22.201052	汽车服务	充电站	充电站
依威能源汽车充电站(碧海雅苑)	汽车服务;充电站;充电站	011100	白蕉镇桥湖南路618-648号	4001800910	广东省	珠海市	斗门区	113.320784	22.19364	113.31543115517168	22.196376972743312	113.320784 22.19364	汽车服务	充电站	充电站
蔚景汽车充电站(鑫桩-斗门镇中润投资)	汽车服务;充电站;充电站	011100	斗门镇黄杨大道中润投资有限公司园区内	13226000158	广东省	珠海市	斗门区	113.180275	22.211453	113.1749367992992	22.21419909859415	113.180275 22.211453	汽车服务	充电站	充电站
南方电网汽车充电站	汽车服务;充电站;充电站	011100	白蕉路4140号	[]	广东省	珠海市	斗门区	113.305618	22.230478	113.30029252655623	22.233254951913104	113.305618 22.230478	汽车服务	充电站	充电站
蔚景汽车充电站(华凯)	汽车服务;充电站;充电站	011100	井岸镇桥北三路	[]	广东省	珠海市	斗门区	113.295093	22.219992	113.28978677153636	22.22278252162732	113.295093 22.219992	汽车服务	充电站	充电站
万城万充汽车充电站(旭日华府)	汽车服务;充电站;充电站	011100	白蕉镇白蕉路3968号	4008083392	广东省	珠海市	斗门区	113.312331	22.227542	113.30699285401084	22.230306151440736	113.312331 22.227542	汽车服务	充电站	充电站
中国南方电网电动汽车充电站	汽车服务;充电站;充电站	011100	井岸镇连兴二路宁海世纪城三期停车场	[]	广东省	珠海市	斗门区	113.294728	22.226317	113.28942196024408	22.229110139046217	113.294728 22.226317	汽车服务	充电站	充电站
万城万充汽车充电站(旭日华府)	汽车服务;充电站;充电站	011100	白蕉镇白蕉路3968号	4008083392	广东省	珠海市	斗门区	113.311571	22.227793	113.3062343248112	22.23055860621557	113.311571 22.227793	汽车服务	充电站	充电站
动车集中充电站	汽车服务;充电站;充电站	011100	新民路(南海大厦)	[]	广东省	珠海市	斗门区	113.291199	22.209335	113.28589969557272	22.212127602469494	113.291199 22.209335	汽车服务	充电站	充电站
电动汽车充电站	汽车服务;充电站;充电站	011100	上海大众汽车4S店旁	[]	广东省	珠海市	斗门区	113.326094	22.218019	113.32072872803828	22.220754268391648	113.326094 22.218019	汽车服务	充电站	充电站
蔚景云充电站(金碧丽江东第花园站)	汽车服务;充电站;充电站	011100	金源路与金坑西路交叉口西南约80米	4008935718	广东省	珠海市	斗门区	113.306793	22.220567	113.30146596966104	22.223338702951235	113.306793 22.220567	汽车服务	充电站	充电站
腾势充电站(金岸酒店站)	汽车服务;充电站;充电站	011100	白蕉镇金岸酒店(金田一路)	[]	广东省	珠海市	斗门区	113.298523	22.215171	113.29321129215914	22.21795463530353	113.298523 22.215171	汽车服务	充电站	充电站
银积科技汽车充电站	汽车服务;充电站;充电站	011100	虹桥六路得力羽毛球馆	18923368320	广东省	珠海市	斗门区	113.322933	22.213175	113.31757450320808	22.21591466379456	113.322933 22.213175	汽车服务	充电站	充电站
广东电网充电站(珠海市北澳)	汽车服务;充电站;充电站	011100	龙井东路北澳公交站	[]	广东省	珠海市	斗门区	113.29135	22.219974	113.28604976971496	22.222769960864685	113.29135 22.219974	汽车服务	充电站	充电站
驿充电充电站(斗门区政府)	汽车服务;充电站;充电站	011100	政朝福路139号	4008129338	广东省	珠海市	斗门区	113.296413	22.20937	113.29110526533998	22.21215495599644	113.296413 22.20937	汽车服务	充电站	充电站
依威能源汽车充电站(宁海世纪城1期)	汽车服务;充电站;充电站	011100	白蕉镇连兴二路20号	4001800910	广东省	珠海市	斗门区	113.296968	22.224808	113.29165832474236	22.22759724803904	113.296968 22.224808	汽车服务	充电站	充电站
依威能源汽车充电站(宁海尚峰)	汽车服务;充电站;充电站	011100	井岸镇朝江路50号	4001800910	广东省	珠海市	斗门区	113.29195	22.221418	113.28664873863715	22.22421358791663	113.29195 22.221418	汽车服务	充电站	充电站
鹏辉能源汽车充电站(金岸酒店)	汽车服务;充电站;充电站	011100	白蕉镇金岸酒店(金田一路)	4008935718	广东省	珠海市	斗门区	113.304974	22.221315	113.29965032190027	22.2240900764634	113.304974 22.221315	汽车服务	充电站	充电站
蔚景云充电站(佳多利酒店站)	汽车服务;充电站;充电站	011100	井岸镇滨江路76号佳多利酒店	4008935718	广东省	珠海市	斗门区	113.302575	22.206217	113.29725670261112	22.20899103261393	113.302575 22.206217	汽车服务	充电站	充电站
依威能源汽车充电站(春泽名苑)	汽车服务;充电站;充电站	011100	井岸镇桥北四路39号	4001800910	广东省	珠海市	斗门区	113.292901	22.219613	113.28759835135412	22.222406627338845	113.292901 22.219613	汽车服务	充电站	充电站
依威能源汽车充电站(宁海世纪城2期)	汽车服务;充电站;充电站	011100	白蕉镇连兴一路2号	4001800910	广东省	珠海市	斗门区	113.299594	22.221175	113.29428003840864	22.223958927963665	113.299594 22.221175	汽车服务	充电站	充电站
银积科技金艺丰金店汽车充电站	汽车服务;充电站;充电站	011100	白蕉镇桥湖北路292号	18923368320	广东省	珠海市	斗门区	113.30661	22.21501	113.30128367664128	22.217780171531444	113.30661 22.21501	汽车服务	充电站	充电站
万城万充汽车充电站(世纪斗门快速)	汽车服务;充电站;充电站	011100	白蕉镇新科一路14号(景义汽车城后检测站内)	18898383815	广东省	珠海市	斗门区	113.324259	22.217122	113.31889753796376	22.21986046617519	113.324259 22.217122	汽车服务	充电站	充电站
万城万充汽车充电站(大信·新都汇斗门店)	汽车服务;充电站;充电站	011100	井岸镇中兴南路332号	4008083392	广东省	珠海市	斗门区	113.297239	22.215889	113.29192944559163	22.21867488390813	113.297239 22.215889	汽车服务	充电站	充电站
鹏辉能源汽车充电站(佳多利酒店)	汽车服务;充电站;充电站	011100	井岸镇滨江路76号佳多利酒店	4008935718	广东省	珠海市	斗门区	113.302608	22.206023	113.29728965548551	22.20879691115976	113.302608 22.206023	汽车服务	充电站	充电站
小桔充电汽车充电站(珠海斗门双骏工业园充电站)	汽车服务;充电站;充电站	011100	新科二路26号	[]	广东省	珠海市	斗门区	113.323449	22.20541	113.31808995852464	22.208146038686795	113.323449 22.20541	汽车服务	充电站	充电站
万马爱充汽车充电站(中山市随易充悦云)	汽车服务;充电站;充电站	011100	工业大道中42号之二悦云创意园	4000850006	广东省	珠海市	斗门区	113.26164	22.352519	113.2563634243102	22.35537775404533	113.26164 22.352519	汽车服务	充电站	充电站
安充电汽车充电站(佳兆业御金山)	汽车服务;充电站;充电站	011100	斗门镇佳兆业·御金山(贝贝瑜伽馆)	[]	广东省	珠海市	斗门区	113.219401	22.216296	113.21412216780944	22.21910468839045	113.219401 22.216296	汽车服务	充电站	充电站
广东电网充电站(珠海市斗门供电局莲洲营业厅)	汽车服务;充电站;充电站	011100	莲洲镇横山泰来路305号	[]	广东省	珠海市	斗门区	113.208082	22.314556	113.20278306211092	22.317378350813147	113.208082 22.314556	汽车服务	充电站	充电站
顺易充汽车充电站(珠海市斗门区莲洲镇莲洲卫院公共)	汽车服务;充电站;充电站	011100	横山街与泰来路交叉口西约140米	[]	广东省	珠海市	斗门区	113.205749	22.317711	113.20044657997548	22.3205307125476	113.205749 22.317711	汽车服务	充电站	充电站
顺易充汽车充电站(珠海市斗门区斗门镇御温泉公共)	汽车服务;充电站;充电站	011100	582县道与宋城大道交叉口西北540米	[]	广东省	珠海市	斗门区	113.195496	22.246007	113.19018235552122	22.24879145230174	113.195496 22.246007	汽车服务	充电站	充电站
斗门服务区广东交通集团电动汽车充电站	汽车服务;充电站;充电站	011100	斗门镇斗门服务区内	4000053636	广东省	珠海市	斗门区	113.202395	22.203018	113.19709509252142	22.20579958191925	113.202395 22.203018	汽车服务	充电站	充电站
广东天路汽车充电站(西部沿海高速斗门西行)	汽车服务;充电站;充电站	011100	斗门镇斗门服务区	4000053636	广东省	珠海市	斗门区	113.201799	22.204652	113.19649808070884	22.207433222605	113.201799 22.204652	汽车服务	充电站	充电站
斗门服务区广东交通集团电动汽车充电站	汽车服务;充电站;充电站	011100	斗门镇斗门服务区	[]	广东省	珠海市	斗门区	113.201883	22.204713	113.1965822048944	22.20749437439773	113.201883 22.204713	汽车服务	充电站	充电站
广东天路汽车充电站(西部沿海高速斗门东行)	汽车服务;充电站;充电站	011100	斗门镇斗门服务区	[]	广东省	珠海市	斗门区	113.202396	22.20283	113.19709610623327	22.205611518298088	113.202396 22.20283	汽车服务	充电站	充电站
东安村委汽车充电站	汽车服务;充电站;充电站	011100	河北路与安江路交叉口东北220米	[]	广东省	珠海市	斗门区	113.23476	22.38022	113.22948241801744	22.383081706404408	113.23476 22.38022	汽车服务	充电站	充电站
珠海长隆横琴湾酒店充电站	汽车服务;充电站;充电站	011100	[]	[]	广东省	珠海市	香洲区	113.546611	22.099639	113.54152131281458	22.10254553360224	113.546611 22.099639	汽车服务	充电站	充电站
特斯拉充电站(珠海长隆横琴湾酒店站)(暂停营业)	汽车服务;充电站;充电站	011100	横琴新区富祥湾长隆横琴湾酒店负2层1282/1283车位	[]	广东省	珠海市	香洲区	113.546616	22.099556	113.54152633132504	22.10246250920685	113.546616 22.099556	汽车服务	充电站	充电站
南方电网横琴营业厅充电站	汽车服务;充电站;充电站	011100	宝兴路199号	[]	广东省	珠海市	香洲区	113.548594	22.116711	113.54350840853492	22.119628917460773	113.548594 22.116711	汽车服务	充电站	充电站
广东电网充电站(横琴WTA)	汽车服务;充电站;充电站	011100	横琴WTA网球中心内	[]	广东省	珠海市	香洲区	113.533919	22.126317	113.52879137101318	22.12920457635596	113.533919 22.126317	汽车服务	充电站	充电站
正方新能源充电站(正方科技谷)	汽车服务;充电站;充电站	011100	洪兴一路3号	[]	广东省	珠海市	香洲区	113.481769	22.167891	113.4764624073011	22.170643603397423	113.481769 22.167891	汽车服务	充电站	充电站
万城万充汽车充电站(横琴中央汇商场)	汽车服务;充电站;充电站	011100	香江路10号横琴中央汇美食广场停车场内	4008083392	广东省	珠海市	香洲区	113.544237	22.128874	113.53913906950464	22.131787436980268	113.544237 22.128874	汽车服务	充电站	充电站
中大金融中心地下2层充电站	汽车服务;充电站;充电站	011100	横琴新区中大金融中心B2层停车场	[]	广东省	珠海市	香洲区	113.53547	22.160198	113.53034489905797	22.16310290151828	113.53547 22.160198	汽车服务	充电站	充电站
腾势充电站(阿森美食停车场站)	汽车服务;充电站;充电站	011100	横琴镇德政街	[]	广东省	珠海市	香洲区	113.544464	22.106057	113.53936813979595	22.108961516071066	113.544464 22.106057	汽车服务	充电站	充电站
驿充电充电站(横琴人才公寓)	汽车服务;充电站;充电站	011100	横琴新区彩虹路139号酒店门口	4008129338	广东省	珠海市	香洲区	113.541309	22.126447	113.5362030864501	22.129352734837312	113.541309 22.126447	汽车服务	充电站	充电站
驿充电充电站(珠海横琴WTA国际网球中心站)	汽车服务;充电站;充电站	011100	横琴新区琴石路国际网球中心3号门停车场	4008129338	广东省	珠海市	香洲区	113.535414	22.124938	113.53029098195974	22.127828802035555	113.535414 22.124938	汽车服务	充电站	充电站
小可乐横琴金融基地汽车充电站	汽车服务;充电站;充电站	011100	横琴金融基地二期一栋小可乐科技公司后方	4008228606	广东省	珠海市	香洲区	113.535068	22.150674	113.52994229769703	22.15357420968824	113.535068 22.150674	汽车服务	充电站	充电站
驿充电汽车充电站(珠海市阿森美食城免停车费)	汽车服务;充电站;充电站	011100	横琴新区宝兴路28号	4008129338	广东省	珠海市	香洲区	113.550873	22.112172	113.54579347313454	22.11509271885648	113.550873 22.112172	汽车服务	充电站	充电站
汽车充电站(横琴富力优派广场)	汽车服务;充电站;充电站	011100	宝利路美宜佳(宝盛路店)	13750086158	广东省	珠海市	香洲区	113.489151	22.164276	113.48386958104956	22.167048863872424	113.489151 22.164276	汽车服务	充电站	充电站
珠海横琴人才公寓电动汽车充电站	汽车服务;充电站;充电站	011100	彩虹路与子期南道交叉口东100米	[]	广东省	珠海市	香洲区	113.541318	22.126449	113.53621211176537	22.12935475671205	113.541318 22.126449	汽车服务	充电站	充电站
特斯拉目的地充电站(小可乐科技)	汽车服务;充电站;充电站	011100	十字门大道横琴金融产业服务基地1栋	[]	广东省	珠海市	香洲区	113.535564	22.150177	113.53043982135502	22.15307826382995	113.535564 22.150177	汽车服务	充电站	充电站
星星充电汽车充电站(中冶口岸大厦)	汽车服务;充电站;充电站	011100	珠海中冶口岸大厦项目现场	4008280768	广东省	珠海市	香洲区	113.547748	22.140981	113.542658672617	22.143906976476227	113.547748 22.140981	汽车服务	充电站	充电站
特斯拉超级充电站(珠海瑞吉酒店)	汽车服务;充电站;充电站	011100	华发喜来登酒店B1层停车场S1区	[]	广东省	珠海市	香洲区	113.525695	22.169983	113.52053868029888	22.17286584205863	113.525695 22.169983	汽车服务	充电站	充电站
中大金融中心4楼停车场汽车充电站	汽车服务;充电站;充电站	011100	横琴新区中大金融中心4楼停车场	[]	广东省	珠海市	香洲区	113.535729	22.15997	113.53060469065588	22.162875463939905	113.535729 22.15997	汽车服务	充电站	充电站
驿充电充电站(横琴WTA国际网球中心)	汽车服务;充电站;充电站	011100	横琴新区琴石路国际网球中心3号门停车场	4008129338	广东省	珠海市	香洲区	113.535325	22.124907	113.53020171641364	22.12779756555269	113.535325 22.124907	汽车服务	充电站	充电站
万城万充汽车充电站(佳兆业中心)	汽车服务;充电站;充电站	011100	南湾南路5019号佳兆业中心地面停车场	4008083392	广东省	珠海市	香洲区	113.532514	22.198685	113.52737743710944	22.20159647480908	113.532514 22.198685	汽车服务	充电站	充电站
朋辉能源充电站(安盛机动车驾校站)	汽车服务;充电站;充电站	011100	中盛路63号	4008935718	广东省	珠海市	香洲区	113.530992	22.198794	113.52585070571946	22.20170154093352	113.530992 22.198794	汽车服务	充电站	充电站
珠海驿联汽车充电站(珠海横琴总部大厦)	汽车服务;充电站;充电站	011100	横琴新区港澳大道88号	4008129338	广东省	珠海市	香洲区	113.54968	22.14344	113.54459548661944	22.146370994103368	113.54968 22.14344	汽车服务	充电站	充电站
万城万充汽车充电站(横琴富力中心)	汽车服务;充电站;充电站	011100	横琴兴盛一路128号富力中心地面停车场	4008083392	广东省	珠海市	香洲区	113.525031	22.154552	113.5198735114114	22.157427133042216	113.525031 22.154552	汽车服务	充电站	充电站
驿充电汽车充电站(珠海横琴总部大厦)	汽车服务;充电站;充电站	011100	横琴新区港澳大道88号	4008129338	广东省	珠海市	香洲区	113.548921	22.143642	113.5438345374035	22.146571501364644	113.548921 22.143642	汽车服务	充电站	充电站
依威能源汽车充电站(金地门道B1地面)	汽车服务;充电站;充电站	011100	香工路金地门道B1地面	4001800910	广东省	珠海市	香洲区	113.477334	22.156176	113.47201362587856	22.15891151469502	113.477334 22.156176	汽车服务	充电站	充电站
特斯拉充电站(珠海中大金融大厦新国标)	汽车服务;充电站;充电站	011100	横琴新区中大金融大厦	[]	广东省	珠海市	香洲区	113.535659	22.159979	113.53053448025912	22.162884291976447	113.535659 22.159979	汽车服务	充电站	充电站
万城万充汽车充电站(佳兆业中心充电站)	汽车服务;充电站;充电站	011100	南湾南路5019号佳兆业中心地面停车场	4008083392	广东省	珠海市	香洲区	113.53252	22.198685	113.5273834556165	22.201596490351942	113.53252 22.198685	汽车服务	充电站	充电站
万城万充汽车充电站(横琴富力中心充电站)	汽车服务;充电站;充电站	011100	横琴兴盛一路128号富力中心地面停车场	4008083392	广东省	珠海市	香洲区	113.52498	22.154522	113.51982234721356	22.15739698053609	113.52498 22.154522	汽车服务	充电站	充电站
依威能源汽车充电站(金地门道B2三号车库)	汽车服务;充电站;充电站	011100	香工路金地门道B2三号车库	4001800910	广东省	珠海市	香洲区	113.480491	22.156952	113.47518088988429	22.159696765620623	113.480491 22.156952	汽车服务	充电站	充电站
顺易充汽车充电站(珠海市香洲区长隆企鹅酒店公共)	汽车服务;充电站;充电站	011100	[]	[]	广东省	珠海市	香洲区	113.539137	22.102169	113.53402641792948	22.105059496401125	113.539137 22.102169	汽车服务	充电站	充电站
小飞充电汽车充电站(粤澳合作中医药科技产业园总部)	汽车服务;充电站;充电站	011100	厚朴道粤澳合作中医药科技产业园	13411545956	广东省	珠海市	香洲区	113.46285	22.132533	113.45748694681662	22.13522081813156	113.46285 22.132533	汽车服务	充电站	充电站
驿充电充电站(珠海市慢性病防治中心东区站)	汽车服务;充电站;充电站	011100	南琴路慢性病防治中心南区停车场	4008129338	广东省	珠海市	香洲区	113.468842	22.196665	113.4634923526063	22.19939236728705	113.468842 22.196665	汽车服务	充电站	充电站
依威能源汽车充电站(金地门道A2一号地库)	汽车服务;充电站;充电站	011100	香工路金地门道A2一号地库	4001800910	广东省	珠海市	香洲区	113.476504	22.154282	113.47118107171408	22.1570144584346	113.476504 22.154282	汽车服务	充电站	充电站
驿充电充电站(珠海市慢性病防治中心地下停车场站)	汽车服务;充电站;充电站	011100	南琴路慢性病防治中心地下停车场	4008129338	广东省	珠海市	香洲区	113.469111	22.198228	113.46376206544276	22.20095662335529	113.469111 22.198228	汽车服务	充电站	充电站
驿充电充电站(珠海洪湾工业区金地动力港A2区充电站)	汽车服务;充电站;充电站	011100	珠海洪湾工业区金地动力港A2区内	[]	广东省	珠海市	香洲区	113.47955	22.155702	113.47423687627028	22.15844359745248	113.47955 22.155702	汽车服务	充电站	充电站
汽车充电站(易启充-南屏拜瑞)	汽车服务;充电站;充电站	011100	南屏科技园屏西四路	18125233770	广东省	珠海市	香洲区	113.455629	22.207275	113.4502413789862	22.20997378087509	113.455629 22.207275	汽车服务	充电站	充电站
蔚景云充电站(怀融百安物流园站)	汽车服务;充电站;充电站	011100	南屏科技园振威北路百安物流市场	[]	广东省	珠海市	香洲区	113.475057	22.21148	113.46972570380912	22.214229242029887	113.475057 22.21148	汽车服务	充电站	充电站
珠海怀融新能源充电站	汽车服务;充电站;充电站	011100	屏北一路11号百安物流市场	[]	广东省	珠海市	香洲区	113.481619	22.216905	113.47630871364144	22.21967459787959	113.481619 22.216905	汽车服务	充电站	充电站
万城万充汽车充电站(百安物流园)	汽车服务;充电站;充电站	011100	屏东二路2号地面停车场	4008083392	广东省	珠海市	香洲区	113.480152	22.215179	113.4748369756266	22.217943813646684	113.480152 22.215179	汽车服务	充电站	充电站
联行充电站(怀融百安物流园站)	汽车服务;充电站;充电站	011100	南屏科技园振威北路百安物流市场	4006921086	广东省	珠海市	香洲区	113.481636	22.217258	113.4763257470438	22.22002776443757	113.481636 22.217258	汽车服务	充电站	充电站
蓄迅汽车充电站	汽车服务;充电站;充电站	011100	北山村北山正街1号B厂房A区	[]	广东省	珠海市	香洲区	113.511015	22.220894	113.50580598118316	22.22375262986332	113.511015 22.220894	汽车服务	充电站	充电站
蓄迅充电站	汽车服务;充电站;充电站	011100	北山正街与南湾北路辅路交叉口北约60米	[]	广东省	珠海市	香洲区	113.510606	22.220626	113.50539558284596	22.223483326544148	113.510606 22.220626	汽车服务	充电站	充电站
驿充电充电站(珠海北山A区)	汽车服务;充电站;充电站	011100	北山正街3号西北50米	13823001791	广东省	珠海市	香洲区	113.511037	22.220919	113.50582805567694	22.223777703410683	113.511037 22.220919	汽车服务	充电站	充电站
珠海正方智慧城市汽车充电站(北山社区公园)	汽车服务;充电站;充电站	011100	珠海大道301号向南50米	4008098558	广东省	珠海市	香洲区	113.514103	22.223392	113.50890445906845	22.22626056982627	113.514103 22.223392	汽车服务	充电站	充电站
小可乐充电站(果然有花)	汽车服务;充电站;充电站	011100	北山工业区南牌坊街3号	[]	广东省	珠海市	香洲区	113.514545	22.216073	113.50934844592716	22.218940447182064	113.514545 22.216073	汽车服务	充电站	充电站
小桔充电站(BP快速珠海金沙美地)	汽车服务;充电站;充电站	011100	仙桥路333号	4000610999	广东省	珠海市	香洲区	113.518168	22.224135	113.51298325193191	22.22701564466524	113.518168 22.224135	汽车服务	充电站	充电站
万城万充汽车充电站	汽车服务;充电站;充电站	011100	珠海大道与仙桥路交叉口东约100米	[]	广东省	珠海市	香洲区	113.519125	22.22597	113.51394335941868	22.228853993550768	113.519125 22.22597	汽车服务	充电站	充电站
南方电网充电站(珠海市香洲区华发商都)	汽车服务;充电站;充电站	011100	南湾北路辅路与珠海大道辅路交叉口北280米	[]	广东省	珠海市	香洲区	113.508183	22.224949	113.50296389143408	22.2278005167704	113.508183 22.224949	汽车服务	充电站	充电站
蔚景汽车充电站(城市便捷酒店)	汽车服务;充电站;充电站	011100	南屏镇城市便捷酒店(珠海南屏大桥店)	4008935718	广东省	珠海市	香洲区	113.503975	22.227555	113.49874103928236	22.23039472402852	113.503975 22.227555	汽车服务	充电站	充电站
正方优和汇南屏充电站	汽车服务;充电站;充电站	011100	丰盛园西街118号	[]	广东省	珠海市	香洲区	113.494231	22.221714	113.48896338868065	22.22452243582076	113.494231 22.221714	汽车服务	充电站	充电站
巴特力前山港汽车充电站	汽车服务;充电站;充电站	011100	前山港	4008129338	广东省	珠海市	香洲区	113.523534	22.232992	113.51836657610689	22.23589072978325	113.523534 22.232992	汽车服务	充电站	充电站
中国南方电网电动汽车充电站	汽车服务;充电站;充电站	011100	前河北路前山河畔东侧约50米	[]	广东省	珠海市	香洲区	113.525536	22.232132	113.52037517447545	22.23503600542749	113.525536 22.232132	汽车服务	充电站	充电站
金凯瑞充电站(祥通公司)	汽车服务;充电站;充电站	011100	港一路160号海荣新村垃圾压缩站旁	[]	广东省	珠海市	香洲区	113.528792	22.229142	113.52364182859684	22.232053895152887	113.528792 22.229142	汽车服务	充电站	充电站
城丰星际新能源广场	汽车服务;充电站;充电站	011100	港昌路999号	0756-6129818	广东省	珠海市	香洲区	113.520997	22.239752	113.51582074069348	22.242645712915746	113.520997 22.239752	汽车服务	充电站	充电站
蔚景云充电站(明珠商业广场站)	汽车服务;充电站;充电站	011100	明珠南路1389号	4008935718	广东省	珠海市	香洲区	113.513545	22.239371	113.50834351222468	22.242243029718	113.513545 22.239371	汽车服务	充电站	充电站
米岐竹仙洞汽车充电站	汽车服务;充电站;充电站	011100	南湾北路珠海名人高尔夫竹仙洞俱乐部旁	[]	广东省	珠海市	香洲区	113.522751	22.205655	113.51758275388433	22.208542493069206	113.522751 22.205655	汽车服务	充电站	充电站
蔚景云充电站(北京酒店站)	汽车服务;充电站;充电站	011100	北京酒店一楼停车场	4008935718	广东省	珠海市	香洲区	113.514998	22.240878	113.5098013959996	22.243754761501755	113.514998 22.240878	汽车服务	充电站	充电站
米岐汽车充电站(南湾站)	汽车服务;充电站;充电站	011100	湾仔街道办南湾北路	[]	广东省	珠海市	香洲区	113.522647	22.205721	113.5174784061508	22.208608223823425	113.522647 22.205721	汽车服务	充电站	充电站
顺易充充电站(鹏辉能源站大自然醉鹅)	汽车服务;充电站;充电站	011100	前山街道荣泰路64-1号	[]	广东省	珠海市	香洲区	113.510971	22.237942	113.5057607276164	22.24080597384872	113.510971 22.237942	汽车服务	充电站	充电站
依威能源汽车充电站(中海滨河湾)	汽车服务;充电站;充电站	011100	前山前河北路388号中海滨河湾中海滨河湾	4001800910	广东省	珠海市	香洲区	113.521991	22.236167	113.51681827651404	22.239062403816213	113.521991 22.236167	汽车服务	充电站	充电站
正方新能源充电站(南屏科技工业园管理委员会)	汽车服务;充电站;充电站	011100	屏东六路南屏科技工业园停车场	[]	广东省	珠海市	香洲区	113.493418	22.224786	113.48814736688576	22.227592999272662	113.493418 22.224786	汽车服务	充电站	充电站
依威能源汽车充电站(千鹤广场)	汽车服务;充电站;充电站	011100	前山街道粤海西路66号	4001800910	广东省	珠海市	香洲区	113.525493	22.238446	113.52033162889757	22.241351877922	113.525493 22.238446	汽车服务	充电站	充电站
鹏辉能源汽车充电站(丽璟阁商务酒店)	汽车服务;充电站;充电站	011100	璟阁商务酒店停车场	4008935718	广东省	珠海市	香洲区	113.494322	22.224635	113.48905451503164	22.22744466533832	113.494322 22.224635	汽车服务	充电站	充电站
汽车充电站(新星海鲜城)	汽车服务;充电站;充电站	011100	港昌路323号顺德人家(港昌路店)	13750086158	广东省	珠海市	香洲区	113.535556	22.222675	113.5304271611325	22.22560236803957	113.535556 22.222675	汽车服务	充电站	充电站
依威能源汽车充电站(蔚蓝东岸)	汽车服务;充电站;充电站	011100	前山街道粤海西路11号4幢	4001800910	广东省	珠海市	香洲区	113.527071	22.235636	113.52191491051514	22.238545314391672	113.527071 22.235636	汽车服务	充电站	充电站
柏宁南屏比亚迪充电站	汽车服务;充电站;充电站	011100	屏东五路6号	[]	广东省	珠海市	香洲区	113.490102	22.218992	113.48482028877063	22.221787178868382	113.490102 22.218992	汽车服务	充电站	充电站
正方智能汽车充电站(正方岱山停车场)	汽车服务;充电站;充电站	011100	岱山停车场前山岱山路70号乐士文化区对面	[]	广东省	珠海市	香洲区	113.517611	22.241051	113.51242327800855	22.24393541568193	113.517611 22.241051	汽车服务	充电站	充电站
银积科技-心海充电站	汽车服务;充电站;充电站	011100	前山路37号-17号铺	[]	广东省	珠海市	香洲区	113.526747	22.241798	113.5215894715026	22.244708353871687	113.526747 22.241798	汽车服务	充电站	充电站
依威能源汽车充电站(紫金阁)	汽车服务;充电站;充电站	011100	粤海中路紫金阁	4001800910	广东省	珠海市	香洲区	113.535516	22.231839	113.53038645404204	22.23476922986412	113.535516 22.231839	汽车服务	充电站	充电站
驿充电新能源汽车充电站(金图大厦)	汽车服务;充电站;充电站	011100	前山粤海西路44号	4008129338	广东省	珠海市	香洲区	113.52624	22.237791	113.52108109233995	22.2406987236639	113.52624 22.237791	汽车服务	充电站	充电站
珠海市华夏陶瓷建材城停车场小亿充电站	汽车服务;充电站;充电站	011100	华夏陶瓷建材城停车场	0756-8610968	广东省	珠海市	香洲区	113.530789	22.235331	113.52564472828276	22.23825017233425	113.530789 22.235331	汽车服务	充电站	充电站
驿充电新能源汽车充电站(华夏陶瓷建材城)	汽车服务;充电站;充电站	011100	前山逸仙路2号	4008129338	广东省	珠海市	香洲区	113.530826	22.235403	113.525681839422	22.23832229245664	113.530826 22.235403	汽车服务	充电站	充电站
安充电汽车充电站(拱北夏湾里超级)	汽车服务;充电站;充电站	011100	拱北街道1986夏湾里brother	[]	广东省	珠海市	香洲区	113.534141	22.229438	113.52900745117483	22.232363983731577	113.534141 22.229438	汽车服务	充电站	充电站
汽车充电站(银积心海中央)	汽车服务;充电站;充电站	011100	前山路37号-17号铺瀚林苑	[]	广东省	珠海市	香洲区	113.526804	22.241727	113.52164665973156	22.2446374873106	113.526804 22.241727	汽车服务	充电站	充电站
珠海小可乐汽车充电站(森宇富通)	汽车服务;充电站;充电站	011100	粤海中路2133号森宇富通大厦地下车库1层	[]	广东省	珠海市	香洲区	113.534678	22.231601	113.5295459421694	22.23452904040045	113.534678 22.231601	汽车服务	充电站	充电站
鹏辉能源汽车充电站(五月天精品酒店)	汽车服务;充电站;充电站	011100	拱北街道五月天精品酒店(拱北口岸店)	[]	广东省	珠海市	香洲区	113.535448	22.228489	113.53031846430854	22.231417985755336	113.535448 22.228489	汽车服务	充电站	充电站
岐关湾仔豪通码头电动汽车充电站	汽车服务;充电站;充电站	011100	南湾南路6002号	[]	广东省	珠海市	香洲区	113.532153	22.203363	113.52701502223414	22.2062751660859	113.532153 22.203363	汽车服务	充电站	充电站
特斯拉超级充电站(富华里广场)	汽车服务;充电站;充电站	011100	富华里停车场东入口负一层B3区	[]	广东省	珠海市	香洲区	113.540721	22.235811	113.53560643737696	22.23875516696903	113.540721 22.235811	汽车服务	充电站	充电站
特斯拉汽车充电站(珠海天钻假日酒店)	汽车服务;充电站;充电站	011100	拱北夏湾港昌路123号珠海天钻假日酒店露天停车场左侧	[]	广东省	珠海市	香洲区	113.538633	22.21801	113.533513561701	22.22094341679673	113.538633 22.21801	汽车服务	充电站	充电站
小桔充电汽车充电站(BP快速充电站珠海香洲泰锋汇)	汽车服务;充电站;充电站	011100	华威路33号地面停车场	4000610999	广东省	珠海市	香洲区	113.499766	22.279293	113.49451395599702	22.282135364540142	113.499766 22.279293	汽车服务	充电站	充电站
鹏辉能源充电站(信和万家)	汽车服务;充电站;充电站	011100	上冲检查站国际名车城旁	[]	广东省	珠海市	香洲区	113.49868	22.283323	113.49342389572936	22.28616316060188	113.49868 22.283323	汽车服务	充电站	充电站
万城万充汽车充电站(红星美凯龙·星艺佳)	汽车服务;充电站;充电站	011100	华威路96号红星美凯龙·星艺佳(珠海店)	4008083392	广东省	珠海市	香洲区	113.499189	22.282131	113.4939347531512	22.28497238117336	113.499189 22.282131	汽车服务	充电站	充电站
珠海驿联充电站(珠海市山姆会员店停车场)	汽车服务;充电站;充电站	011100	明珠北路及旅游路交界乐世界购物中心内	[]	广东省	珠海市	香洲区	113.508835	22.276215	113.5036148417441	22.27908381735913	113.508835 22.276215	汽车服务	充电站	充电站
驿充电充电站(珠海印象城站原山姆会员店)	汽车服务;充电站;充电站	011100	明珠北路及旅游路交界乐世界购物中心内	4008129338	广东省	珠海市	香洲区	113.508709	22.27533	113.50348846091929	22.27819819957464	113.508709 22.27533	汽车服务	充电站	充电站
依威能源汽车充电站(日安汽车交易中心)	汽车服务;充电站;充电站	011100	前山街道梅界路237号	4001800910	广东省	珠海市	香洲区	113.511935	22.283856	113.50672509066511	22.28673608492052	113.511935 22.283856	汽车服务	充电站	充电站
蓄迅汽车充电站(凤山工业城)	汽车服务;充电站;充电站	011100	凤山工业城停车场出入口	13823001791	广东省	珠海市	香洲区	113.529599	22.253783	113.52444980244756	22.25670466538265	113.529599 22.253783	汽车服务	充电站	充电站
依威能源汽车充电站(招商花园城二期)	汽车服务;充电站;充电站	011100	梅华街道翠微西路80号	4001800910	广东省	珠海市	香洲区	113.527543	22.2546	113.52238720716976	22.2575163852488	113.527543 22.2546	汽车服务	充电站	充电站
驿充电充电站(珠海凤山工业城)	汽车服务;充电站;充电站	011100	翠微西路凤山工业城	4008129338	广东省	珠海市	香洲区	113.529551	22.254865	113.52440158130898	22.25778685761693	113.529551 22.254865	汽车服务	充电站	充电站
依威能源汽车充电站(领寓)	汽车服务;充电站;充电站	011100	前山翠微西路18号	4001800910	广东省	珠海市	香洲区	113.532088	22.253501	113.52694660598424	22.256429132962044	113.532088 22.253501	汽车服务	充电站	充电站
BP快速充电站(金嘉创意谷)	汽车服务;充电站;充电站	011100	金嘉创意谷入口	[]	广东省	珠海市	香洲区	113.518971	22.253013	113.51378709858808	22.25590496232248	113.518971 22.253013	汽车服务	充电站	充电站
汽车充电站(北京酒店)	汽车服务;充电站;充电站	011100	北京酒店一楼停车场	4008935718	广东省	珠海市	香洲区	113.521375	22.247157	113.5161995227061	22.2500540578656	113.521375 22.247157	汽车服务	充电站	充电站
鹏辉能源充电站(金嘉创意谷)	汽车服务;充电站;充电站	011100	前山街道金嘉创意谷	4008935718	广东省	珠海市	香洲区	113.518944	22.253128	113.51376000027504	22.2560199189852	113.518944 22.253128	汽车服务	充电站	充电站
小可乐满电超级汽车充电站	汽车服务;充电站;充电站	011100	鞍莲路66号	4008228606	广东省	珠海市	香洲区	113.517249	22.25165	113.51205936773664	22.254536591183143	113.517249 22.25165	汽车服务	充电站	充电站
汽车充电站(明珠商业广场)	汽车服务;充电站;充电站	011100	明珠南路1389号	4008935718	广东省	珠海市	香洲区	113.52	22.2457	113.5148200256724	22.24859270652918	113.52 22.2457	汽车服务	充电站	充电站
鹏辉能源汽车充电站(金嘉创意谷)	汽车服务;充电站;充电站	011100	明珠南路2021号6幢附近	[]	广东省	珠海市	香洲区	113.518778	22.252883	113.51359345697249	22.25577436941432	113.518778 22.252883	汽车服务	充电站	充电站
驿充电充电站(世邦佰亚燕都)	汽车服务;充电站;充电站	011100	世邦百亚燕都5号馆地下停车场B3区533-538车位	4008129338	广东省	珠海市	香洲区	113.53748	22.253392	113.5323549180844	22.25633374168173	113.53748 22.253392	汽车服务	充电站	充电站
万城万充汽车充电站(晴朗明珠小区)	汽车服务;充电站;充电站	011100	明珠南路1100号晴朗明珠小区地下停车场	4008083392	广东省	珠海市	香洲区	113.521448	22.246094	113.5162728340104	22.248990941525165	113.521448 22.246094	汽车服务	充电站	充电站
喜乐里汽车充电站	汽车服务;充电站;充电站	011100	金山街一巷35号	13702317419	广东省	珠海市	香洲区	113.519764	22.243052	113.5145834052194	22.245943221958125	113.519764 22.243052	汽车服务	充电站	充电站
蓄迅汽车充电站	汽车服务;充电站;充电站	011100	逸仙路前山建材市场小区南侧约30米	4008129338;13823001791	广东省	珠海市	香洲区	113.528573	22.243567	113.52342120596715	22.24648284004881	113.528573 22.243567	汽车服务	充电站	充电站
珠海驿联汽车充电站(珠海世邦佰亚燕都)	汽车服务;充电站;充电站	011100	世邦百亚燕都5号馆地下停车场B3区533-538车位	4008129338	广东省	珠海市	香洲区	113.537559	22.253326	113.53243415508672	22.25626791596304	113.537559 22.253326	汽车服务	充电站	充电站
特来电充电站(珠海香洲美星科技园)	汽车服务;充电站;充电站	011100	前山街道明珠南路3047号	4001300001	广东省	珠海市	香洲区	113.518594	22.261984	113.51340824979988	22.26487750266988	113.518594 22.261984	汽车服务	充电站	充电站
蔚景云充电站(金嘉创意谷站)	汽车服务;充电站;充电站	011100	前山街道金嘉创意谷	4008935718	广东省	珠海市	香洲区	113.512668	22.246854	113.5074630114477	22.24972574481917	113.512668 22.246854	汽车服务	充电站	充电站
驿充电充电站(前山左右创意园停车场站)	汽车服务;充电站;充电站	011100	金山二巷7号	4008129338	广东省	珠海市	香洲区	113.518111	22.244713	113.5129247331645	22.2475999858246	113.518111 22.244713	汽车服务	充电站	充电站
致联新能源人力资源中心充电站	汽车服务;充电站;充电站	011100	金鸡路160号	[]	广东省	珠海市	香洲区	113.515544	22.244898	113.5103490020484	22.24777759385639	113.515544 22.244898	汽车服务	充电站	充电站
珠海驿联汽车充电站(珠海前山左右创意园停车场)	汽车服务;充电站;充电站	011100	金山二巷7号	4008129338	广东省	珠海市	香洲区	113.518106	22.244724	113.51291971556016	22.247610974770616	113.518106 22.244724	汽车服务	充电站	充电站
特斯拉充电站(创想公社·火花Spark新国标)	汽车服务;充电站;充电站	011100	敬业路51号	[]	广东省	珠海市	香洲区	113.524048	22.270265	113.51887986476964	22.27317628690352	113.524048 22.270265	汽车服务	充电站	充电站
鹏辉能源充电站(帝景酒店)	汽车服务;充电站;充电站	011100	梅华街道帝景酒店(香洲分店)	4008935718	广东省	珠海市	香洲区	113.52409	22.266524	113.51892224337162	22.26943435324693	113.52409 22.266524	汽车服务	充电站	充电站
鹏辉能源汽车充电站(帝景酒店)	汽车服务;充电站;充电站	011100	梅华街道帝景酒店(香洲分店)	4008935718	广东省	珠海市	香洲区	113.524115	22.266491	113.51894732743786	22.26940141342304	113.524115 22.266491	汽车服务	充电站	充电站
依威能源充电站(仁恒星园C区)	汽车服务;充电站;充电站	011100	梅华街道星园路3号13栋	[]	广东省	珠海市	香洲区	113.533963	22.264253	113.52882667655092	22.267189093738835	113.533963 22.264253	汽车服务	充电站	充电站
柏宁梅华西汽车充电站	汽车服务;充电站;充电站	011100	梅华西路1089号	[]	广东省	珠海市	香洲区	113.515743	22.274433	113.51054677410852	22.27732174198664	113.515743 22.274433	汽车服务	充电站	充电站
依威能源汽车充电站(金地国际公馆二期)	汽车服务;充电站;充电站	011100	健民路与石溪路交叉口东150米金地国际公馆二期	4001800910	广东省	珠海市	香洲区	113.530551	22.28059	113.5254030758658	22.28352174919067	113.530551 22.28059	汽车服务	充电站	充电站
中珠上城汽车充电站	汽车服务;充电站;充电站	011100	上华路与鸿鹄街交叉口东约120米	[]	广东省	珠海市	香洲区	113.531516	22.263764	113.52637217146834	22.26669362980457	113.531516 22.263764	汽车服务	充电站	充电站
依威能源汽车充电站(金地国际公馆一期)	汽车服务;充电站;充电站	011100	健民路与石溪路交叉口东150米金地国际公馆一期	4001800910	广东省	珠海市	香洲区	113.532398	22.279932	113.52725586752612	22.282868405782448	113.532398 22.279932	汽车服务	充电站	充电站
依威能源汽车充电站(中珠上城2期)	汽车服务;充电站;充电站	011100	三台石路299号中珠·上城中珠上城2期	4001800910	广东省	珠海市	香洲区	113.532594	22.265962	113.52745336974084	22.26889506041436	113.532594 22.265962	汽车服务	充电站	充电站
万城万充汽车充电站(中珠上城一期)	汽车服务;充电站;充电站	011100	三台石路299号中珠上城一期北门岗亭旁停车场	4008083392	广东省	珠海市	香洲区	113.531526	22.263502	113.52638221940892	22.266431581050025	113.531526 22.263502	汽车服务	充电站	充电站
依威能源汽车充电站(仁恒星园C区)	汽车服务;充电站;充电站	011100	梅华街道星园路3号13栋	4001800910	广东省	珠海市	香洲区	113.533969	22.264254	113.5288326947713	22.26719010933981	113.533969 22.264254	汽车服务	充电站	充电站
小桔充电站(BP快速珠海旅游路)	汽车服务;充电站;充电站	011100	旅游路268号	18588669224	广东省	珠海市	香洲区	113.513681	22.283854	113.5084771049888	22.286739236632016	113.513681 22.283854	汽车服务	充电站	充电站
顺易充充电站(珠海驿联站珠海市行政服务中心)	汽车服务;充电站;充电站	011100	红山路行政服务中心	[]	广东省	珠海市	香洲区	113.5414	22.276493	113.53628475989689	22.27945070876036	113.5414 22.276493	汽车服务	充电站	充电站
润星泰汽车充电站	汽车服务;充电站;充电站	011100	前山镇界涌工业区山星工业城星一路28号	15916295859	广东省	珠海市	香洲区	113.490669	22.30192	113.48538383645034	22.3047408085848	113.490669 22.30192	汽车服务	充电站	充电站
蔚景汽车充电站(鑫桩-界涌博信科技园)	汽车服务;充电站;充电站	011100	前山华威路639号博信科技园一楼	13226000158	广东省	珠海市	香洲区	113.47752	22.306542	113.47219039565312	22.30932567766664	113.47752 22.306542	汽车服务	充电站	充电站
万马爱充鼎源科创园汽车充电站	汽车服务;充电站;充电站	011100	前山商贸物流中心三期中油中泰梅界路1801号	4000850006	广东省	珠海市	香洲区	113.489477	22.299655	113.48418788329344	22.30247170460628	113.489477 22.299655	汽车服务	充电站	充电站
小可乐金洲智能充电站	汽车服务;充电站;充电站	011100	福溪工业区永南路33号隆盛大厦福家便利超市对面	18207586946	广东省	珠海市	香洲区	113.506459	22.289106	113.50122972846384	22.29197111992624	113.506459 22.289106	汽车服务	充电站	充电站
珠海通勤充电站前山分站	汽车服务;充电站;充电站	011100	前山商贸物流中心前山商贸物流中心一期华朋路41号	[]	广东省	珠海市	香洲区	113.494202	22.285313	113.48893015008612	22.288140191204945	113.494202 22.285313	汽车服务	充电站	充电站
珠海华发梅溪充电站	汽车服务;充电站;充电站	011100	旅游路与健民路交界往南约50米	4008833630	广东省	珠海市	香洲区	113.517543	22.288775	113.51235196774748	22.291672788854378	113.517543 22.288775	汽车服务	充电站	充电站
金璨鑫汽车充电站(鑫桩-香洲前山东坑新村口快充站)	汽车服务;充电站;充电站	011100	凤山街道新一街	13226000158	广东省	珠海市	香洲区	113.52066	22.296855	113.51547893465792	22.299763778215368	113.52066 22.296855	汽车服务	充电站	充电站
蜂巢充电电动汽车充电站	汽车服务;充电站;充电站	011100	美豪丽致酒店停车场	[]	广东省	珠海市	香洲区	113.592392	22.249296	113.5873702513214	22.25231457747597	113.592392 22.249296	汽车服务	充电站	充电站
万城万充汽车充电站(莱茵半岛)	汽车服务;充电站;充电站	011100	情侣南路318号莱茵半岛	[]	广东省	珠海市	香洲区	113.59014	22.242459	113.58511710883428	22.2454748413054	113.59014 22.242459	汽车服务	充电站	充电站
正方新能源汽车充电站	汽车服务;充电站;充电站	011100	情侣中路88号	[]	广东省	珠海市	香洲区	113.591049	22.252971	113.58602610712676	22.25599031363969	113.591049 22.252971	汽车服务	充电站	充电站
正方新能源汽车充电站(城市客厅地下停车场)	汽车服务;充电站;充电站	011100	情侣中路88号	[]	广东省	珠海市	香洲区	113.591104	22.252489	113.58608117666051	22.25550818674739	113.591104 22.252489	汽车服务	充电站	充电站
腾势充电站(珠宝大厦站)	汽车服务;充电站;充电站	011100	吉大街道珠宝大厦	[]	广东省	珠海市	香洲区	113.574104	22.246884	113.56906271844574	22.24988992834893	113.574104 22.246884	汽车服务	充电站	充电站
正方新能源汽车充电站	汽车服务;充电站;充电站	011100	正方·云创园	[]	广东省	珠海市	香洲区	113.572689	22.242933	113.5676457950481	22.245936174329824	113.572689 22.242933	汽车服务	充电站	充电站
特斯拉超级充电站(珠海度假村酒店站)	汽车服务;充电站;充电站	011100	珠海度假村酒店内	[]	广东省	珠海市	香洲区	113.582575	22.237096	113.5775454104974	22.24010630336941	113.582575 22.237096	汽车服务	充电站	充电站
顺易充汽车充电站(珠海市吉大金嘉广场文联大厦公共)	汽车服务;充电站;充电站	011100	景乐路与杏林一巷交叉口南约20米	[]	广东省	珠海市	香洲区	113.578765	22.25136	113.57372994106044	22.25437174292865	113.578765 22.25136	汽车服务	充电站	充电站
驿充电充电站(吉莲路)	汽车服务;充电站;充电站	011100	吉莲路23号(工业大厦停车场内)	4008129338	广东省	珠海市	香洲区	113.569969	22.247908	113.56492104206758	22.250909470850605	113.569969 22.247908	汽车服务	充电站	充电站
新能源汽车充电站	汽车服务;充电站;充电站	011100	吉莲路23号(工业大厦停车场内)	[]	广东省	珠海市	香洲区	113.570005	22.247975	113.56495709873106	22.250976535846853	113.570005 22.247975	汽车服务	充电站	充电站
珠海海滨公园北门停车场充电站	汽车服务;充电站;充电站	011100	海滨公园1号门停车场	[]	广东省	珠海市	香洲区	113.582253	22.261116	113.57722152728446	22.26413331386042	113.582253 22.261116	汽车服务	充电站	充电站
驿充电充电站(驿站海滨公园1号门停车场)	汽车服务;充电站;充电站	011100	海滨南路海滨公园一号门停车场内	[]	广东省	珠海市	香洲区	113.582181	22.261225	113.57714943933138	22.26424229499884	113.582181 22.261225	汽车服务	充电站	充电站
依威能源汽车充电站(海珠大厦)	汽车服务;充电站;充电站	011100	吉大街道九洲大道中1146号	4001800910	广东省	珠海市	香洲区	113.567618	22.244405	113.5625661598657	22.247402362189245	113.567618 22.244405	汽车服务	充电站	充电站
安充电汽车充电站(碧海酒店)	汽车服务;充电站;充电站	011100	香湾街道碧海酒店珠海碧海酒店	[]	广东省	珠海市	香洲区	113.579667	22.269632	113.57463192323377	22.27264977890694	113.579667 22.269632	汽车服务	充电站	充电站
珠海人民医院-充电站	汽车服务;充电站;充电站	011100	园山路4号珠海人民医院北区停车场	[]	广东省	珠海市	香洲区	113.575872	22.276237	113.57083144080435	22.27925319016405	113.575872 22.276237	汽车服务	充电站	充电站
顺易充充电站(珠海驿联站庞大桩内部调试)	汽车服务;充电站;充电站	011100	吉大石花西路60号泰坦科技园	[]	广东省	珠海市	香洲区	113.567319	22.241165	113.56226682602242	22.24416096124008	113.567319 22.241165	汽车服务	充电站	充电站
正方新能源充电站(优和汇)	汽车服务;充电站;充电站	011100	联安路118号正方优和汇(颐清园西门斜对面)	[]	广东省	珠海市	香洲区	113.557244	22.228634	113.55217216388397	22.231610205870897	113.557244 22.228634	汽车服务	充电站	充电站
P1停车场充电车位	汽车服务;充电站;充电站	011100	港珠澳大桥珠海口岸-P1停车场A1-A5区	[]	广东省	珠海市	香洲区	113.578636	22.205216	113.57360370093744	22.208212775790937	113.578636 22.205216	汽车服务	充电站	充电站
蔚景汽车充电站(海景酒店)	汽车服务;充电站;充电站	011100	香湾街道海景万豪酒店珠海海景酒店	4008935718	广东省	珠海市	香洲区	113.579	22.2788	113.5739634997623	22.281819741854022	113.579 22.2788	汽车服务	充电站	充电站
小可乐仁恒滨海中心充电站	汽车服务;充电站;充电站	011100	情侣南路1号仁恒滨海中心地下停车场	[]	广东省	珠海市	香洲区	113.5605	22.221985	113.55543567178094	22.224964605891085	113.5605 22.221985	汽车服务	充电站	充电站
鹏辉能源充电站(海景酒店)	汽车服务;充电站;充电站	011100	朝阳路与卫星街交叉口东南约60米	[]	广东省	珠海市	香洲区	113.578774	22.278888	113.57373720445068	22.28190757376796	113.578774 22.278888	汽车服务	充电站	充电站
驿充电汽车充电站(珠海市泰坦科技园智能充电岛)(内部专用)	汽车服务;充电站;充电站	011100	吉大石花西路60号泰坦科技园	4008129338	广东省	珠海市	香洲区	113.566585	22.241366	113.56153147127854	22.24436101527732	113.566585 22.241366	汽车服务	充电站	充电站
鹏辉能源汽车充电站(宝德行汽车)	汽车服务;充电站;充电站	011100	吉大街道石花西路169号1栋	[]	广东省	珠海市	香洲区	113.559874	22.238097	113.55480731874928	22.2410807328776	113.559874 22.238097	汽车服务	充电站	充电站
汽车充电站(香洲文化广场)	汽车服务;充电站;充电站	011100	香柠三街与柠溪路交叉口东南约80米	4008935718	广东省	珠海市	香洲区	113.558	22.2652	113.55292751876496	22.26818862605087	113.558 22.2652	汽车服务	充电站	充电站
驿充电充电站(南坑市场地下停车场)	汽车服务;充电站;充电站	011100	紫荆路南坑市场地下停车场内	4008129338	广东省	珠海市	香洲区	113.566661	22.276409	113.56160538211596	22.27941431156104	113.566661 22.276409	汽车服务	充电站	充电站
万城万充汽车充电站(国信广场)	汽车服务;充电站;充电站	011100	柠溪路338号国信广场地面停车场	13828668928	广东省	珠海市	香洲区	113.559875	22.266406	113.55480651796802	22.26939816604224	113.559875 22.266406	汽车服务	充电站	充电站
蔚景云充电站(尚宜客站)	汽车服务;充电站;充电站	011100	拱北白合街3号	4008935718	广东省	珠海市	香洲区	113.542535	22.231843	113.53742580438563	22.23479013658174	113.542535 22.231843	汽车服务	充电站	充电站
珠海小可乐汽车充电站(小可乐发展大厦)	汽车服务;充电站;充电站	011100	水湾路131号发展大厦	[]	广东省	珠海市	香洲区	113.559662	22.22472	113.5545957166058	22.22769910953933	113.559662 22.22472	汽车服务	充电站	充电站
依威能源汽车充电站(嘉丰花园)	汽车服务;充电站;充电站	011100	翠香街道香华路60号负二层	4001800910	广东省	珠海市	香洲区	113.554854	22.274954	113.5497737335079	22.277939668781467	113.554854 22.274954	汽车服务	充电站	充电站
广东电网充电站(香洲区怡丰阁)	汽车服务;充电站;充电站	011100	柠溪路499号(香柠花园对面)	[]	广东省	珠海市	香洲区	113.558079	22.266805	113.553006591131	22.26979421838781	113.558079 22.266805	汽车服务	充电站	充电站
蔚景汽车充电站(尚宜客)	汽车服务;充电站;充电站	011100	白石路白龙街3号	[]	广东省	珠海市	香洲区	113.542811	22.231428	113.53770259948884	22.23437563814373	113.542811 22.231428	汽车服务	充电站	充电站
小桔充电站(骏达成二手车市场)	汽车服务;充电站;充电站	011100	拱北街道粤海中路2684号丽枫酒店	[]	广东省	珠海市	香洲区	113.542174	22.230425	113.5370638859805	22.23337085081113	113.542174 22.230425	汽车服务	充电站	充电站
依威能源汽车充电站(恒虹世纪广场)	汽车服务;充电站;充电站	011100	拱北街道迎宾南路42号	4001800910	广东省	珠海市	香洲区	113.552054	22.227502	113.5469700541614	22.230468118566687	113.552054 22.227502	汽车服务	充电站	充电站
比亚迪充电站(柏宁运通路)	汽车服务;充电站;充电站	011100	运通路2号2栋一楼	[]	广东省	珠海市	香洲区	113.565595	22.279781	113.5605371790798	22.282785721020904	113.565595 22.279781	汽车服务	充电站	充电站
驿充电充电站(珠海华旅酒店圆明新园店站)	汽车服务;充电站;充电站	011100	九洲大道西1048号华旅大厦	4008129338	广东省	珠海市	香洲区	113.545233	22.23784	113.54013082486048	22.24079512035773	113.545233 22.23784	汽车服务	充电站	充电站
顺易充汽车充电站(珠海市港珠澳大桥人工岛地下停车场公共)	汽车服务;充电站;充电站	011100	Ｇ９４珠三角環線高速出口与Ｇ９４珠三角環線高速交叉口东南约120米	[]	广东省	珠海市	香洲区	113.579121	22.203987	113.5740894004494	22.206983763922185	113.579121 22.203987	汽车服务	充电站	充电站
蔚景云充电站(嘉丽万豪酒店站)	汽车服务;充电站;充电站	011100	粤华路与华平路交叉口西南约160米	4008935718	广东省	珠海市	香洲区	113.542747	22.220288	113.5376391334058	22.22323187529858	113.542747 22.220288	汽车服务	充电站	充电站
小桔充电汽车充电站(拱北城市悦栈充电站)	汽车服务;充电站;充电站	011100	城市悦栈-停车场	4000610999	广东省	珠海市	香洲区	113.549629	22.225398	113.54453913798332	22.22835854784014	113.549629 22.225398	汽车服务	充电站	充电站
特来电充电站(特来电站城市悦栈酒店)	汽车服务;充电站;充电站	011100	桂花南路122号	[]	广东省	珠海市	香洲区	113.549489	22.225653	113.54439876568924	22.228613341934967	113.549489 22.225653	汽车服务	充电站	充电站
广东电网充电站(香洲供电局拱北营业厅)	汽车服务;充电站;充电站	011100	桂花北路31号	[]	广东省	珠海市	香洲区	113.547606	22.22897	113.54251069550138	22.231927462425585	113.547606 22.22897	汽车服务	充电站	充电站
鹏辉能源汽车充电站(嘉丽万豪酒店)	汽车服务;充电站;充电站	011100	拱北街道嘉丽万豪酒店嘉丽(城景)酒店	4008935718	广东省	珠海市	香洲区	113.549155	22.226531	113.54406385736785	22.22949093500152	113.549155 22.226531	汽车服务	充电站	充电站
小桔充电汽车充电站(金棕榈酒店充电站)	汽车服务;充电站;充电站	011100	金棕榈酒店	4000610999	广东省	珠海市	香洲区	113.545091	22.253142	113.53998746338723	22.256101471587183	113.545091 22.253142	汽车服务	充电站	充电站
鹏辉能源汽车充电站(珠海大学生创业孵化园)	汽车服务;充电站;充电站	011100	广东省珠海市香洲区翠香街道珠海大学生创业孵化园	4008935718	广东省	珠海市	香洲区	113.565897	22.280249	113.56083971768528	22.283254276718207	113.565897 22.280249	汽车服务	充电站	充电站
小飞充电汽车充电站(拱北凯宏酒店)	汽车服务;充电站;充电站	011100	东升西街7号德全苑	18923368320	广东省	珠海市	香洲区	113.541737	22.224867	113.53662601412697	22.22781004264286	113.541737 22.224867	汽车服务	充电站	充电站
比亚迪汽车充电站(柏宁兰埔)	汽车服务;充电站;充电站	011100	拱北白合街22号	[]	广东省	珠海市	香洲区	113.543722	22.23377	113.5386159687203	22.23672045776508	113.543722 22.23377	汽车服务	充电站	充电站
珠海驿联充电站(珠海智宏交通运输公司)	汽车服务;充电站;充电站	011100	拱北白合街22号	[]	广东省	珠海市	香洲区	113.543814	22.233292	113.5387082521042	22.23624251426028	113.543814 22.233292	汽车服务	充电站	充电站
广东电网充电站(香洲区侨怡园)	汽车服务;充电站;充电站	011100	夏湾粤华路417号	[]	广东省	珠海市	香洲区	113.542819	22.219587	113.53771137841404	22.22253080883935	113.542819 22.219587	汽车服务	充电站	充电站
驿充电新能源汽车充电站(珠海骏达成)	汽车服务;充电站;充电站	011100	粤海中路2300号	4008129338	广东省	珠海市	香洲区	113.541521	22.229753	113.53640909291984	22.232697118492474	113.541521 22.229753	汽车服务	充电站	充电站
国家电网汽车充电站(拱北口岸总站)	汽车服务;充电站;充电站	011100	友谊路与莲花路交叉口东南100米	[]	广东省	珠海市	香洲区	113.555972	22.217488	113.5508979873012	22.22045827074133	113.555972 22.217488	汽车服务	充电站	充电站
驿充电充电站(珠海拱北口岸购物广场地下停车场站)	汽车服务;充电站;充电站	011100	珠海拱北口岸购物广场地下停车场B3层G区	4008129338	广东省	珠海市	香洲区	113.552557	22.216358	113.54747499127642	22.219321445813307	113.552557 22.216358	汽车服务	充电站	充电站
云快充汽车充电站(香洲区桂花南路城市悦栈充电站)	汽车服务;充电站;充电站	011100	桂花南路122号	[]	广东省	珠海市	香洲区	113.549229	22.225711	113.5441380988677	22.22867082263655	113.549229 22.225711	汽车服务	充电站	充电站
珠海正方智慧城市汽车充电站(香山驿站)	汽车服务;充电站;充电站	011100	梅花西路与彩虹路交叉口往北约100米	4008098558	广东省	珠海市	香洲区	113.54389	22.281991	113.53878134582524	22.28495590793545	113.54389 22.281991	汽车服务	充电站	充电站
万城万充汽车充电站(龙腾湾酒店)	汽车服务;充电站;充电站	011100	唐淇路3号锦枫龙腾湾酒店停车场内	4008083392	广东省	珠海市	香洲区	113.596017	22.332681	113.59099199835286	22.3357214255978	113.596017 22.332681	汽车服务	充电站	充电站
依威能源汽车充电站(旭日湾花园)	汽车服务;充电站;充电站	011100	唐淇路9号旭日湾花园	4001800910	广东省	珠海市	香洲区	113.591362	22.331491	113.58633434137316	22.33453033075005	113.591362 22.331491	汽车服务	充电站	充电站
依威能源汽车充电站(中海银海湾)	汽车服务;充电站;充电站	011100	银坑情侣北路299号	0756-2516288	广东省	珠海市	香洲区	113.592078	22.317435	113.58705172096566	22.32047147837411	113.592078 22.317435	汽车服务	充电站	充电站
特斯拉充电站(中海银海湾会所)	汽车服务;充电站;充电站	011100	情侣北路299号中海银海湾会所停车场B1层	[]	广东省	珠海市	香洲区	113.593403	22.315757	113.58837766379852	22.31879339642828	113.593403 22.315757	汽车服务	充电站	充电站
鹏辉能源汽车充电站(唐家湾站)	汽车服务;充电站;充电站	011100	唐家湾轻轨站停车场内	[]	广东省	珠海市	香洲区	113.5513	22.361541	113.54620562857326	22.36453915754383	113.5513 22.361541	汽车服务	充电站	充电站
正方充电站(海天驿站)	汽车服务;充电站;充电站	011100	美丽湾契爷岭公交站旁	[]	广东省	珠海市	香洲区	113.580292	22.300742	113.5752557155904	22.30376843432935	113.580292 22.300742	汽车服务	充电站	充电站
正方新能源充电站(唐家镇政府)	汽车服务;充电站;充电站	011100	唐淇路1008号	[]	广东省	珠海市	香洲区	113.596937	22.353702	113.59191108252776	22.35674655655234	113.596937 22.353702	汽车服务	充电站	充电站
正方新能源汽车充电站	汽车服务;充电站;充电站	011100	唐家湾镇唐乐路36号海悦居	[]	广东省	珠海市	香洲区	113.591974	22.354109	113.58694531943364	22.357152895481217	113.591974 22.354109	汽车服务	充电站	充电站
依威能源汽车充电站(中海桃花源一期)	汽车服务;充电站;充电站	011100	神前路89号中海桃花源一期	4001800910	广东省	珠海市	香洲区	113.578885	22.308965	113.57384643489316	22.31199225676068	113.578885 22.308965	汽车服务	充电站	充电站
依威能源汽车充电站(海悦居)	汽车服务;充电站;充电站	011100	唐家湾镇乐园东路38号金唐幼儿园旁海悦居	4001800910	广东省	珠海市	香洲区	113.597479	22.361077	113.59245284311942	22.36412287165157	113.597479 22.361077	汽车服务	充电站	充电站
南方电网汽车充电站	汽车服务;充电站;充电站	011100	梅华东路朝阳派出所西北侧约120米	[]	广东省	珠海市	香洲区	113.573392	22.293119	113.56834669686538	22.29613705110001	113.573392 22.293119	汽车服务	充电站	充电站
驿充电充电站(珠海唐家文化广场)	汽车服务;充电站;充电站	011100	唐家唐淇路1929号附近	4008129338	广东省	珠海市	香洲区	113.600064	22.360662	113.59503878112064	22.363707690095755	113.600064 22.360662	汽车服务	充电站	充电站
顺易充充电站(鹏辉能源站金众记猪肚鸡)	汽车服务;充电站;充电站	011100	唐家湾镇唐乐路36号海悦居	[]	广东省	珠海市	香洲区	113.597514	22.360132	113.5924879176455	22.36317770920717	113.597514 22.360132	汽车服务	充电站	充电站
顺易充充电站(珠海驿联站珠海唐家文化广场)	汽车服务;充电站;充电站	011100	唐乐路唐家文化广场东北侧	[]	广东省	珠海市	香洲区	113.599315	22.359328	113.5942896332308	22.36237352107862	113.599315 22.359328	汽车服务	充电站	充电站
驿充电充电站(珠海中大五院影像中心站)	汽车服务;充电站;充电站	011100	梅华东路52号中山大学附属第五医院光学影像楼停车场	4008129338	广东省	珠海市	香洲区	113.576027	22.298377	113.57098525299192	22.30139909463217	113.576027 22.298377	汽车服务	充电站	充电站
珠海祥鼎达汽车充电站(港湾1号)	汽车服务;充电站;充电站	011100	唐中路	0756-3613621	广东省	珠海市	香洲区	113.597762	22.363483	113.59273580467064	22.366529283576533	113.597762 22.363483	汽车服务	充电站	充电站
正方智能汽车充电站(正方港湾一号)	汽车服务;充电站;充电站	011100	港湾一号	[]	广东省	珠海市	香洲区	113.600412	22.363265	113.5953867149559	22.366311097289422	113.600412 22.363265	汽车服务	充电站	充电站
驿充电充电站(珠海中大五院凤凰山病区)	汽车服务;充电站;充电站	011100	梅华东路52号中山大学附属第五医院凤凰山病区停车场	4008129338	广东省	珠海市	香洲区	113.568182	22.302506	113.56312747016914	22.30552008724434	113.568182 22.302506	汽车服务	充电站	充电站
小飞充电汽车充电站(唐家信息港)	汽车服务;充电站;充电站	011100	新港路珠海信息港	18923368320	广东省	珠海市	香洲区	113.554029	22.366721	113.54894092139511	22.36972534540693	113.554029 22.366721	汽车服务	充电站	充电站
特来电充电站(北京师范大学珠海校区站)	汽车服务;充电站;充电站	011100	唐家湾金凤路18号	[]	广东省	珠海市	香洲区	113.544222	22.355587	113.5391095372606	22.35856907508333	113.544222 22.355587	汽车服务	充电站	充电站
广东电网充电站(香洲区北理工羽毛球场)	汽车服务;充电站;充电站	011100	朝阳路北京理工大学珠海学院羽毛球场	[]	广东省	珠海市	香洲区	113.546375	22.364214	113.54126779261836	22.36720232918014	113.546375 22.364214	汽车服务	充电站	充电站
珠海祥鼎达汽车充电站(国机ABB产业园)	汽车服务;充电站;充电站	011100	新沙五路	13928021917	广东省	珠海市	香洲区	113.546501	22.406581	113.5413914063515	22.40957557196376	113.546501 22.406581	汽车服务	充电站	充电站
高发充电站(创雅苑)	汽车服务;充电站;充电站	011100	科技八路1号	[]	广东省	珠海市	香洲区	113.552651	22.394884	113.54755780664158	22.397889829920256	113.552651 22.394884	汽车服务	充电站	充电站
正方新能源充电站	汽车服务;充电站;充电站	011100	文苑路与金峰中路交叉口西北80米	[]	广东省	珠海市	香洲区	113.540189	22.380784	113.53506361660048	22.38376085806466	113.540189 22.380784	汽车服务	充电站	充电站
易启充云谷智能园充电站	汽车服务;充电站;充电站	011100	科技一路66号	13726203531	广东省	珠海市	香洲区	113.556298	22.38069	113.55121431204302	22.383700729220468	113.556298 22.38069	汽车服务	充电站	充电站
高发充电站(金鼎镇政府站)	汽车服务;充电站;充电站	011100	高新区金鼎镇政府院内	[]	广东省	珠海市	香洲区	113.539407	22.381272	113.53427933320296	22.384247063460823	113.539407 22.381272	汽车服务	充电站	充电站
蔚景汽车充电站(金鼎惠源)	汽车服务;充电站;充电站	011100	唐家湾镇金鼎上栅大皇岭公路边76号商铺	4008935718	广东省	珠海市	香洲区	113.535665	22.385995	113.53052599683068	22.388961560767072	113.535665 22.385995	汽车服务	充电站	充电站
珠海正方新能源充电站(惠景慧园)	汽车服务;充电站;充电站	011100	科技八路与金峰北路交叉口西北侧约78米	0756-3368717	广东省	珠海市	香洲区	113.551822	22.394172	113.54672682566569	22.39717610927996	113.551822 22.394172	汽车服务	充电站	充电站
高华城市服务公司惠景慧园汽车充电站	汽车服务;充电站;充电站	011100	金峰北路惠景慧园停车场	[]	广东省	珠海市	香洲区	113.55182	22.394161	113.54672482145013	22.39716510389361	113.55182 22.394161	汽车服务	充电站	充电站
远光软件充电站	汽车服务;充电站;充电站	011100	S111(港湾大道)	[]	广东省	珠海市	香洲区	113.560959	22.37379	113.55588595218924	22.376807690102467	113.560959 22.37379	汽车服务	充电站	充电站
高华城服金鼎山公园充电站	汽车服务;充电站;充电站	011100	金鼎山公园山脚(大金顶)	[]	广东省	珠海市	香洲区	113.537168	22.379061	113.53203392433149	22.382030293094065	113.537168 22.379061	汽车服务	充电站	充电站
依威能源汽车充电站(腾晖科技大厦)	汽车服务;充电站;充电站	011100	唐家湾镇金唐路2218号	4001800910	广东省	珠海市	香洲区	113.553918	22.379648	113.54882882931297	22.38265415835632	113.553918 22.379648	汽车服务	充电站	充电站
联行充电站(易启充高新区站)	汽车服务;充电站;充电站	011100	唐家湾镇科技一路60	[]	广东省	珠海市	香洲区	113.5563	22.380801	113.55121630950084	22.38381174914881	113.5563 22.380801	汽车服务	充电站	充电站
汽车充电站(易启充云谷二期)	汽车服务;充电站;充电站	011100	唐家湾镇云谷智能产业园	18125233770	广东省	珠海市	香洲区	113.556314	22.380735	113.5512303456994	22.383745764787182	113.556314 22.380735	汽车服务	充电站	充电站
保时捷汽车充电站(创新九路)	汽车服务;充电站;充电站	011100	唐家镇创新九路11号	0756-6911911	广东省	珠海市	香洲区	113.547391	22.384661	113.5422851651462	22.387654688597618	113.547391 22.384661	汽车服务	充电站	充电站
蔚景云汽车充电站(易启充高新区)	汽车服务;充电站;充电站	011100	唐家湾镇科技一路60	18125233770	广东省	珠海市	香洲区	113.556302	22.380803	113.55121831394052	22.383813753062054	113.556302 22.380803	汽车服务	充电站	充电站
高发充电站(金鼎文化中心充电桩)	汽车服务;充电站;充电站	011100	金官路金鼎文化体育中心	[]	广东省	珠海市	香洲区	113.541472	22.378355	113.53635042580792	22.381334518547927	113.541472 22.378355	汽车服务	充电站	充电站
正方新能源充电站(金鼎文化中心)	汽车服务;充电站;充电站	011100	金官路金鼎市场(圣皇头街)西南侧约100米	[]	广东省	珠海市	香洲区	113.541088	22.378615	113.53596532127251	22.381593658660847	113.541088 22.378615	汽车服务	充电站	充电站
云快充汽车充电站(易启充高新区充电站)	汽车服务;充电站;充电站	011100	科技一路与创新一路交叉口东240米	[]	广东省	珠海市	香洲区	113.556388	22.380783	113.55130451148212	22.383793905617395	113.556388 22.380783	汽车服务	充电站	充电站
依威能源汽车充电站(好乐意)	汽车服务;充电站;充电站	011100	唐家湾镇金唐路66号	4001800910	广东省	珠海市	香洲区	113.539387	22.370442	113.534259972168	22.373415356592027	113.539387 22.370442	汽车服务	充电站	充电站
银积科技信息港汽车充电站	汽车服务;充电站;充电站	011100	金凤路(珠海信息港)	[]	广东省	珠海市	香洲区	113.554274	22.367462	113.54918645448012	22.37046693082347	113.554274 22.367462	汽车服务	充电站	充电站
高发充电站(官塘二社公园停车场)	汽车服务;充电站;充电站	011100	南安一巷官塘公园	[]	广东省	珠海市	香洲区	113.543685	22.370277	113.53857012012764	22.373260354256505	113.543685 22.370277	汽车服务	充电站	充电站
依威能源汽车充电站(珠海信息港)	汽车服务;充电站;充电站	011100	唐家湾镇金唐东路88号	4001800910	广东省	珠海市	香洲区	113.555841	22.369173	113.55075700167176	22.37218112057292	113.555841 22.369173	汽车服务	充电站	充电站
万城万充汽车充电站(龙园智慧园)	汽车服务;充电站;充电站	011100	唐家湾镇哈工大路2号龙园智慧园地面停车场	[]	广东省	珠海市	香洲区	113.564127	22.370041	113.55906059984534	22.37306303475512	113.564127 22.370041	汽车服务	充电站	充电站
鹏辉能源汽车充电站(珠海南方智运)	汽车服务;充电站;充电站	011100	唐家湾镇珠海国家高新技术产业开发区留学生创业园盘龙湾	[]	广东省	珠海市	香洲区	113.570923	22.371052	113.56586879376007	22.37408335950308	113.570923 22.371052	汽车服务	充电站	充电站
驿充电充电站(珠海顺之旅珍珠乐园站)	汽车服务;充电站;充电站	011100	珍珠乐园大巴车停车场内	4008129338	广东省	珠海市	香洲区	113.581132	22.371589	113.5760922105088	22.374630407187016	113.581132 22.371589	汽车服务	充电站	充电站
特斯拉超级充电站(远光软件园)	汽车服务;充电站;充电站	011100	港湾大道科技一路3号远光软件园	[]	广东省	珠海市	香洲区	113.561155	22.373785	113.5560823614446	22.37680300680525	113.561155 22.373785	汽车服务	充电站	充电站
万城万充充电站(绿景后湾)	汽车服务;充电站;充电站	011100	唐家湾镇金月路399号地下停车场	[]	广东省	珠海市	香洲区	113.607956	22.369404	113.60293115378704	22.37244903402651	113.607956 22.369404	汽车服务	充电站	充电站
广东电网充电站(香洲区北理工诚铭旅馆)	汽车服务;充电站;充电站	011100	唐家湾镇金凤路6号北京理工大学珠海学院图书馆11楼	[]	广东省	珠海市	香洲区	113.547532	22.366909	113.54242767436594	22.3699002693786	113.547532 22.366909	汽车服务	充电站	充电站
万城万充汽车充电站(绿景后湾)	汽车服务;充电站;充电站	011100	唐家湾金月路399号地下停车场	4008083392	广东省	珠海市	香洲区	113.608042	22.369532	113.60301714073108	22.37257701719794	113.608042 22.369532	汽车服务	充电站	充电站
