name	type	typecode	address	tel	pname	cityname	adname	gcj02_lon	gcj02_lat	wgs84_lon	wgs84_lat	合并坐标	大类	中类	小类
驿充电充电站(茂名交投茂职院南)	汽车服务;充电站;充电站	011100	茂名职业技术学院(南校区)公交停车场	4008129338	广东省	茂名市	电白区	110.981857	21.464461	110.9771812221982	21.467062842988256	110.981857 21.464461	汽车服务	充电站	充电站
响响新能源共享汽车体验中心	汽车服务;充电站;充电站	011100	高地街道15号	19106651156;0668-5787520	广东省	茂名市	电白区	110.993654	21.49627	110.9889291232455	21.498843197005147	110.993654 21.49627	汽车服务	充电站	充电站
华远电器新能源汽车充电站	汽车服务;充电站;充电站	011100	高地街道鸿景电器厂门前	13686783290	广东省	茂名市	电白区	110.997113	21.488605	110.992374486321	21.491166126542105	110.997113 21.488605	汽车服务	充电站	充电站
广东电网充电站(小良营业厅)	汽车服务;充电站;充电站	011100	小良镇文明路56号	[]	广东省	茂名市	电白区	110.902991	21.490454	110.89852041774532	21.493192739091008	110.902991 21.490454	汽车服务	充电站	充电站
共创汽车充电站	汽车服务;充电站;充电站	011100	水东镇新湖区c4-31号	[]	广东省	茂名市	电白区	110.995541	21.512008	110.9908075454414	21.51457897922129	110.995541 21.512008	汽车服务	充电站	充电站
共创水东镇滨海新区第二小区充电站	汽车服务;充电站;充电站	011100	滨海新区第二小区A155号	[]	广东省	茂名市	电白区	111.016617	21.507681	111.01179851541302	21.510187731424097	111.016617 21.507681	汽车服务	充电站	充电站
茂名交投物流园充电站	汽车服务;充电站;充电站	011100	茂名交投物流园内	18929770010	广东省	茂名市	电白区	110.990578	21.537501	110.98586322287956	21.540093051194862	110.990578 21.537501	汽车服务	充电站	充电站
共创水东湾新城南海街道绿海东边旗村汽车充电站	汽车服务;充电站;充电站	011100	水东湾新城南海街道绿海东边旗村	[]	广东省	茂名市	电白区	111.025702	21.462807	111.02085090868503	21.46527874009104	111.025702 21.462807	汽车服务	充电站	充电站
共创水东东阳南街埗头路203号汽车充电站点	汽车服务;充电站;充电站	011100	兵房路168号	[]	广东省	茂名市	电白区	110.995699	21.499903	110.99096559760493	21.50247080307741	110.995699 21.499903	汽车服务	充电站	充电站
驿充电充电站(茂名交投物流园)	汽车服务;充电站;充电站	011100	茂名交投物流园内	4008129338	广东省	茂名市	电白区	110.990897	21.53784	110.98618091373976	21.54043118065756	110.990897 21.53784	汽车服务	充电站	充电站
驿充电充电站(滨海绿洲)	汽车服务;充电站;充电站	011100	电白大道滨海绿洲(售楼部内)	4008129338	广东省	茂名市	电白区	111.028132	21.536655	111.0232674683016	21.539136126572025	111.028132 21.536655	汽车服务	充电站	充电站
共创充电站（御景国际大酒店）	汽车服务;充电站;充电站	011100	电白大道西与向洋大道交叉口东约180米	[]	广东省	茂名市	电白区	111.020666	21.5363	111.01582996441635	21.53880183936147	111.020666 21.5363	汽车服务	充电站	充电站
共创充电站(水东镇三大队停车场)	汽车服务;充电站;充电站	011100	茂名大道与袂稔路交叉口南280米	[]	广东省	茂名市	电白区	110.992828	21.524047	110.98810488248806	21.52662898568512	110.992828 21.524047	汽车服务	充电站	充电站
共创新能源充电站(陈村村一片29号)	汽车服务;充电站;充电站	011100	陈村村一片29号茂名石化产业园区	[]	广东省	茂名市	电白区	111.059701	21.527247	111.05473499003236	21.52965489973376	111.059701 21.527247	汽车服务	充电站	充电站
广东电网充电站(茂名市电白水东陈村营业厅)	汽车服务;充电站;充电站	011100	陈村镇325国道附近	[]	广东省	茂名市	电白区	111.049706	21.529461	111.04476825635446	21.53188826056142	111.049706 21.529461	汽车服务	充电站	充电站
共创充电站(水东三角圩第二住宅区)	汽车服务;充电站;充电站	011100	水东镇三角区325国道	[]	广东省	茂名市	电白区	110.998338	21.534156	110.9935918708767	21.53672379556697	110.998338 21.534156	汽车服务	充电站	充电站
南方电网汽车充电站	汽车服务;充电站;充电站	011100	８８４乡道与８８７乡道交叉口西约40米	[]	广东省	茂名市	电白区	111.32824	21.492296	111.3231390122283	21.49475248547068	111.32824 21.492296	汽车服务	充电站	充电站
南方电网汽车充电站	汽车服务;充电站;充电站	011100	电城镇西南环8号	[]	广东省	茂名市	电白区	111.28865	21.504685	111.2836455201006	21.507211984806947	111.28865 21.504685	汽车服务	充电站	充电站
江淮新能源325国道充电站	汽车服务;充电站;充电站	011100	电城镇325国道旁	[]	广东省	茂名市	电白区	111.293279	21.519701	111.28826372097892	21.5222249489292	111.293279 21.519701	汽车服务	充电站	充电站
中国南方电网汽车充电站	汽车服务;充电站;充电站	011100	树仔镇	[]	广东省	茂名市	电白区	111.258268	21.527561	111.25331012527482	21.53011922057525	111.258268 21.527561	汽车服务	充电站	充电站
茂名市化州市新安镇新塘村委大院停车场公共汽车充电站	汽车服务;充电站;充电站	011100	新安镇新塘村委大院停车场	[]	广东省	茂名市	化州市	110.47682	21.638243	110.47235105439654	21.64077140699197	110.47682 21.638243	汽车服务	充电站	充电站
茂名市化州市新安镇太平塘村民宿停车场公共汽车充电站	汽车服务;充电站;充电站	011100	新安镇太平塘村民宿停车场	[]	广东省	茂名市	化州市	110.467025	21.640843	110.46253159011198	21.64334589961694	110.467025 21.640843	汽车服务	充电站	充电站
笪桥镇政府停车场公共充电站	汽车服务;充电站;充电站	011100	笪桥镇笪桥镇政府停车场	[]	广东省	茂名市	化州市	110.49125	21.565314	110.48682394128824	21.567861774789964	110.49125 21.565314	汽车服务	充电站	充电站
石湾饭店汽车充电站	汽车服务;充电站;充电站	011100	石湾饭店	[]	广东省	茂名市	化州市	110.541098	21.655747	110.53679498086956	21.658464491999336	110.541098 21.655747	汽车服务	充电站	充电站
石湾李山村共创充电站	汽车服务;充电站;充电站	011100	石湾李山村委旁	[]	广东省	茂名市	化州市	110.547233	21.652506	110.5429418682524	21.655236138416743	110.547233 21.652506	汽车服务	充电站	充电站
驿充电充电站(中石化高州城东加油站站)	汽车服务;充电站;充电站	011100	山美街道高凉东路	4008129338	广东省	茂名市	化州市	110.521895	21.552894	110.51755325125195	21.555529402130016	110.521895 21.552894	汽车服务	充电站	充电站
广东交通集团汽车充电站(汕湛高速石湾东行)	汽车服务;充电站;充电站	011100	石湾街道S14汕湛高速石湾停车区	[]	广东省	茂名市	化州市	110.555762	21.678757	110.55148330314606	21.68151362957751	110.555762 21.678757	汽车服务	充电站	充电站
中垌镇共创汽车充电站	汽车服务;充电站;充电站	011100	中垌镇	[]	广东省	茂名市	化州市	110.477232	21.836658	110.47275309488946	21.83926855919793	110.477232 21.836658	汽车服务	充电站	充电站
共创新能源汽车充电站(化州文楼充电点)	汽车服务;充电站;充电站	011100	文楼镇府前路宏波发廊	[]	广东省	茂名市	化州市	110.420531	22.103618	110.41593995995856	22.106242143756344	110.420531 22.103618	汽车服务	充电站	充电站
广东共创汽车充电站	汽车服务;充电站;充电站	011100	西江桥头九叔饭店	[]	广东省	茂名市	化州市	110.558234	21.926122	110.55394528553704	21.928991618931224	110.558234 21.926122	汽车服务	充电站	充电站
共创新能源汽车充电站(共创化州那务镇人民二路充电点)	汽车服务;充电站;充电站	011100	那务镇民主路口	[]	广东省	茂名市	化州市	110.596908	22.001388	110.59263162316584	22.00432810530388	110.596908 22.001388	汽车服务	充电站	充电站
播扬镇共创充电站	汽车服务;充电站;充电站	011100	２８４省道与６４４县道交叉口东南约120米	[]	广东省	茂名市	化州市	110.595111	22.109257	110.59082956435012	22.112245289991098	110.595111 22.109257	汽车服务	充电站	充电站
共创新能源汽车充电站(共创公馆镇下垌竹山村充电点)	汽车服务;充电站;充电站	011100	公馆镇下垌竹山村	13413346608	广东省	茂名市	茂南区	110.773183	21.675544	110.76861855923188	21.67816223714317	110.773183 21.675544	汽车服务	充电站	充电站
杨波门业城汽车充电站	汽车服务;充电站;充电站	011100	迎宾大桥边杨波门业城	[]	广东省	茂名市	化州市	110.662941	21.659419	110.65856367589204	21.66213333539921	110.662941 21.659419	汽车服务	充电站	充电站
共创化州茂化快线路段汽车充电站	汽车服务;充电站;充电站	011100	茂化快线山底岭路段厚贵车行	[]	广东省	茂名市	化州市	110.739861	21.670044	110.73531299781902	21.67265233700018	110.739861 21.670044	汽车服务	充电站	充电站
茂化路共创汽车充电站	汽车服务;充电站;充电站	011100	北京东四路朝阳轮胎店	13432396917	广东省	茂名市	化州市	110.666529	21.662469	110.66214194867943	21.66517765464314	110.666529 21.662469	汽车服务	充电站	充电站
共创汽车充电站(朝阳轮胎店)	汽车服务;充电站;充电站	011100	鉴江开发区北京东四路朝阳轮胎	[]	广东省	茂名市	化州市	110.666271	21.662394	110.6618846430926	21.66510311702945	110.666271 21.662394	汽车服务	充电站	充电站
顺易充汽车充电站(茂名茂南森林公园电动汽车)	汽车服务;充电站;充电站	011100	125乡道与123乡道交叉口东北440米	[]	广东省	茂名市	茂南区	110.826306	21.631415	110.8217892313894	21.63409824119865	110.826306 21.631415	汽车服务	充电站	充电站
广东电网充电站(茂名市化州河西营业点)	汽车服务;充电站;充电站	011100	下郭大道与宝谷路交叉口东南约60米	[]	广东省	茂名市	化州市	110.634872	21.641818	110.63056356872508	21.644573237638298	110.634872 21.641818	汽车服务	充电站	充电站
旺意小铺充电站点	汽车服务;充电站;充电站	011100	北岸东路与北岸北路交叉口南60米	[]	广东省	茂名市	化州市	110.634152	21.661905	110.62984396897588	21.664668281970208	110.634152 21.661905	汽车服务	充电站	充电站
共创化州河东汽车站汽车充电站	汽车服务;充电站;充电站	011100	鉴东路河东汽车站鹏旁	[]	广东省	茂名市	化州市	110.641955	21.654869	110.63763035251569	21.65761835838044	110.641955 21.654869	汽车服务	充电站	充电站
广东众源汽车充电站(化州市桔城电动汽车充电站)	汽车服务;充电站;充电站	011100	橘城北路中国石化茂名化州桔城加油站	15099819558	广东省	茂名市	化州市	110.646495	21.675811	110.64215857504118	21.678560633022943	110.646495 21.675811	汽车服务	充电站	充电站
驿充电新能源汽车充电站(化州市北岸汽车站)	汽车服务;充电站;充电站	011100	北岸汽车站	4008129338	广东省	茂名市	化州市	110.621442	21.661177	110.61715748465828	21.66395481913091	110.621442 21.661177	汽车服务	充电站	充电站
驿充电充电站(化州市河东汽车站)	汽车服务;充电站;充电站	011100	橘城中路与鉴东路交叉口东南约60米	4008129338	广东省	茂名市	化州市	110.644406	21.655556	110.64007563598244	21.65830171272253	110.644406 21.655556	汽车服务	充电站	充电站
广东电网充电站(百达通车行)	汽车服务;充电站;充电站	011100	207国道百达通车行门前	[]	广东省	茂名市	化州市	110.60236	21.648583	110.59809926438396	21.65136757101104	110.60236 21.648583	汽车服务	充电站	充电站
星星充电汽车充电站(星尚新能源汽车化州有限公司)	汽车服务;充电站;充电站	011100	南盛街道塘岗岭38号	4008280768	广东省	茂名市	化州市	110.65439	21.689748	110.65003327215148	21.69248923399566	110.65439 21.689748	汽车服务	充电站	充电站
驿充电充电站(化州市百达通汽车销售公司)	汽车服务;充电站;充电站	011100	河西街道百达通汽车	4008129338	广东省	茂名市	化州市	110.602315	21.648702	110.59805429308048	21.6514866213774	110.602315 21.648702	汽车服务	充电站	充电站
广东电网充电站(南盛镇政府)	汽车服务;充电站;充电站	011100	南盛镇政府门前及大院内	[]	广东省	茂名市	化州市	110.718654	21.729392	110.71413518284952	21.732039572152075	110.718654 21.729392	汽车服务	充电站	充电站
永通汽车维修汽车充电站	汽车服务;充电站;充电站	011100	石鼓镇佛山大道129号	[]	广东省	茂名市	高州市	110.783224	21.827017	110.77865425221032	21.82970864962624	110.783224 21.827017	汽车服务	充电站	充电站
石鼓服务区电动汽车充电站	汽车服务;充电站;充电站	011100	石鼓镇石鼓服务区	4000053636	广东省	茂名市	高州市	110.794999	21.773547	110.79044007329604	21.776230543339803	110.794999 21.773547	汽车服务	充电站	充电站
电动汽车充电站(建设中)	汽车服务;充电站;充电站	011100	S14汕湛高速与石鼓服务区交叉口西660米	[]	广东省	茂名市	高州市	110.792381	21.77194	110.78782010148733	21.774619044498937	110.792381 21.77194	汽车服务	充电站	充电站
广东电网充电站(茂名市高州石鼓供电所)	汽车服务;充电站;充电站	011100	石鼓镇627乡道黑坭山村东南方向约1.49公里	[]	广东省	茂名市	高州市	110.785066	21.830674	110.78049699955348	21.83336951991844	110.785066 21.830674	汽车服务	充电站	充电站
共创镇江正沣超市充电站	汽车服务;充电站;充电站	011100	X632(镇江镇人民路)	[]	广东省	茂名市	高州市	110.703417	21.865079	110.69892300047415	21.86780692078626	110.703417 21.865079	汽车服务	充电站	充电站
共创石鼓镇佛山大道充电站	汽车服务;充电站;充电站	011100	G207(锡海线)	[]	广东省	茂名市	高州市	110.783842	21.826847	110.77927257044638	21.82953929901421	110.783842 21.826847	汽车服务	充电站	充电站
共创汽车充电站	汽车服务;充电站;充电站	011100	江湖镇湖边村	[]	广东省	茂名市	化州市	110.602963	21.865662	110.5986899962916	21.86853730435721	110.602963 21.865662	汽车服务	充电站	充电站
广东电网充电站(茂名市茂南供电局鳌头供电所)	汽车服务;充电站;充电站	011100	613县道与西部快线交叉口西南300米	[]	广东省	茂名市	茂南区	110.878381	21.576297	110.87391358270966	21.57904553791204	110.878381 21.576297	汽车服务	充电站	充电站
共创充电站(鳌头镇合岗开发区)	汽车服务;充电站;充电站	011100	鳌头镇613县道旁	[]	广东省	茂名市	茂南区	110.877442	21.575719	110.8729744149256	21.57846646733609	110.877442 21.575719	汽车服务	充电站	充电站
共创新能源汽车充电站	汽车服务;充电站;充电站	011100	X624与进园路交叉口西北方向30米	[]	广东省	茂名市	茂南区	110.855054	21.640908	110.85056929917528	21.64364639448269	110.855054 21.640908	汽车服务	充电站	充电站
共创充电站(油城二路愛车世家)	汽车服务;充电站;充电站	011100	油城二路大山岭村口(柯亚权房屋)	[]	广东省	茂名市	茂南区	110.863031	21.673635	110.85855100267584	21.67639716203304	110.863031 21.673635	汽车服务	充电站	充电站
驿充电新能源汽车充电站(茂名市公馆汽车分站)	汽车服务;充电站;充电站	011100	公馆汽车分站	4008129338	广东省	茂名市	茂南区	110.845938	21.681085	110.84144184019864	21.683822323850208	110.845938 21.681085	汽车服务	充电站	充电站
茂名交投客运中心站充电站	汽车服务;充电站;充电站	011100	茂名交投集团客运中心站内	[]	广东省	茂名市	茂南区	110.925828	21.645224	110.92131615207911	21.64799310488324	110.925828 21.645224	汽车服务	充电站	充电站
茂名交投茂名火车站南广场西侧汽车充电站	汽车服务;充电站;充电站	011100	茂名市火车站南广场西侧内	[]	广东省	茂名市	茂南区	110.927917	21.640855	110.9234011560397	21.643620265227725	110.927917 21.640855	汽车服务	充电站	充电站
驿充电充电站(茂名交投客运中心)	汽车服务;充电站;充电站	011100	站前四路4号茂名交投集团客运中心站内	4008129338	广东省	茂名市	茂南区	110.925886	21.645197	110.92137403863232	21.64796603327813	110.925886 21.645197	汽车服务	充电站	充电站
广东电网充电站(电力监理公司)	汽车服务;充电站;充电站	011100	新福一路电力监理公司	[]	广东省	茂名市	茂南区	110.923045	21.649349	110.9185382481331	21.65212235045498	110.923045 21.649349	汽车服务	充电站	充电站
广东电网充电站(粤恒力输变电工程有限公司)	汽车服务;充电站;充电站	011100	站前街道新福一路茂名天和商务酒店	[]	广东省	茂名市	茂南区	110.918728	21.63601	110.9142295222507	21.63878244150293	110.918728 21.63601	汽车服务	充电站	充电站
驿充电充电站(茂名交投南广场西)	汽车服务;充电站;充电站	011100	站南路茂名站	4008129338	广东省	茂名市	茂南区	110.9279	21.641024	110.92338418190069	21.643789342878083	110.9279 21.641024	汽车服务	充电站	充电站
共创江夏饭店汽车充电站	汽车服务;充电站;充电站	011100	茂南大道138号	13413346608	广东省	茂名市	茂南区	110.923554	21.631547	110.91904729963652	21.634313774327847	110.923554 21.631547	汽车服务	充电站	充电站
共创新能源汽车充电站(共创茂名市万顺分公司充电站点)	汽车服务;充电站;充电站	011100	站北路低埒村200号	13413346608	广东省	茂名市	茂南区	110.923372	21.64739	110.91886475125638	21.650162355475818	110.923372 21.64739	汽车服务	充电站	充电站
驿充电充电站(茂名粤恒力停车场站)	汽车服务;充电站;充电站	011100	茂南开发区城南路茂名市粤恒力输变电工程有限公司	4008129338	广东省	茂名市	茂南区	110.923075	21.648891	110.91856821836812	21.651664162156425	110.923075 21.648891	汽车服务	充电站	充电站
驿充电充电站(茂名交投南广场东)	汽车服务;充电站;充电站	011100	茂名站南广场地面东侧	4008129338	广东省	茂名市	茂南区	110.930536	21.640944	110.9260145431654	21.643706096116016	110.930536 21.640944	汽车服务	充电站	充电站
惠盈充电站(站前大道)	汽车服务;充电站;充电站	011100	站前大道(旁)屋仔埇村路口	[]	广东省	茂名市	茂南区	110.929646	21.634239	110.92512686143696	21.636999939623458	110.929646 21.634239	汽车服务	充电站	充电站
驿充电汽车充电站(茂名市人民广场东门)	汽车服务;充电站;充电站	011100	光华南路	4008129338	广东省	茂名市	茂南区	110.923987	21.650595	110.91947841645472	21.653367872836167	110.923987 21.650595	汽车服务	充电站	充电站
广东电网充电站(茂名市人民广场东门停车场)	汽车服务;充电站;充电站	011100	光华南路人民广场东门停车场内	[]	广东省	茂名市	茂南区	110.924028	21.651306	110.91951929891992	21.65407908133512	110.924028 21.651306	汽车服务	充电站	充电站
共创充电站(计星物流广场)	汽车服务;充电站;充电站	011100	站北二路	[]	广东省	茂名市	茂南区	110.912585	21.644685	110.90809518909846	21.64746419127844	110.912585 21.644685	汽车服务	充电站	充电站
小悦新能源充电站(万丰站)	汽车服务;充电站;充电站	011100	永福南四街398号	[]	广东省	茂名市	茂南区	110.916734	21.628098	110.91223913677754	21.630869205105	110.916734 21.628098	汽车服务	充电站	充电站
广东共创汽车充电站(茂名市石化大道共创充电站)	汽车服务;充电站;充电站	011100	工业大道博皇家居南侧约120米	[]	广东省	茂名市	茂南区	110.91246	21.631439	110.90797109718832	21.6342137464524	110.91246 21.631439	汽车服务	充电站	充电站
小悦e充茂南开发区汽车充电站	汽车服务;充电站;充电站	011100	茂南开发区工业大道旁大岭仔社区卫生服务站对面	[]	广东省	茂名市	茂南区	110.916731	21.628094	110.91223614162756	21.630865205771315	110.916731 21.628094	汽车服务	充电站	充电站
共创天和汽修厂充电站(暂停营业)	汽车服务;充电站;充电站	011100	站前六路168号	[]	广东省	茂名市	茂南区	110.939884	21.644685	110.9353397482096	21.64743457243872	110.939884 21.644685	汽车服务	充电站	充电站
驿充电充电站(茂名市公交总公司大院)	汽车服务;充电站;充电站	011100	光华南路59号	[]	广东省	茂名市	茂南区	110.924563	21.657839	110.9200529117278	21.660613852055608	110.924563 21.657839	汽车服务	充电站	充电站
共创充电站(碧水湾二期)	汽车服务;充电站;充电站	011100	红旗街道办高山路碧水湾二期水岸华庭	[]	广东省	茂名市	茂南区	110.906455	21.651509	110.90197211561068	21.65429264668333	110.906455 21.651509	汽车服务	充电站	充电站
共创充电站(碧水湾二期)	汽车服务;充电站;充电站	011100	茂名市站北一路	[]	广东省	茂名市	茂南区	110.906612	21.652604	110.90212888985268	21.655387999136163	110.906612 21.652604	汽车服务	充电站	充电站
共创新塘仔汽车充电站	汽车服务;充电站;充电站	011100	高凉南路帝琪浩景东侧约30米	13413346608	广东省	茂名市	茂南区	110.937719	21.656315	110.93317967294568	21.659072166807228	110.937719 21.656315	汽车服务	充电站	充电站
共创充电站(恒辉电器)	汽车服务;充电站;充电站	011100	双山五路恒辉电器旁	[]	广东省	茂名市	茂南区	110.935886	21.654516	110.93135133643274	21.6572753620976	110.935886 21.654516	汽车服务	充电站	充电站
广东电网充电站(茂名市市委大院)	汽车服务;充电站;充电站	011100	油城五路28号	[]	广东省	茂名市	茂南区	110.922273	21.662152	110.917766942114	21.664930604217112	110.922273 21.662152	汽车服务	充电站	充电站
共创充电站(车骑士石浪路口)	汽车服务;充电站;充电站	011100	工业大道与甲子大道交叉口东南约80米	[]	广东省	茂名市	茂南区	110.917461	21.623954	110.91296523471668	21.626723341979915	110.917461 21.623954	汽车服务	充电站	充电站
驿充电充电站(南香公园)	汽车服务;充电站;充电站	011100	名翠苑对面	4008129338	广东省	茂名市	茂南区	110.945568	21.650688	110.94100780076803	21.653429516666137	110.945568 21.650688	汽车服务	充电站	充电站
共创环市南路烽焕新能源汽车充电站	汽车服务;充电站;充电站	011100	环市南路与富文路交叉口东160米	[]	广东省	茂名市	茂南区	110.904132	21.627547	110.89965275058896	21.63032281920784	110.904132 21.627547	汽车服务	充电站	充电站
广东电网充电站(南香公园)	汽车服务;充电站;充电站	011100	西粤中路旁	[]	广东省	茂名市	茂南区	110.945506	21.651814	110.9409459147383	21.654556028930564	110.945506 21.651814	汽车服务	充电站	充电站
驿充电充电站(广东粤能公司停车场)	汽车服务;充电站;充电站	011100	迎宾三路199号大院	4008129338	广东省	茂名市	茂南区	110.93652	21.659395	110.93198350070966	21.66215513114081	110.93652 21.659395	汽车服务	充电站	充电站
驿充电新能源汽车充电站(文化广场)	汽车服务;充电站;充电站	011100	油城八路	4008129338	广东省	茂名市	茂南区	110.940799	21.660359	110.93625144473046	21.66311253758149	110.940799 21.660359	汽车服务	充电站	充电站
共创充电站(迎宾三路华海雅居)	汽车服务;充电站;充电站	011100	迎宾三路附近	[]	广东省	茂名市	茂南区	110.935172	21.658327	110.93063885820258	21.66108877916391	110.935172 21.658327	汽车服务	充电站	充电站
广东电网充电站(茂名市茂南新坡供电所)	汽车服务;充电站;充电站	011100	红旗南路与龙山路交叉口南约180米	[]	广东省	茂名市	茂南区	110.902288	21.662188	110.89780845470878	21.664975893815384	110.902288 21.662188	汽车服务	充电站	充电站
广东电网充电站(茂名市文化广场)	汽车服务;充电站;充电站	011100	广场南街	[]	广东省	茂名市	茂南区	110.938731	21.661536	110.93418879593392	21.66429340597472	110.938731 21.661536	汽车服务	充电站	充电站
驿充电充电站(茂名市粤能公司)	汽车服务;充电站;充电站	011100	红旗南路152号大院	[]	广东省	茂名市	茂南区	110.901472	21.661691	110.89699315658784	21.66447871472436	110.901472 21.661691	汽车服务	充电站	充电站
广东电网充电站(茂名市自然资源和规划局)	汽车服务;充电站;充电站	011100	迎宾四路163号	[]	广东省	茂名市	茂南区	110.94163	21.65963	110.93708025672362	21.6623818433672	110.94163 21.65963	汽车服务	充电站	充电站
共创新能源汽车充电站(共创迎宾四路茂名电视台专用充电点1)	汽车服务;充电站;充电站	011100	迎宾四路与西粤南路一街交叉口西北40米	[]	广东省	茂名市	茂南区	110.938725	21.6594	110.9341829317686	21.66215665125989	110.938725 21.6594	汽车服务	充电站	充电站
共创充电站	汽车服务;充电站;充电站	011100	双山七路与高水路交界右转弯广东共创纯电动车充电服务站	0668-2887823;0668-2885223;0668-3338988	广东省	茂名市	茂南区	110.948814	21.654207	110.9442440882521	21.65694340281637	110.948814 21.654207	汽车服务	充电站	充电站
共创新能源汽车充电站(高水路共创)	汽车服务;充电站;充电站	011100	河东街道办羊角镇南香村委会南香圹村(即南香塘村)高水公路与双山路交汇处旁	13413346608	广东省	茂名市	茂南区	110.948923	21.654259	110.94435275854433	21.656995201107804	110.948923 21.654259	汽车服务	充电站	充电站
云快充汽车充电站(茂名市茂名大道南香新世纪充电站)	汽车服务;充电站;充电站	011100	羊角镇茂名大道西南香村69号	4008288517	广东省	茂名市	茂南区	110.948826	21.647092	110.9442564546123	21.649825887239547	110.948826 21.647092	汽车服务	充电站	充电站
特斯拉超级充电站(东园大酒店)	汽车服务;充电站;充电站	011100	雅园官山四路33号酒店正门西侧1号车位	0668-2737888	广东省	茂名市	茂南区	110.933189	21.66967	110.92865992096613	21.67243871520508	110.933189 21.66967	汽车服务	充电站	充电站
共创充电站(车管家)	汽车服务;充电站;充电站	011100	人民北路	13413346608	广东省	茂名市	茂南区	110.918463	21.667806	110.91396317337744	21.67058980384517	110.918463 21.667806	汽车服务	充电站	充电站
小悦快充茂名石化汽车充电站	汽车服务;充电站;充电站	011100	红旗北路90号大院	[]	广东省	茂名市	茂南区	110.902347	21.680097	110.8978664033206	21.682891449292207	110.902347 21.680097	汽车服务	充电站	充电站
共创新能源汽车充电站(共创茂名市官山四路大宇汽车美容充电站点)	汽车服务;充电站;充电站	011100	官山四路北双山田村45号首层3号铺	13413346608	广东省	茂名市	茂南区	110.935552	21.670738	110.93101723807249	21.673503695716875	110.935552 21.670738	汽车服务	充电站	充电站
茂名建设路汽车充电站	汽车服务;充电站;充电站	011100	建设路52号内	[]	广东省	茂名市	茂南区	110.899122	21.665759	110.89464469545663	21.668548016680408	110.899122 21.665759	汽车服务	充电站	充电站
星星充电汽车充电站(广汽本田茂名锦伦店)	汽车服务;充电站;充电站	011100	高水路288号	4008280768	广东省	茂名市	茂南区	110.945918	21.685841	110.94135480858333	21.68859463988684	110.945918 21.685841	汽车服务	充电站	充电站
共创新能源汽车充电站(共创高山南庄新福垌村充电点)	汽车服务;充电站;充电站	011100	高山镇南庄新福垌村	13413346608	广东省	茂名市	茂南区	110.936998	21.664868	110.93246000357034	21.667629359286483	110.936998 21.664868	汽车服务	充电站	充电站
共创充电站(油九进达汽车广场)	汽车服务;充电站;充电站	011100	茂名大道	[]	广东省	茂名市	茂南区	110.947006	21.668343	110.94244064056996	21.671088056819613	110.947006 21.668343	汽车服务	充电站	充电站
驿充电新能源汽车充电站(茂名市金煲电动汽车)	汽车服务;充电站;充电站	011100	茂名大道名雅花园东侧约100米	4008129338	广东省	茂名市	茂南区	110.948331	21.666593	110.9437618300963	21.66933480471725	110.948331 21.666593	汽车服务	充电站	充电站
共创充电站(六韬珠宝创意产业园)	汽车服务;充电站;充电站	011100	水东镇迎宾大道北168号	13413346608	广东省	茂名市	电白区	111.027277	21.562237	111.02241417196204	21.564727175408745	111.027277 21.562237	汽车服务	充电站	充电站
驿充电充电站(电白区安达公司)	汽车服务;充电站;充电站	011100	电海街道迎宾大道北441号(大院内西侧)	4008129338	广东省	茂名市	电白区	111.012573	21.543866	111.0077685245214	21.546393362193005	111.012573 21.543866	汽车服务	充电站	充电站
共创充电站(南山埇田头尾村)	汽车服务;充电站;充电站	011100	田头尾村吉利汽车电白直营店门前	[]	广东省	茂名市	电白区	110.988721	21.539818	110.9840135799524	21.542416186038785	110.988721 21.539818	汽车服务	充电站	充电站
特来电充电站(茂名惠众大众)	汽车服务;充电站;充电站	011100	坡心镇茂名大道排河路口(茂名惠众汽车销售服务有限公司)大门入口右侧一,二排停车位	4001300001	广东省	茂名市	茂南区	110.959018	21.61702	110.95441767964412	21.619721438330146	110.959018 21.61702	汽车服务	充电站	充电站
共创茂名东高速路口汽车充电站	汽车服务;充电站;充电站	011100	林头镇参桥大渡头村	13727805111	广东省	茂名市	茂南区	111.025557	21.660339	111.02069491700706	21.662865009067023	111.025557 21.660339	汽车服务	充电站	充电站
共创充电站(茂名东高速收费出口)	汽车服务;充电站;充电站	011100	茂东快线	[]	广东省	茂名市	茂南区	111.025317	21.66025	111.0204558334434	21.662776641350128	111.025317 21.66025	汽车服务	充电站	充电站
共创充电站(茂东快线上河边村)	汽车服务;充电站;充电站	011100	茂东快线新城管区上河边村97号	[]	广东省	茂名市	茂南区	110.982602	21.66352	110.97791189934075	21.666174392060668	110.982602 21.66352	汽车服务	充电站	充电站
顺易充充电站(广东电网站茂名市羊角营业厅)	汽车服务;充电站;充电站	011100	羊角镇茂羊路151号羊角供电所	[]	广东省	茂名市	茂南区	110.977969	21.669687	110.97329667152052	21.67235693117676	110.977969 21.669687	汽车服务	充电站	充电站
共创充电站(油城十路)	汽车服务;充电站;充电站	011100	羊角镇油城十路飞碟汽车4S店	13413346608	广东省	茂名市	茂南区	110.960325	21.663382	110.95571761820094	21.666096160754428	110.960325 21.663382	汽车服务	充电站	充电站
共创茂名宏丰商业广场充电站	汽车服务;充电站;充电站	011100	油城十路宏丰新城北侧停车场	13413346608	广东省	茂名市	茂南区	110.951283	21.663119	110.94670506861732	21.665853489338645	110.951283 21.663119	汽车服务	充电站	充电站
电白服务区广东交通集团汽车充电站	汽车服务;充电站;充电站	011100	电白服务区与Ｇ１５沈海高速交叉口东北约180米	[]	广东省	茂名市	电白区	111.057371	21.62966	111.05240517328922	21.63210149585065	111.057371 21.62966	汽车服务	充电站	充电站
广东交通集团汽车充电站(茂湛高速电白东行)	汽车服务;充电站;充电站	011100	林头镇G15沈海高速电白服务区	[]	广东省	茂名市	电白区	111.057588	21.628436	111.05262165377076	21.63087670320431	111.057588 21.628436	汽车服务	充电站	充电站
共创充电站(高州路39号)	汽车服务;充电站;充电站	011100	高州路39号	[]	广东省	茂名市	高州市	110.96874	21.772573	110.96409659103404	21.7753094112092	110.96874 21.772573	汽车服务	充电站	充电站
共创充电站(储良排方村)	汽车服务;充电站;充电站	011100	储良管理区排方村莫罗生屋门口	[]	广东省	茂名市	高州市	110.934268	21.806536	110.92972865912115	21.80935934330108	110.934268 21.806536	汽车服务	充电站	充电站
电动车汽车充电站	汽车服务;充电站;充电站	011100	X612茂南区山阁中心小学北侧约220米	[]	广东省	茂名市	茂南区	110.934102	21.724169	110.9295677072272	21.72695739435707	110.934102 21.724169	汽车服务	充电站	充电站
共创充电站(南山村)	汽车服务;充电站;充电站	011100	分界镇617县道附近	[]	广东省	茂名市	高州市	110.985464	21.78975	110.98075525578628	21.792446941787844	110.985464 21.78975	汽车服务	充电站	充电站
汽车充电站泗水服务	汽车服务;充电站;充电站	011100	X632(和平路)	[]	广东省	茂名市	高州市	110.964281	21.850861	110.95964916442456	21.853644077597444	110.964281 21.850861	汽车服务	充电站	充电站
广东电网充电站(金塘营业厅)	汽车服务;充电站;充电站	011100	金塘镇正南街猪乸桥公交站南100米	[]	广东省	茂名市	茂南区	110.842402	21.743457	110.83789838780405	21.74621263896956	110.842402 21.743457	汽车服务	充电站	充电站
泗水停车区电动汽车充电站	汽车服务;充电站;充电站	011100	泗水镇S14汕湛高速泗水停车区	4000053636	广东省	茂名市	高州市	110.996403	21.822948	110.99164805139564	21.8256270460672	110.996403 21.822948	汽车服务	充电站	充电站
广东交通集团汽车充电站(包茂高速茂名南行)	汽车服务;充电站;充电站	011100	根子镇G65包茂高速茂名服务区	[]	广东省	茂名市	高州市	111.001857	21.781483	110.99708217512052	21.784127028530225	111.001857 21.781483	汽车服务	充电站	充电站
泗水停车区电动汽车充电站	汽车服务;充电站;充电站	011100	泗水镇S14汕湛高速泗水停车区	[]	广东省	茂名市	高州市	110.999119	21.82172	110.99435302376004	21.82439025754562	110.999119 21.82172	汽车服务	充电站	充电站
共创新能源汽车充电站(共创茂南区新坡镇黄塘村委会新圩村充电站点)	汽车服务;充电站;充电站	011100	新坡镇黄塘村委会新圩村	13413346608	广东省	茂名市	茂南区	110.921945	21.703997	110.91743718423078	21.70679158869064	110.921945 21.703997	汽车服务	充电站	充电站
广东交通集团汽车充电站(包茂高速茂名北行)	汽车服务;充电站;充电站	011100	Ｇ６５包茂高速与茂名服务区交叉口北约300米	[]	广东省	茂名市	高州市	111.004252	21.78144	110.99946739863064	21.784076755982	111.004252 21.78144	汽车服务	充电站	充电站
广东天路汽车充电站(汕湛高速泗水西行)	汽车服务;充电站;充电站	011100	泗水镇S14汕湛高速泗水停车区	4000053636	广东省	茂名市	高州市	110.997249	21.822512	110.99249062117224	21.825188285786364	110.997249 21.822512	汽车服务	充电站	充电站
中国南方电网汽车充电站	汽车服务;充电站;充电站	011100	高州市金山街道办	[]	广东省	茂名市	高州市	110.866652	21.818116	110.86216629400626	21.820943064852905	110.866652 21.818116	汽车服务	充电站	充电站
共创金山实验中学充电站	汽车服务;充电站;充电站	011100	S280(茂高快线)	[]	广东省	茂名市	高州市	110.87007	21.818901	110.86558612925408	21.8217327737382	110.87007 21.818901	汽车服务	充电站	充电站
高州根子城乡客运汽车充电站	汽车服务;充电站;充电站	011100	中兴街与益民路交叉口西南约80米	[]	广东省	茂名市	高州市	111.048193	21.798961	111.04324394360992	21.801487187901287	111.048193 21.798961	汽车服务	充电站	充电站
广东电网充电站(茂名市高州金山供电所)	汽车服务;充电站;充电站	011100	金山街道金星大道金山开发区旁	[]	广东省	茂名市	高州市	110.86445	21.816978	110.85996295259837	21.819801566396283	110.86445 21.816978	汽车服务	充电站	充电站
共创高州南塘路口南柳家具充电点	汽车服务;充电站;充电站	011100	207国道	[]	广东省	茂名市	高州市	110.814654	22.015197	110.8101014096329	22.01802580658366	110.814654 22.015197	汽车服务	充电站	充电站
共创大井汽车充电站	汽车服务;充电站;充电站	011100	大井镇207国道中石化对面	[]	广东省	茂名市	高州市	110.867881	22.08013	110.8633812206095	22.08308057087914	110.867881 22.08013	汽车服务	充电站	充电站
共创荷塘镇李强充电站	汽车服务;充电站;充电站	011100	荷塘镇加油站正对面	[]	广东省	茂名市	高州市	110.719564	21.999971	110.71502819926108	22.00274134315745	110.719564 21.999971	汽车服务	充电站	充电站
南方电网汽车充电站(高州营业厅)	汽车服务;充电站;充电站	011100	茂名大道70号	[]	广东省	茂名市	高州市	110.845027	21.902883	110.84051736567062	21.905715316262192	110.845027 21.902883	汽车服务	充电站	充电站
众源投资电动汽车充电站	汽车服务;充电站;充电站	011100	光明路广东高州中学初中校区东南侧约230米	[]	广东省	茂名市	高州市	110.857794	21.916274	110.85329626856866	21.919134088922995	110.857794 21.916274	汽车服务	充电站	充电站
中国南方电网电动汽车充电站	汽车服务;充电站;充电站	011100	高凉东路华厦玫瑰园南侧约190米	[]	广东省	茂名市	高州市	110.870769	21.916633	110.866279966563	21.91951123479833	110.870769 21.916633	汽车服务	充电站	充电站
万祺充电站	汽车服务;充电站;充电站	011100	S280(高水公路)	[]	广东省	茂名市	高州市	110.835644	21.885475	110.83112441677288	21.888281877222564	110.835644 21.885475	汽车服务	充电站	充电站
电动汽车充电站	汽车服务;充电站;充电站	011100	文笔路高州大酒店北侧	[]	广东省	茂名市	高州市	110.863777	21.91201	110.85928414480809	21.91487691685565	110.863777 21.91201	汽车服务	充电站	充电站
众源投资电动汽车充电站	汽车服务;充电站;充电站	011100	高凉东路中国石化加油站山美站东侧约110米	[]	广东省	茂名市	高州市	110.876093	21.921737	110.87160568876456	21.92462359581309	110.876093 21.921737	汽车服务	充电站	充电站
依威能源汽车充电站(高州碧桂园凤凰城天麓山商业街)	汽车服务;充电站;充电站	011100	宝光街道207国道西侧碧桂园凤凰城明湖超市门口车位碧桂园高州凤凰城一二期	4001800910	广东省	茂名市	高州市	110.839994	21.931181	110.83547701975353	21.93401763765352	110.839994 21.931181	汽车服务	充电站	充电站
众源投资电动汽车充电站	汽车服务;充电站;充电站	011100	东方大道笔架山森林公园停车场内	[]	广东省	茂名市	高州市	110.856104	21.892064	110.8516061565976	21.894909956154205	110.856104 21.892064	汽车服务	充电站	充电站
城东客运汽车充电站	汽车服务;充电站;充电站	011100	茂名大道328号	[]	广东省	茂名市	高州市	110.858559	21.897403	110.85406297866032	21.90025531695557	110.858559 21.897403	汽车服务	充电站	充电站
共创沙田守华汽车充电站	汽车服务;充电站;充电站	011100	沙田九牧美洁卫浴佛山照明灯饰	[]	广东省	茂名市	高州市	110.710929	21.903405	110.7064160310816	21.90614013971771	110.710929 21.903405	汽车服务	充电站	充电站
共创潭头村充电站	汽车服务;充电站;充电站	011100	潭头大坡村	[]	广东省	茂名市	高州市	110.870951	22.171182	110.86644763064452	22.174173641785494	110.870951 22.171182	汽车服务	充电站	充电站
依威能源汽车充电站(高州碧桂园凤凰城三期)	汽车服务;充电站;充电站	011100	207国道碧桂园高州凤凰城三期篮球场旁边车位碧桂园高州凤凰城三期	4001800910	广东省	茂名市	高州市	110.842624	21.9344	110.83810988109192	21.937242973255024	110.842624 21.9344	汽车服务	充电站	充电站
共创高州石板天猫汽车充电站	汽车服务;充电站;充电站	011100	石板镇开发区旁	[]	广东省	茂名市	高州市	110.713075	22.149447	110.70854356373876	22.152290453382623	110.713075 22.149447	汽车服务	充电站	充电站
高州市亿达快速充电站	汽车服务;充电站;充电站	011100	石仔岭大转盘西侧11米处	[]	广东省	茂名市	高州市	110.833289	21.885485	110.82876654900006	21.888287455755545	110.833289 21.885485	汽车服务	充电站	充电站
驿充电充电站(茂名交投高州旧站)	汽车服务;充电站;充电站	011100	先烈路与河西路交叉口西南约80米	4008129338	广东省	茂名市	高州市	110.844208	21.920025	110.83969648493073	21.9228639914246	110.844208 21.920025	汽车服务	充电站	充电站
壶垌汽车充电站	汽车服务;充电站;充电站	011100	S284茂石化(壶垌加油站)东侧约50米	[]	广东省	茂名市	化州市	110.62954	22.066294	110.62521897941006	22.06924331751963	110.62954 22.066294	汽车服务	充电站	充电站
驿充电充电站(高州冼太庙公园站)	汽车服务;充电站;充电站	011100	潘州街道冼园	4008129338	广东省	茂名市	高州市	110.857871	21.916455	110.85337332401438	21.919315294370232	110.857871 21.916455	汽车服务	充电站	充电站
驿充电充电站(高州市江铃汽车经营部)	汽车服务;充电站;充电站	011100	潘州街道凤铝铝材(益盛大酒店西)	4008129338	广东省	茂名市	高州市	110.842812	21.908402	110.83829956506666	21.91123295405184	110.842812 21.908402	汽车服务	充电站	充电站
驿充电充电站(中石化高州城东加油站)	汽车服务;充电站;充电站	011100	高凉东路与潘州东路交叉路口往东约50米	[]	广东省	茂名市	高州市	110.876249	21.921778	110.87176172992078	21.924664774988475	110.876249 21.921778	汽车服务	充电站	充电站
驿充电充电站(高州市新汽车省站)	汽车服务;充电站;充电站	011100	207国道	4008129338	广东省	茂名市	高州市	110.831788	21.899873	110.8272628928094	21.902679424007857	110.831788 21.899873	汽车服务	充电站	充电站
广东共创汽车充电站	汽车服务;充电站;充电站	011100	江湖镇连界车站农村商业银行连界分社旁边	18312185286	广东省	茂名市	化州市	110.638127	21.898482	110.63379757003456	21.90134125889842	110.638127 21.898482	汽车服务	充电站	充电站
共创府前路二小门前充电站	汽车服务;充电站;充电站	011100	府前北路288号	[]	广东省	茂名市	高州市	110.849368	21.901734	110.84486308930464	21.904573375283764	110.849368 21.901734	汽车服务	充电站	充电站
驿充电充电站(高州笔架山停车场)	汽车服务;充电站;充电站	011100	东方大道广东高州中学东南侧约60米	4008129338	广东省	茂名市	高州市	110.855982	21.891969	110.85148405264692	21.894814717186605	110.855982 21.891969	汽车服务	充电站	充电站
共创充电站(高州分公司)	汽车服务;充电站;充电站	011100	大地汽车城旁	[]	广东省	茂名市	高州市	110.833253	21.90439	110.82872943600778	21.90720133069762	110.833253 21.90439	汽车服务	充电站	充电站
南方电网汽车充电站	汽车服务;充电站;充电站	011100	茂岭大道高州市第五中学东南侧约220米	[]	广东省	茂名市	高州市	110.847706	21.892041	110.84319988995556	21.894872909789456	110.847706 21.892041	汽车服务	充电站	充电站
共创充电站(石仔岭)	汽车服务;充电站;充电站	011100	石仔岭街道坡心郭屋村	[]	广东省	茂名市	高州市	110.837437	21.88373	110.83291967298732	21.88653940285092	110.837437 21.88373	汽车服务	充电站	充电站
广东共创充电站	汽车服务;充电站;充电站	011100	挂榜路43号	[]	广东省	茂名市	高州市	110.84636	21.904939	110.84185171292708	21.90777465556429	110.84636 21.904939	汽车服务	充电站	充电站
共创化州宝圩邮政储蓄银行汽车充电站	汽车服务;充电站;充电站	011100	北宝路(宝圩邮政对面)	[]	广东省	茂名市	化州市	110.6696	22.165818	110.66517670922968	22.16874202330673	110.6696 22.165818	汽车服务	充电站	充电站
南方电网充电站税局北营业点	汽车服务;充电站;充电站	011100	高凉中路179号	[]	广东省	茂名市	高州市	110.855014	21.907266	110.85051431023938	21.910117411431376	110.855014 21.907266	汽车服务	充电站	充电站
共创东岸镇长坡路充电站	汽车服务;充电站;充电站	011100	新劲路与新石线交叉口西南约20米	[]	广东省	茂名市	高州市	110.962306	22.123664	110.95766538155726	22.12657737438954	110.962306 22.123664	汽车服务	充电站	充电站
潭头镇共创充电站	汽车服务;充电站;充电站	011100	G207(五里山南路)	[]	广东省	茂名市	高州市	110.873393	22.184664	110.86888989561234	22.187663460767634	110.873393 22.184664	汽车服务	充电站	充电站
进达汽车共创充电站(高州广场店)	汽车服务;充电站;充电站	011100	石仔岭大转盘进达汽车高州广场	[]	广东省	茂名市	高州市	110.834827	21.886449	110.8303063708547	21.88925480434388	110.834827 21.886449	汽车服务	充电站	充电站
运通城东充电站(高州市运通机动充电有限公司)	汽车服务;充电站;充电站	011100	茂名大道328号	13828600061	广东省	茂名市	高州市	110.858556	21.897425	110.8540599749168	21.900277322767003	110.858556 21.897425	汽车服务	充电站	充电站
广东天路汽车充电站(汕湛高速观珠北行)	汽车服务;充电站;充电站	011100	S61茂名港高速与观珠停车区交叉口西北260米	4000053636	广东省	茂名市	电白区	111.257609	21.690718	111.2526420899688	21.693327685981565	111.257609 21.690718	汽车服务	充电站	充电站
交通集团充电站(汕湛高速观珠南行)	汽车服务;充电站;充电站	011100	观珠镇S61茂名港高速观珠停车区	[]	广东省	茂名市	电白区	111.255422	21.690953	111.25045716982498	21.69356332973547	111.255422 21.690953	汽车服务	充电站	充电站
广东交通集团汽车充电站(汕湛高速观珠南行)	汽车服务;充电站;充电站	011100	S61茂名港高速与观珠停车区交叉口西北420米	4000053636	广东省	茂名市	电白区	111.255414	21.690948	111.25044917743732	21.693558329529484	111.255414 21.690948	汽车服务	充电站	充电站
充电站	汽车服务;充电站;充电站	011100	马踏镇龙湾管区三青塘二队14号	[]	广东省	茂名市	电白区	111.363945	21.65135	111.35874723649484	21.65378917293608	111.363945 21.65135	汽车服务	充电站	充电站
共创电汽车充电站	汽车服务;充电站;充电站	011100	３２５国道与Ｓ６１茂名港高速出口交叉口北约220米	[]	广东省	茂名市	电白区	111.230213	21.797491	111.2252523779424	21.800138858870323	111.230213 21.797491	汽车服务	充电站	充电站
共创新能源充电站(沈海高速马踏出入口)	汽车服务;充电站;充电站	011100	沈海高速马踏出入口	[]	广东省	茂名市	电白区	111.363927	21.651411	111.3587292699512	21.653850219732515	111.363927 21.651411	汽车服务	充电站	充电站
中国南方电网电动汽车充电站	汽车服务;充电站;充电站	011100	府前路与建设路交叉口东南约140米	[]	广东省	茂名市	电白区	111.221877	21.775622	111.2169159082077	21.77825302091741	111.221877 21.775622	汽车服务	充电站	充电站
广东电网充电站(观珠供电所)	汽车服务;充电站;充电站	011100	观珠镇观珠圩281省道旁加油站正对面	[]	广东省	茂名市	电白区	111.168106	21.695426	111.16309715659112	21.69793760076092	111.168106 21.695426	汽车服务	充电站	充电站
驿充电充电站(茂名交投沙琅站)	汽车服务;充电站;充电站	011100	沙琅汽车客运站	4008129338	广东省	茂名市	电白区	111.222613	21.783794	111.21765167398316	21.78642931067749	111.222613 21.783794	汽车服务	充电站	充电站
汽车充电站	汽车服务;充电站;充电站	011100	林头大衙荔园三路38号	13413346608	广东省	茂名市	电白区	111.130196	21.626076	111.12515407605288	21.62850030631936	111.130196 21.626076	汽车服务	充电站	充电站
广东共创新能源汽车充电站	汽车服务;充电站;充电站	011100	281省道西50米	[]	广东省	茂名市	电白区	111.208234	21.767964	111.20326556544374	21.770575153385096	111.208234 21.767964	汽车服务	充电站	充电站
云快充霞林充电站	汽车服务;充电站;充电站	011100	霞洞镇大村车尾沟村路口对面	18898629382	广东省	茂名市	电白区	111.096909	21.707856	111.09186660295936	21.71028907189719	111.096909 21.707856	汽车服务	充电站	充电站
共创充电站(荔园三路38号)	汽车服务;充电站;充电站	011100	林头镇大衙荔园三路38	13413346608	广东省	茂名市	电白区	111.130591	21.626164	111.12554927969796	21.62858882384892	111.130591 21.626164	汽车服务	充电站	充电站
共创电白黄岭镇中海油充电点	汽车服务;充电站;充电站	011100	X634中海油加油站对面	[]	广东省	茂名市	电白区	111.153699	21.832711	111.14866465482665	21.83525441662215	111.153699 21.832711	汽车服务	充电站	充电站
共创电白霞洞镇霞北路充电点	汽车服务;充电站;充电站	011100	羊黄路与121乡道交叉口西280米	[]	广东省	茂名市	电白区	111.108664	21.736333	111.10361290715296	21.738779887316213	111.108664 21.736333	汽车服务	充电站	充电站
中国南方电网电动汽车充电站	汽车服务;充电站;充电站	011100	霞洞镇磨镰	[]	广东省	茂名市	电白区	111.098996	21.736569	111.09395016732454	21.739013600971475	111.098996 21.736569	汽车服务	充电站	充电站
云快充汽车充电站(云快充霞洞新河充电站)	汽车服务;充电站;充电站	011100	霞洞镇上河村委会旁	18898629382	广东省	茂名市	电白区	111.118135	21.719075	111.11308379647966	21.72152093104621	111.118135 21.719075	汽车服务	充电站	充电站
共创电白岭门镇鹿岭大路坡村充电站	汽车服务;充电站;充电站	011100	岭门镇鹿岭大路坡4组	[]	广东省	茂名市	电白区	111.391358	21.58185	111.3861213734461	21.584240258828	111.391358 21.58185	汽车服务	充电站	充电站
共创充电站(黄竹山霞洞路口2号)	汽车服务;充电站;充电站	011100	619县道与281省道交叉口	[]	广东省	茂名市	电白区	111.13516	21.705591	111.1301162956594	21.70805051862411	111.13516 21.705591	汽车服务	充电站	充电站
度度充充电站(茂名市电白麻岗营业厅)	汽车服务;充电站;充电站	011100	麻岗镇325国道旁边平头岭	[]	广东省	茂名市	电白区	111.173297	21.538349	111.16830407162315	21.540820029806483	111.173297 21.538349	汽车服务	充电站	充电站
共创高州大坡镇格力专卖店汽车充电站	汽车服务;充电站;充电站	011100	大坡镇贺口新村27号	[]	广东省	茂名市	高州市	111.240561	22.079499	111.23558207406658	22.082283235866257	111.240561 22.079499	汽车服务	充电站	充电站
高凉古丁村委会充电站	汽车服务;充电站;充电站	011100	７２４乡道与２８０省道交叉口西北约20米	[]	广东省	茂名市	高州市	111.194512	22.150126	111.18950773964296	22.15288882526366	111.194512 22.150126	汽车服务	充电站	充电站
汽车充电站	汽车服务;充电站;充电站	011100	云潭中学后面凤尾路	[]	广东省	茂名市	高州市	111.17631	21.876607	111.17130063144238	21.87921285546352	111.17631 21.876607	汽车服务	充电站	充电站
华美大理石充电站	汽车服务;充电站;充电站	011100	三观路与育贤路交叉口西南300米	[]	广东省	茂名市	高州市	111.171191	21.873362	111.16617535635685	21.87595664038581	111.171191 21.873362	汽车服务	充电站	充电站
共创大仁庙美家乐窗帘汽车充电站	汽车服务;充电站;充电站	011100	平山镇大仁庙与深镇镇路口、加油站旁	[]	广东省	茂名市	高州市	111.110542	22.142089	111.10546575650532	22.144720062329288	111.110542 22.142089	汽车服务	充电站	充电站
共创马贵镇充电点	汽车服务;充电站;充电站	011100	马贵镇名义美容院旁	[]	广东省	茂名市	高州市	111.302636	22.195689	111.29755811662538	22.1984729303996	111.302636 22.195689	汽车服务	充电站	充电站
广东交通集团汽车充电站(汕湛高速那霍西行)	汽车服务;充电站;充电站	011100	Ｓ１４汕湛高速与那霍服务区交叉口西南约360米	[]	广东省	茂名市	电白区	111.255742	21.889094	111.25076501191523	21.89179055305839	111.255742 21.889094	汽车服务	充电站	充电站
广东交通集团汽车充电站(汕湛高速那霍东行)	汽车服务;充电站;充电站	011100	那霍镇S14汕湛高速那霍服务区	[]	广东省	茂名市	电白区	111.255752	21.88672	111.25077514531137	21.88941543107187	111.255752 21.88672	汽车服务	充电站	充电站
共创汽车充电站	汽车服务;充电站;充电站	011100	吉祥路达北西环岛	[]	广东省	茂名市	信宜市	110.918104	22.345998	110.91356623894468	22.34905406418248	110.918104 22.345998	汽车服务	充电站	充电站
团结七路2号共创充电站	汽车服务;充电站;充电站	011100	团结七路8号	[]	广东省	茂名市	信宜市	110.926972	22.351116	110.92241769368074	22.35416482401664	110.926972 22.351116	汽车服务	充电站	充电站
建材街96号共创充电站	汽车服务;充电站;充电站	011100	建材街96号万彩装饰超市	13413346608	广东省	茂名市	信宜市	110.928214	22.336882	110.923657936948	22.33992661351127	110.928214 22.336882	汽车服务	充电站	充电站
高坡启梦幼儿园共创汽车充电站	汽车服务;充电站;充电站	011100	高坡圩启梦幼儿园旁边	[]	广东省	茂名市	信宜市	110.748665	22.376368	110.74406819093645	22.3792509561615	110.748665 22.376368	汽车服务	充电站	充电站
南方电网信宜体育公园充电站	汽车服务;充电站;充电站	011100	信宜体育公园旁	0668-8881033	广东省	茂名市	信宜市	110.942162	22.363568	110.93757055364712	22.36659704072533	110.942162 22.363568	汽车服务	充电站	充电站
共创充电站(西环岛)	汽车服务;充电站;充电站	011100	达北线开发区西环岛	[]	广东省	茂名市	信宜市	110.915409	22.34567	110.91087543962864	22.348727796307184	110.915409 22.34567	汽车服务	充电站	充电站
丰裕小店共创汽车充电站	汽车服务;充电站;充电站	011100	迎宾路362号丰裕小店	[]	广东省	茂名市	信宜市	110.934486	22.343293	110.9299154451144	22.346330655563484	110.934486 22.343293	汽车服务	充电站	充电站
城西粤桂路中飞钢材店共创汽车充电站	汽车服务;充电站;充电站	011100	城西中飞钢材	[]	广东省	茂名市	信宜市	110.916072	22.345898	110.91153743063288	22.348955429073225	110.916072 22.345898	汽车服务	充电站	充电站
塘面村广东共创汽车充电站	汽车服务;充电站;充电站	011100	东镇镇塘面塘面村	13413346608	广东省	茂名市	信宜市	110.937749	22.31987	110.93317173736064	22.322897775423822	110.937749 22.31987	汽车服务	充电站	充电站
宾客之家共创汽车充电站	汽车服务;充电站;充电站	011100	人民南路81号	[]	广东省	茂名市	信宜市	110.938298	22.346175	110.93371781321478	22.34920739033625	110.938298 22.346175	汽车服务	充电站	充电站
共创信宜市长运路29号电动汽车充电站	汽车服务;充电站;充电站	011100	长运路29号	0668-3338988	广东省	茂名市	信宜市	110.928208	22.352882	110.92365102683095	22.35592972954741	110.928208 22.352882	汽车服务	充电站	充电站
共创新能源汽车充电站	汽车服务;充电站;充电站	011100	玉湖东路342号	[]	广东省	茂名市	信宜市	110.953555	22.356955	110.9489300954815	22.359960328661536	110.953555 22.356955	汽车服务	充电站	充电站
迎宾大道68号共创充电站	汽车服务;充电站;充电站	011100	迎宾大道68号	[]	广东省	茂名市	信宜市	110.930068	22.350984	110.92550714017892	22.35402911105601	110.930068 22.350984	汽车服务	充电站	充电站
信宜环城东路汽车充电站	汽车服务;充电站;充电站	011100	环城东路294号	[]	广东省	茂名市	信宜市	110.958315	22.358393	110.95367440764774	22.361387804510496	110.958315 22.358393	汽车服务	充电站	充电站
广东电网充电站(信宜市城北加油)(暂停营业)	汽车服务;充电站;充电站	011100	城北加油站旁	[]	广东省	茂名市	信宜市	110.952095	22.369024	110.94747401478544	22.372034556047087	110.952095 22.369024	汽车服务	充电站	充电站
驿充电充电站(信宜市信能公司)	汽车服务;充电站;充电站	011100	电力街与迎宾大道北交叉口	[]	广东省	茂名市	信宜市	110.946486	22.364041	110.94188229694797	22.367062131956057	110.946486 22.364041	汽车服务	充电站	充电站
信宜文昌油厂共创汽车充电站	汽车服务;充电站;充电站	011100	文昌管理区油厂	[]	广东省	茂名市	信宜市	110.951154	22.382629	110.9465351594882	22.38564366570665	110.951154 22.382629	汽车服务	充电站	充电站
广东电网充电站(池洞供电所)	汽车服务;充电站;充电站	011100	６４９县道与３７１乡道交叉口西北约320米	[]	广东省	茂名市	信宜市	110.945463	22.434418	110.9408581704062	22.43744990254505	110.945463 22.434418	汽车服务	充电站	充电站
信宜分公司共创充电站	汽车服务;充电站;充电站	011100	G207(锡海线)	0668-8887708;18023972292	广东省	茂名市	信宜市	110.933183	22.313168	110.9286172679808	22.31620104441496	110.933183 22.313168	汽车服务	充电站	充电站
上诚地产共创汽车充电站	汽车服务;充电站;充电站	011100	G207(城南大道)	[]	广东省	茂名市	信宜市	110.934304	22.325606	110.92973490202932	22.328640256402053	110.934304 22.325606	汽车服务	充电站	充电站
华风充电站(信宜辣木鸡农庄站)	汽车服务;充电站;充电站	011100	信宜产业转移工业园(G207西)	[]	广东省	茂名市	信宜市	110.936967	22.303206	110.932392675113	22.30623109613257	110.936967 22.303206	汽车服务	充电站	充电站
驿充电充电站(中石化信宜城北加油站)	汽车服务;充电站;充电站	011100	城北加油站旁	4008129338	广东省	茂名市	信宜市	110.952118	22.369049	110.94749694113814	22.372059511036635	110.952118 22.369049	汽车服务	充电站	充电站
共创充电站(信宜分公司)	汽车服务;充电站;充电站	011100	207国道旁	[]	广东省	茂名市	信宜市	110.934182	22.312762	110.92961393434643	22.31579353703654	110.934182 22.312762	汽车服务	充电站	充电站
信宜分公司共创充电站	汽车服务;充电站;充电站	011100	207国道与375乡道交叉口西南580米	[]	广东省	茂名市	信宜市	110.928618	22.316255	110.92406227171746	22.31929466715829	110.928618 22.316255	汽车服务	充电站	充电站
城东梁宽塑料袋厂共创充电站	汽车服务;充电站;充电站	011100	樟坡水律塘	[]	广东省	茂名市	信宜市	110.973623	22.354045	110.96892764035348	22.356999860455307	110.973623 22.354045	汽车服务	充电站	充电站
共创充电站	汽车服务;充电站;充电站	011100	水口镇横茶小学对面	[]	广东省	茂名市	信宜市	110.92847	22.280076	110.9239166683832	22.28310680538853	110.92847 22.280076	汽车服务	充电站	充电站
汉宇充电站(三科山)	汽车服务;充电站;充电站	011100	207国道西侧	[]	广东省	茂名市	信宜市	110.932175	22.282223	110.9276133831506	22.28524967869304	110.932175 22.282223	汽车服务	充电站	充电站
城南金湖花园五小区共创充电站	汽车服务;充电站;充电站	011100	金湖花园五小区19号	13413346608	广东省	茂名市	信宜市	110.937443	22.338694	110.93286542559348	22.341726273413045	110.937443 22.338694	汽车服务	充电站	充电站
丁堡山背共创充电站	汽车服务;充电站;充电站	011100	丁堡镇山背安置区谭光武屋	[]	广东省	茂名市	信宜市	110.956401	22.312637	110.95176944262047	22.31562682052268	110.956401 22.312637	汽车服务	充电站	充电站
广东天路汽车充电站(云茂高速镇隆西行)	汽车服务;充电站;充电站	011100	镇隆镇镇隆服务区	4000053636	广东省	茂名市	信宜市	110.823002	22.251695	110.81844597223122	22.254633335362893	110.823002 22.251695	汽车服务	充电站	充电站
广东天路汽车充电站(云茂高速镇隆西行)	汽车服务;充电站;充电站	011100	[]	[]	广东省	茂名市	信宜市	110.824568	22.25134	110.8200139284802	22.254281184505874	110.824568 22.25134	汽车服务	充电站	充电站
广东天路汽车充电站(云茂高速镇隆东行)	汽车服务;充电站;充电站	011100		4000053636	广东省	茂名市	信宜市	110.823461	22.250544	110.81890560491554	22.253482853791265	110.823461 22.250544	汽车服务	充电站	充电站
镇隆镇恒畅机动车充电站	汽车服务;充电站;充电站	011100	镇隆镇玉津宴会酒店商铺	18814327712	广东省	茂名市	信宜市	110.873758	22.202797	110.8692539988741	22.205803338436223	110.873758 22.202797	汽车服务	充电站	充电站
共创新能源汽车充电站(共创信宜市上诚房地产开发有限公司充电点)	汽车服务;充电站;充电站	011100	２０７国道与江堤南路交叉口西南约160米	13413346608	广东省	茂名市	信宜市	110.934061	22.326014	110.92949245744092	22.32904869397611	110.934061 22.326014	汽车服务	充电站	充电站
共创充电站(大路山)	汽车服务;充电站;充电站	011100	荷花镇大路山村283省道附近	[]	广东省	茂名市	高州市	110.719894	22.276843	110.71534179575852	22.27972134933536	110.719894 22.276843	汽车服务	充电站	充电站
水口服务区广东交通集团汽车充电站	汽车服务;充电站;充电站	011100	水口镇G65包茂高速水口服务区	[]	广东省	茂名市	信宜市	110.94831	22.288388	110.94370529662442	22.291389162916136	110.94831 22.288388	汽车服务	充电站	充电站
水口玉都生态农庄充电站	汽车服务;充电站;充电站	011100	水口玉都生态农庄	[]	广东省	茂名市	信宜市	110.926251	22.261019	110.921703341908	22.26404698551853	110.926251 22.261019	汽车服务	充电站	充电站
(镇隆)共创新能源汽车充电站	汽车服务;充电站;充电站	011100	镇隆镇镇隆开发区圣隆四路1号	[]	广东省	茂名市	信宜市	110.87256	22.201508	110.8680556070964	22.20451254157124	110.87256 22.201508	汽车服务	充电站	充电站
共创充电电站	汽车服务;充电站;充电站	011100	怀乡永隆中心村	[]	广东省	茂名市	信宜市	111.03706	22.473568	111.03210723011507	22.47635256282537	111.03706 22.473568	汽车服务	充电站	充电站
汉宇充电站(翔天电子总公司)	汽车服务;充电站;充电站	011100	水口镇双胜路口翔天电子科技有限公司旁	[]	广东省	茂名市	信宜市	110.925481	22.273605	110.9209341523304	22.27663739085436	110.925481 22.273605	汽车服务	充电站	充电站
广东交通集团汽车充电站(包茂高速水口北行)	汽车服务;充电站;充电站	011100	水口镇G65包茂高速水口服务区	[]	广东省	茂名市	信宜市	110.948473	22.28614	110.94386793901488	22.289140246983347	110.948473 22.28614	汽车服务	充电站	充电站
池洞新一代汽车服务中心共创充电站	汽车服务;充电站;充电站	011100	池洞新一代汽车服务中心	18023972292	广东省	茂名市	信宜市	110.954045	22.407602	110.94941557527792	22.41061370841965	110.954045 22.407602	汽车服务	充电站	充电站
共创高州荷花镇府前二街充电站	汽车服务;充电站;充电站	011100	荷花镇府前二街32号	18038961075	广东省	茂名市	高州市	110.702814	22.24008	110.6983002023857	22.242970255243865	110.702814 22.24008	汽车服务	充电站	充电站
怀乡永隆中心村共创汽车充电站	汽车服务;充电站;充电站	011100	怀乡永隆中心村	[]	广东省	茂名市	信宜市	111.037078	22.473611	111.0321251643482	22.47639551932992	111.037078 22.473611	汽车服务	充电站	充电站
广东共创充电站	汽车服务;充电站;充电站	011100	G207(锡海线)旁边(南方电网公司对面直入50米右边)	[]	广东省	茂名市	信宜市	110.872567	22.201503	110.86806261024704	22.204507547824218	110.872567 22.201503	汽车服务	充电站	充电站
白云康正汽车充电站(信宜市镇隆镇恒畅机动车充电站-人和康正)	汽车服务;充电站;充电站	011100	镇隆镇玉津宴会酒店	13822299679	广东省	茂名市	信宜市	110.873894	22.202884	110.86939004350236	22.20589051866752	110.873894 22.202884	汽车服务	充电站	充电站
共创充电站(金牛湾开发区北区)	汽车服务;充电站;充电站	011100	G207(锡海线)	[]	广东省	茂名市	信宜市	110.9814	22.572276	110.97666155293716	22.575217757224543	110.9814 22.572276	汽车服务	充电站	充电站
南方电网充电站	汽车服务;充电站;充电站	011100	[]	[]	广东省	茂名市	信宜市	111.251066	22.379187	111.2460631960038	22.382066799628447	111.251066 22.379187	汽车服务	充电站	充电站
汽车充电站	汽车服务;充电站;充电站	011100	钱排服务中心旁	[]	广东省	茂名市	信宜市	111.251075	22.379241	111.2460721859772	22.38212080735179	111.251075 22.379241	汽车服务	充电站	充电站
蔚景云充电站(共创信宜市钱排镇钱新村委爱冲村)	汽车服务;充电站;充电站	011100	钱排镇钱新春村委爱冲村	[]	广东省	茂名市	信宜市	111.242671	22.383769	111.2376727803353	22.386648539269764	111.242671 22.383769	汽车服务	充电站	充电站
广东天路汽车充电站(云茂高速平塘东行)	汽车服务;充电站;充电站	011100	平塘服务区	[]	广东省	茂名市	信宜市	111.326025	22.451624	111.3208709906737	22.45442042447849	111.326025 22.451624	汽车服务	充电站	充电站
广东天路汽车充电站(云茂高速平塘西行)	汽车服务;充电站;充电站	011100	平塘服务区	[]	广东省	茂名市	信宜市	111.327546	22.456341	111.3223876491802	22.45913477158637	111.327546 22.456341	汽车服务	充电站	充电站
合水客运站共创充电站	汽车服务;充电站;充电站	011100	S280(环北路)	[]	广东省	茂名市	信宜市	111.422853	22.368446	111.4175591216559	22.371147228617456	111.422853 22.368446	汽车服务	充电站	充电站
广东电网充电站(洪冠供电所)	汽车服务;充电站;充电站	011100	洪冠镇621县道附近	[]	广东省	茂名市	信宜市	111.118261	22.476455	111.11316355908366	22.479167579034605	111.118261 22.476455	汽车服务	充电站	充电站
