url,name,address,price,building_num,apartment_num,year,building_type,property_fee,property_com,developer,wgs_lon,wgs_lat
https://bj.lianjia.com/xiaoqu/1111027379916/,天朗园,北京(朝阳奥林匹克公园)红军营南路天朗园,56627,3栋,410户,2005年建成 ,塔楼,3.45元/平米/月,北京北辰信和物业管理有限责任公司,北京北辰实业集团股份有限责任公司,116.40793536483886,40.03070724628178
https://bj.lianjia.com/xiaoqu/1111027380125/,天月园,北京(朝阳奥林匹克公园)红军营南路天月园,93262,7栋,559户,2004年建成 ,板楼,2.83元/平米/月,北京北辰信诚物业管理有限责任公司,北京北辰实业集团股份有限责任公司,116.40642545921935,40.02926040032786
https://bj.lianjia.com/xiaoqu/1111027380075/,天溪园,北京(朝阳奥林匹克公园)天溪园,87007,20栋,410户,2006年建成 ,板楼,2.8至2.85元/平米/月,北京北辰信和物业管理有限责任公司,北京北辰实业集团股份有限责任公司,116.40762347716085,40.034022919990214
https://bj.lianjia.com/xiaoqu/1111027381867/,倚林佳园,北京(朝阳奥林匹克公园)倚林佳园,102418,24栋,698户,2002年建成 ,板楼,2.2至2.55元/平米/月,北京金罗马物业管理有限公司,北京科林房地产开发有限公司,116.36596955453405,40.01331959690719
https://bj.lianjia.com/xiaoqu/1111027382002/,裕瑞轩,北京(朝阳奥林匹克公园)花虎沟36号,71825,1栋,255户,2003年建成 ,塔板结合,2.2元/平米/月,第一物业（北京）股份有限公司,北京裕发房地产开发有限公司,116.356903275904,40.01374286332267
https://bj.lianjia.com/xiaoqu/1111027379069/,融域嘉园,北京(朝阳奥林匹克公园)域清街2号院,98728,6栋,945户,2003年建成 ,板楼/平房,2.76元/平米/月,北京建工物业服务有限公司,北京建工集团有限责任公司,116.36138444682076,40.01539115738758
https://bj.lianjia.com/xiaoqu/1111027377676/,科学院,北京(朝阳奥林匹克公园)大屯路甲3号院,88249,3栋,150户,1975年建成 ,板楼,暂无信息,北京科住物业管理有限公司,中国科学院房产管理所,116.3732220840114,40.00065470962133
https://bj.lianjia.com/xiaoqu/1111027376531/,畅清园,北京(朝阳奥林匹克公园)花虎沟8号院,72751,3栋,415户,1999年建成 ,板楼,0.8元/平米/月,北京裕泰物业管理有限公司,北京裕泰房地产开发公司,116.36041626343581,40.01452360156871
https://bj.lianjia.com/xiaoqu/1111027380169/,万达大湖公馆,北京(朝阳奥林匹克公园)清林东路2号院,76537,2栋,738户,2008年建成 ,板楼,7元/平米/月,广东碧桂园物业管理有限公司,北京万达广场房地产开发有限公司,116.39931741705513,40.03566373279258
https://bj.lianjia.com/xiaoqu/1111027374466/,国奥村,北京(朝阳奥林匹克公园)林萃东路1号院、林翠东路2号院,134669,43栋,1887户,2007年建成 ,板楼,3.5元/平米/月,深圳长城物业集团股份有限公司北京分公司,国奥投资发展有限公司,116.37212658367419,40.00659080365326
https://bj.lianjia.com/xiaoqu/1111027378943/,汽修一厂宿舍,北京(朝阳奥林匹克公园)花虎沟2号院,68120,6栋,454户,1980年建成 ,板楼,0.3元/平米/月,首华物业公司,无开发商,116.35895528134733,40.01024733818864
https://bj.lianjia.com/xiaoqu/1111027377768/,林萃路10号院,北京(朝阳奥林匹克公园)林萃路10号院,70412,4栋,492户,1995年建成 ,板楼,0.68元/平米/月,北青安物业,北京敬远房地产经纪有限公司,116.36839405772017,40.0093013161842
https://bj.lianjia.com/xiaoqu/1111027379785/,天翠园,北京(朝阳奥林匹克公园)天翠园,91013,9栋,404户,2006年建成 ,塔楼/板楼/塔板结合,2.85至2.9元/平米/月,北京北辰信和物业管理有限责任公司,北京北辰房地产开发股份有限公司,116.40675592184365,40.03500043340149
https://bj.lianjia.com/xiaoqu/1111027375621/,澳林春天六期,北京(朝阳奥林匹克公园)林萃西里,106613,3栋,264户,2003年建成 ,板楼,3.5元/平米/月,北京城市绿洲物业管理有限公司,北京旭日房地产开发有限责任公司,116.36570010359591,40.009305646659
https://bj.lianjia.com/xiaoqu/1111027375623/,澳林春天四期,北京(朝阳奥林匹克公园)林萃西里,107678,4栋,636户,2000年建成 ,板楼/平房,2.5元/平米/月,北京林萃物业管理有限责任公司,北京旭日房地产开发有限责任公司,116.36800733979132,40.01078900138891
https://bj.lianjia.com/xiaoqu/1111027375613/,澳景花庭,北京(朝阳奥林匹克公园)花虎沟八号院,82321,8栋,561户,2004年建成 ,板楼,2.6元/平米/月,北京瑞赢酒店物业管理有限公司,北京裕泰房地产开发公司,116.35905631269206,40.0147157134206
https://bj.lianjia.com/xiaoqu/1111027377378/,京师园,北京(朝阳奥林匹克公园)林萃路9号院,103293,5栋,1435户,2004年建成 ,塔楼/塔板结合,1.8元/平米/月,北京京师大物业管理有限公司,北京京师大房地产开发有限公司,116.36603267172353,40.01549503781391
https://bj.lianjia.com/xiaoqu/1111027376262/,北苑路甲15号院,北京(朝阳奥林匹克公园)朝阳区北苑路甲15号院,48089,2栋,84户,1998年建成 ,板楼,0.5元/平米/月,暂无信息,无,116.40997183954426,40.02290003160561
https://bj.lianjia.com/xiaoqu/1111027375014/,花虎沟9号院,北京(朝阳奥林匹克公园)花虎沟9号院,43142,3栋,202户,1996年建成 ,板楼,0.5元/平米/月,单位自管物业,无开发商,116.35736266348711,40.013095144907346
https://bj.lianjia.com/xiaoqu/1111027379786/,天畅园,北京(朝阳奥林匹克公园)红军营南路,60251,8栋,1800户,2008年建成 ,塔楼/板楼,2.86元/平米/月,北京北辰信和物业管理有限公司,北京北辰实业集团股份有限责任公司,116.4099594709704,40.03162697002367
https://bj.lianjia.com/xiaoqu/1111046528534/,紫御华府,"北京(朝阳奥林匹克公园)奥林匹克森林公园北侧, 安立路7号院",107550,8栋,270户,2013年建成 ,板楼,10元/平米/月,北京京悦物业管理有限公司,金力房地产开发有限公司,116.40493202798658,40.03831048665177
https://bj.lianjia.com/xiaoqu/1111027379663/,上元君庭,北京(朝阳奥林匹克公园)安立路28号院,77761,20栋,1849户,2004年建成 ,塔楼/板楼/塔板结合,3.05至4.25元/平米/月,北京万科物业管理有限公司,凯德置地（中国）投资有限公司,116.40650702309001,40.02386600155212
https://bj.lianjia.com/xiaoqu/1111027378320/,美伦堡,北京(朝阳奥林匹克公园)科荟路51号院,107156,12栋,409户,2008年建成 ,板楼,3.5元/平米/月,北京达文物业管理有限公司,北京和达创建置业有限公司,116.3642027595947,40.009111585490984
https://bj.lianjia.com/xiaoqu/1111027375625/,澳林春天一期,北京(朝阳奥林匹克公园)林萃西里,77876,5栋,558户,1999年建成 ,板楼,0.69元/平米/月,北京林萃物业管理有限责任公司,北京旭日房地产开发有限责任公司,116.36230714438757,40.010949943103896
https://bj.lianjia.com/xiaoqu/1111027380342/,万科星园,北京(朝阳奥林匹克公园)仰山路万科星园,85584,17栋,2232户,2000年建成 ,塔楼/板楼/塔板结合,3.38至5元/平米/月,北京万科物业管理有限公司,北京万科企业有限公司,116.40621050820917,40.025759055469344
https://bj.lianjia.com/xiaoqu/1111027375624/,澳林春天五期,北京(朝阳奥林匹克公园)林萃西里,74788,2栋,580户,2005年建成 ,塔楼,1.98元/平米/月,北京城市绿洲物业管理有限公司,北京旭日房地产开发有限责任公司,116.36297242714407,40.01482214652297
https://bj.lianjia.com/xiaoqu/1111027374298/,拂林园,北京(朝阳奥林匹克公园)北苑路拂林园,66836,18栋,1744户,2000年建成 ,塔楼/板楼/塔板结合,1.43至2.24元/平米/月,北京北辰信和物业管理有限公司,北京北辰实业集团股份有限责任公司,116.40874039645591,40.026474850618534
https://bj.lianjia.com/xiaoqu/1111027381159/,学士居,北京(朝阳奥林匹克公园)双泉堡甲10号院,81904,5栋,283户,1998年建成 ,塔楼/板楼,0.82至1.48元/平米/月,法政物业公司,北京华阳地产,116.35948658498457,40.00883282420825
https://bj.lianjia.com/xiaoqu/1111027379363/,世纪龙祥嘉园,北京(朝阳奥林匹克公园)世纪龙祥嘉园,63630,9栋,1014户,2001年建成 ,塔楼/板楼,1.68元/平米/月,北京清林物业管理有限责任公司,北京世纪龙祥房地产开发有限公司,116.39723351191928,40.03464567883454
https://bj.lianjia.com/xiaoqu/1111027379917/,天乐园,北京(朝阳奥林匹克公园)天乐园,81469,6栋,504户,2004年建成 ,板楼/塔板结合,2.79至2.82元/平米/月,北京北辰信和物业管理有限责任公司,北京北辰实业集团股份有限责任公司,116.40648568052714,40.03296688075099
https://bj.lianjia.com/xiaoqu/1111027382002/,裕瑞轩,北京(朝阳奥林匹克公园)花虎沟36号,71825,1栋,255户,2003年建成 ,塔板结合,2.2元/平米/月,第一物业（北京）股份有限公司,北京裕发房地产开发有限公司,116.356903275904,40.01374286332267
https://bj.lianjia.com/xiaoqu/1111027376262/,北苑路甲15号院,北京(朝阳奥林匹克公园)朝阳区北苑路甲15号院,48089,2栋,84户,1998年建成 ,板楼,0.5元/平米/月,暂无信息,无,116.40997183954426,40.02290003160561
https://bj.lianjia.com/xiaoqu/1111027375613/,澳景花庭,北京(朝阳奥林匹克公园)花虎沟八号院,82321,8栋,561户,2004年建成 ,板楼,2.6元/平米/月,北京瑞赢酒店物业管理有限公司,北京裕泰房地产开发公司,116.35905631269206,40.0147157134206
https://bj.lianjia.com/xiaoqu/1111027377378/,京师园,北京(朝阳奥林匹克公园)林萃路9号院,103293,5栋,1435户,2004年建成 ,塔楼/塔板结合,1.8元/平米/月,北京京师大物业管理有限公司,北京京师大房地产开发有限公司,116.36603267172353,40.01549503781391
https://bj.lianjia.com/xiaoqu/1111046528534/,紫御华府,"北京(朝阳奥林匹克公园)奥林匹克森林公园北侧, 安立路7号院",107550,8栋,270户,2013年建成 ,板楼,10元/平米/月,北京京悦物业管理有限公司,金力房地产开发有限公司,116.40493202798658,40.03831048665177
https://bj.lianjia.com/xiaoqu/1111027375622/,澳林春天三期,北京(朝阳奥林匹克公园)林萃西里,85417,12栋,558户,2002年建成 ,板楼/塔板结合,0.68元/平米/月,北京林萃物业管理有限责任公司,北京旭日房地产开发有限责任公司,116.36511253649132,40.01096345604308
https://bj.lianjia.com/xiaoqu/1111027379786/,天畅园,北京(朝阳奥林匹克公园)红军营南路,60251,8栋,1800户,2008年建成 ,塔楼/板楼,2.86元/平米/月,北京北辰信和物业管理有限公司,北京北辰实业集团股份有限责任公司,116.4099594709704,40.03162697002367
https://bj.lianjia.com/xiaoqu/1111027379663/,上元君庭,北京(朝阳奥林匹克公园)安立路28号院,77761,20栋,1849户,2004年建成 ,塔楼/板楼/塔板结合,3.05至4.25元/平米/月,北京万科物业管理有限公司,凯德置地（中国）投资有限公司,116.40650702309001,40.02386600155212
https://bj.lianjia.com/xiaoqu/1111027379785/,天翠园,北京(朝阳奥林匹克公园)天翠园,91013,9栋,404户,2006年建成 ,塔楼/板楼/塔板结合,2.85至2.9元/平米/月,北京北辰信和物业管理有限责任公司,北京北辰房地产开发股份有限公司,116.40675592184365,40.03500043340149
https://bj.lianjia.com/xiaoqu/1111027380169/,万达大湖公馆,北京(朝阳奥林匹克公园)清林东路2号院,76537,2栋,738户,2008年建成 ,板楼,7元/平米/月,广东碧桂园物业管理有限公司,北京万达广场房地产开发有限公司,116.39931741705513,40.03566373279258
https://bj.lianjia.com/xiaoqu/11000000007014/,中东路121号院一区,北京(昌平奥林匹克公园)昌平区中东路121号,暂无参考均价,7栋,1299户,2019年建成 ,板楼/塔板结合,1元/平米/月,暂无信息,暂无信息,116.38002254524486,40.0547853891842
https://bj.lianjia.com/xiaoqu/1111027375733/,北辰首作,北京(朝阳奥林匹克公园)北苑路甲13号院,36164,2栋,520户,2009年建成 ,塔楼,12至20元/平米/月,上港（北京）物业管理有限公司,北京北辰实业集团股份有限责任公司,116.41100847220686,40.03034809875281
https://bj.lianjia.com/xiaoqu/1111043363259/,红军营南路,北京(朝阳奥林匹克公园)红军营南路,暂无参考均价,4栋,33户,暂无信息 ,板楼,暂无信息,暂无信息,暂无信息,116.40483885844542,40.031573426027784
https://bj.lianjia.com/xiaoqu/1111027375012/,花虎沟11号院,北京(朝阳奥林匹克公园)花虎沟11号院,暂无参考均价,3栋,190户,2001年建成 ,板楼/塔板结合,暂无信息,单位自管物业, 大理耀鹏房地产开发有限责任公司,116.359071628274,40.01380914989155
https://bj.lianjia.com/xiaoqu/1113358300934099/,燕青小区,北京(昌平北七家)回南路166号院,36855,15栋,147户,1996年建成 ,板楼,1至1.8元/平米/月,北京嘉信瑞德物业管理有限公司,廊坊市燕青房地产开发有限公司,116.43645319337118,40.08509643647206
https://bj.lianjia.com/xiaoqu/1120066655799819/,翡翠公园四期,北京(昌平北七家)七星路翡翠公园四期,69856,4栋,132户,2018年建成 ,板楼,4.55元/平米/月,暂无信息,暂无信息,116.42575622035766,40.10533001311227
https://bj.lianjia.com/xiaoqu/1120066686203954/,翡翠公园五期,"北京(昌平北七家)七星路翡翠公园五期,卓兴路4号院",83261,15栋,384户,2018年建成 ,板楼,4.55元/平米/月,暂无信息,暂无信息,116.4236466539559,40.10345393491747
https://bj.lianjia.com/xiaoqu/1120024473011013/,东方蓝海中心,北京(昌平北七家)昌平 - 北七家,62280,9栋,404户,2018年建成 ,板楼/塔板结合,4.55元/平米/月,北京未来创客科技有限责任公司,北京东方蓝海置业有限责任公司,116.46467623189699,40.11248436893013
https://bj.lianjia.com/xiaoqu/1111027373910/,渡上一期,北京(昌平北七家)依水庄园一期,49859,22栋,29户,2004年建成 ,板楼,3.8至4.9元/平米/月,北京华泰物业管理有限责任公司,北京泰格经济开发公司,116.39943659580756,40.13621749092892
https://bj.lianjia.com/xiaoqu/1111027380393/,威尼斯花园B区,北京(昌平北七家)水韵风情庄园二区,35157,28栋,147户,2004年建成 ,板楼,4元/平米/月,北京天和佳祥物业管理有限公司,北京市裕发东瑞房地产开发有限公司,116.41233296068033,40.10812887882687
https://bj.lianjia.com/xiaoqu/1111027380099/,桃园公寓,北京(昌平北七家)桃园公寓,25711,12栋,516户,1995年建成 ,板楼,1元/平米/月,北京百乐代之物业管理服务中心,北京中经商务公司,116.41142718888052,40.115827588367445
https://bj.lianjia.com/xiaoqu/1111027380195/,王府花园崇德府,北京(昌平北七家)王府花园崇德府,57292,40栋,41户,1993年建成 ,板楼,1.85元/平米/月,北京嘉信瑞德物业管理有限公司,北京王府基业置业有限公司,116.39790320449558,40.10424250385459
https://bj.lianjia.com/xiaoqu/1111027376846/,东方普罗旺斯二期,北京(昌平北七家)定泗路88号院,64839,49栋,49户,2004年建成 ,板楼,5.39元/平米/月,北京东方普罗旺斯物业管理有限公司,北京市八仙房地产开发有限责任公司,116.44518711338156,40.118809046551966
https://bj.lianjia.com/xiaoqu/1111027380193/,王府花园,北京(昌平北七家)立汤路7号,39250,131栋,779户,1993年建成 ,板楼,1.85元/平米/月,天津王府置业有限公司北京物业管理分公司,北京王府基业置业有限公司,116.39632830968254,40.10556733655004
https://bj.lianjia.com/xiaoqu/1111027380201/,王府花园宣仁府,北京(昌平北七家)王府花园宣仁府,51302,30栋,32户,1995年建成 ,板楼,1.85元/平米/月,北京宝地嘉物业管理有限责任公司,北京法政实业有限公司,116.39612188140607,40.104150062680716
https://bj.lianjia.com/xiaoqu/1111027380190/,王府公寓三区,北京(昌平北七家)王府公寓三区,30494,34栋,321户,1995年建成 ,板楼,1.5至2元/平米/月,北京法政实业总公司,北京法政实业有限公司,116.39915440670545,40.10465714277729
https://bj.lianjia.com/xiaoqu/1111027376193/,八仙别墅仙霞东里,北京(昌平北七家)八仙别墅仙霞东里,53693,207栋,330户,1994年建成 ,板楼/平房,1.3至1.5元/平米/月,暂无信息,兴城宇晨置业有限公司,116.44497501473997,40.11452872458559
https://bj.lianjia.com/xiaoqu/1111027380230/,王府园中园六区,北京(昌平北七家)园中园六区,26262,7栋,160户,1999年建成 ,板楼,2至2.4元/平米/月,北京法政王府物业管理中心,北京法政实业有限公司,116.39102385058766,40.10829245784005
https://bj.lianjia.com/xiaoqu/1120066726055999/,翡翠公园二期,"北京(昌平北七家)七星路翡翠公园二期,卓兴路6号院",76761,18栋,962户,2018年建成 ,板楼/塔板结合,4.55至8.9元/平米/月,暂无信息,暂无信息,116.42232011242606,40.10374242853859
https://bj.lianjia.com/xiaoqu/1111027376453/,长河玉墅,北京(昌平北七家)长河玉墅,42603,20栋,20户,2004年建成 ,板楼,4.6元/平米/月,暂无信息,北京北辰房地产开发股份有限公司,116.40379908303946,40.146640438265955
https://bj.lianjia.com/xiaoqu/1111027376848/,东方普罗旺斯一期,北京(昌平北七家)定泗路88号院,64738,61栋,62户,2005年建成 ,板楼,5.39元/平米/月,暂无信息,北京市八仙房地产开发有限责任公司,116.44519599804669,40.11848210994023
https://bj.lianjia.com/xiaoqu/1111027376432/,晨浩花园东区,北京(昌平北七家)晨浩花园东区,40300,10栋,74户,1998年建成 ,板楼,1.2元/平米/月,北京天和佳祥物业管理有限公司,北京北亚华欣置业有限公司销售分公司,116.44963274493679,40.11628956324489
https://bj.lianjia.com/xiaoqu/1111027378749/,蓬莱公寓西区,北京(昌平北七家)蓬莱公寓,29059,23栋,499户,1995年建成 ,板楼,1.35元/平米/月,北京蓬莱苑物业开发中心,北京蓬莱房地产开发中心,116.40903156764524,40.12298044943796
https://bj.lianjia.com/xiaoqu/1111027378396/,美树假日嘉园,北京(昌平北七家)北清路美树假日嘉园,40252,29栋,466户,2004年建成 ,板楼,1.6元/平米/月,北京当代物业管理有限责任公司,北京新普纪元房地产开发有限公司,116.41852080459074,40.10421015650903
https://bj.lianjia.com/xiaoqu/1111027378756/,蓬莱苑G区,北京(昌平北七家)蓬莱苑G区,51035,13栋,13户,1998年建成 ,板楼,1.8元/平米/月,北京九燕龙物业管理有限公司,暂无信息,116.44693379322882,40.1069632985298
https://bj.lianjia.com/xiaoqu/1111027380174/,望都家园,北京(昌平北七家)望都家园,35809,31栋,1823户,2000年建成 ,板楼,1.6元/平米/月,北京华泰物业管理有限责任公司,北京泰格经济开发公司,116.41117507882494,40.11522272479118
https://bj.lianjia.com/xiaoqu/1111027380232/,王府园中园三区,北京(昌平北七家)园中园三区,61819,53栋,54户,1996年建成 ,板楼,2.4元/平米/月,北京法政实业总公司,北京法政实业有限公司,116.39230107332708,40.105537841257046
https://bj.lianjia.com/xiaoqu/1111027380222/,王府温馨公寓,北京(昌平北七家)七北路王府温馨公寓,30572,38栋,1158户,1997年建成 ,板楼,1.5元/平米/月,北京法政王府物业管理中心,北京法政实业有限公司,116.38741503746103,40.10565257332284
https://bj.lianjia.com/xiaoqu/1111027378309/,名佳花园四区,北京(昌平北七家)七北路名佳花园四区,41380,14栋,1056户,2003年建成 ,板楼,1.3元/平米/月,北京信科物业管理有限公司,北京佳隆房地产开发有限公司,116.42065332010043,40.10040429303522
https://bj.lianjia.com/xiaoqu/1111027378308/,名佳花园一区,"北京(昌平北七家)北清路名佳花园一区, 北七家镇名佳花园",40076,27栋,1506户,1999年建成 ,板楼,1.3元/平米/月,北京信科物业管理有限公司,北京佳隆房地产开发有限公司,116.41656225340466,40.10358531605291
https://bj.lianjia.com/xiaoqu/1120028436341641/,融尚未来,北京(昌平北七家)未来科学城南区核心,69870,6栋,172户,2019年建成 ,板楼,2.1至4.14元/平米/月,北京金融街物业管理有限责任公司,北京未来科技城昌金置业有限公司,116.4593844136251,40.11690121081601
https://bj.lianjia.com/xiaoqu/1111027379845/,桃花苑,北京(昌平北七家)定泗路111号院,32695,9栋,157户,1995年建成 ,板楼,1.5元/平米/月,北京中兴物业管理有限公司,北京中兴恒业房地产开发中心,116.41538301218193,40.11618769186349
https://bj.lianjia.com/xiaoqu/1111027375939/,北京太阳城,"北京(昌平北七家)北京太阳城国际老年公寓, 立汤路30号",32597,71栋,1559户,2001年建成 ,板楼,2.5元/平米/月,北京宝氏华商物业管理有限公司,北京太阳城房地产开发有限公司,116.41215843723066,40.14889088382028
https://bj.lianjia.com/xiaoqu/1111027380872/,西湖新村,北京(昌平北七家)北七家镇,34866,30栋,1541户,1996年建成 ,板楼,1元/平米/月,北京含光物业管理有限公司,北京强龙房地产开发有限公司,116.40648086592003,40.117063352752325
https://bj.lianjia.com/xiaoqu/1111027374837/,冠雅苑,北京(昌平北七家)冠雅苑,33248,15栋,780户,1998年建成 ,板楼,1元/平米/月,北京商建房地产开发公司物业管理中心,北京商建房地产开发有限公司,116.40134285701667,40.11403415467931
https://bj.lianjia.com/xiaoqu/1111027375939/,北京太阳城,"北京(昌平北七家)北京太阳城国际老年公寓, 立汤路30号",32597,71栋,1559户,2001年建成 ,板楼,2.5元/平米/月,北京宝氏华商物业管理有限公司,北京太阳城房地产开发有限公司,116.41215843723066,40.14889088382028
https://bj.lianjia.com/xiaoqu/1111027380193/,王府花园,北京(昌平北七家)立汤路7号,39250,131栋,779户,1993年建成 ,板楼,1.85元/平米/月,天津王府置业有限公司北京物业管理分公司,北京王府基业置业有限公司,116.39632830968254,40.10556733655004
https://bj.lianjia.com/xiaoqu/1111027376250/,北亚花园,北京(昌平北七家)天权路北亚花园,33565,20栋,1716户,1998年建成 ,板楼,0.8元/平米/月,北京北亚天顺泉物业管理有限责任公司,北京亚宏房地产开发有限责任公司,116.41569072443471,40.128068547178735
https://bj.lianjia.com/xiaoqu/1111046302567/,金色漫香苑,北京(昌平北七家)天权路2号院,44625,28栋,1674户,2013年建成 ,板楼,2.8元/平米/月,北京金融街物业管理有限责任公司,北京金融街建设开发有限责任公司,116.42040623505743,40.12924789853143
https://bj.lianjia.com/xiaoqu/1111027380190/,王府公寓三区,北京(昌平北七家)王府公寓三区,30494,34栋,321户,1995年建成 ,板楼,1.5至2元/平米/月,北京法政实业总公司,北京法政实业有限公司,116.39915440670545,40.10465714277729
https://bj.lianjia.com/xiaoqu/1111027380395/,威尼斯花园D区,北京(昌平北七家)水韵风情庄园四区,32533,27栋,112户,2004年建成 ,板楼,2至3.35元/平米/月,暂无信息,北京市裕发东瑞房地产开发有限公司,116.41599285006922,40.10723267054084
https://bj.lianjia.com/xiaoqu/1111027380230/,王府园中园六区,北京(昌平北七家)园中园六区,26262,7栋,160户,1999年建成 ,板楼,2至2.4元/平米/月,北京法政王府物业管理中心,北京法政实业有限公司,116.39102385058766,40.10829245784005
https://bj.lianjia.com/xiaoqu/1111027380393/,威尼斯花园B区,北京(昌平北七家)水韵风情庄园二区,35157,28栋,147户,2004年建成 ,板楼,4元/平米/月,北京天和佳祥物业管理有限公司,北京市裕发东瑞房地产开发有限公司,116.41233296068033,40.10812887882687
https://bj.lianjia.com/xiaoqu/1111027374915/,海德堡花园,北京(昌平北七家)海德堡花园,40621,44栋,1336户,1997年建成 ,板楼,1.2至1.5元/平米/月,北京佳顺物业管理有限公司,北京龙洋房地产开发有限责任公司,116.44998221512745,40.10717594319496
https://bj.lianjia.com/xiaoqu/1111027378757/,蓬莱苑M区,北京(昌平北七家)蓬莱苑,43062,10栋,28户,1998年建成 ,板楼,1.8元/平米/月,北京蓬莱苑物业开发中心,北京蓬莱房地产开发中心,116.44338961002461,40.1082019229725
https://bj.lianjia.com/xiaoqu/1111027380246/,温哥华森林,"北京(昌平北七家)北五环外紧邻立汤路，北七家建材城向北第一个路口200米路东, 枫树家园6区, 枫树家园五区, 枫叶家园十区, 枫树家园九区, 枫树家园九区16号, 枫树家园五区7号",47493,198栋,302户,2003年建成 ,板楼/平房,4.3至4.83元/平米/月,暂无信息,北京枫树置业有限公司,116.40790830051368,40.135936074694335
https://bj.lianjia.com/xiaoqu/1111027380179/,望都新地二期,北京(昌平北七家)北七家镇立汤路60号院,43996,9栋,678户,2010年建成 ,塔楼/板楼,1.3至2.3元/平米/月,北京华泰物业管理有限责任公司,北京泰格经济开发公司,116.40846708264185,40.112147124024794
https://bj.lianjia.com/xiaoqu/1113358300934099/,燕青小区,北京(昌平北七家)回南路166号院,36855,15栋,147户,1996年建成 ,板楼,1至1.8元/平米/月,北京嘉信瑞德物业管理有限公司,廊坊市燕青房地产开发有限公司,116.43645319337118,40.08509643647206
https://bj.lianjia.com/xiaoqu/1120024473011013/,东方蓝海中心,北京(昌平北七家)昌平 - 北七家,62280,9栋,404户,2018年建成 ,板楼/塔板结合,4.55元/平米/月,北京未来创客科技有限责任公司,北京东方蓝海置业有限责任公司,116.46467623189699,40.11248436893013
https://bj.lianjia.com/xiaoqu/1114488312754189/,东二旗新村,北京(昌平北七家)定泗路218号院,39217,12栋,918户,2009年建成 ,板楼,1.8元/平米/月,北京兴业源物业管理有限公司,北京城建安顺置业有限公司,116.42613689158568,40.1143909208034
https://bj.lianjia.com/xiaoqu/1111027376432/,晨浩花园东区,北京(昌平北七家)晨浩花园东区,40300,10栋,74户,1998年建成 ,板楼,1.2元/平米/月,北京天和佳祥物业管理有限公司,北京北亚华欣置业有限公司销售分公司,116.44963274493679,40.11628956324489
https://bj.lianjia.com/xiaoqu/1111027376848/,东方普罗旺斯一期,北京(昌平北七家)定泗路88号院,64738,61栋,62户,2005年建成 ,板楼,5.39元/平米/月,暂无信息,北京市八仙房地产开发有限责任公司,116.44519599804669,40.11848210994023
https://bj.lianjia.com/xiaoqu/1111027378308/,名佳花园一区,"北京(昌平北七家)北清路名佳花园一区, 北七家镇名佳花园",40076,27栋,1506户,1999年建成 ,板楼,1.3元/平米/月,北京信科物业管理有限公司,北京佳隆房地产开发有限公司,116.41656225340466,40.10358531605291
https://bj.lianjia.com/xiaoqu/1111027378309/,名佳花园四区,北京(昌平北七家)七北路名佳花园四区,41380,14栋,1056户,2003年建成 ,板楼,1.3元/平米/月,北京信科物业管理有限公司,北京佳隆房地产开发有限公司,116.42065332010043,40.10040429303522
https://bj.lianjia.com/xiaoqu/1111027378317/,麦卡伦地,北京(昌平北七家)麦卡伦地,40919,80栋,80户,2003年建成 ,板楼,5.8至5.85元/平米/月,暂无信息,北京众益家园房地产开发有限公司,116.4056054286887,40.13885423519732
https://bj.lianjia.com/xiaoqu/1111027376193/,八仙别墅仙霞东里,北京(昌平北七家)八仙别墅仙霞东里,53693,207栋,330户,1994年建成 ,板楼/平房,1.3至1.5元/平米/月,暂无信息,兴城宇晨置业有限公司,116.44497501473997,40.11452872458559
https://bj.lianjia.com/xiaoqu/1111027380392/,威尼斯花园A区,北京(昌平北七家)水韵风情庄园一区,40594,26栋,88户,2004年建成 ,板楼,3至4元/平米/月,暂无信息,北京市裕发东瑞房地产开发有限公司,116.40990381095358,40.10824115390993
https://bj.lianjia.com/xiaoqu/1111027378753/,蓬莱苑D区,北京(昌平北七家)蓬莱苑D区,59487,11栋,11户,1998年建成 ,板楼,1.8至2元/平米/月,北京蓬莱苑物业开发中心,蓬莱开发有限公司,116.44310296743654,40.107327711862226
https://bj.lianjia.com/xiaoqu/1111027380200/,王府花园循礼府,北京(昌平北七家)王府花园循礼府,51515,15栋,15户,1995年建成 ,板楼,1.85至2元/平米/月,北京恒富物业管理有限公司, 重庆汇东房地产开发有限公司,116.39423294081111,40.106965370784806
https://bj.lianjia.com/xiaoqu/1111027380410/,温泉花园B区,北京(昌平北七家)东北路温泉花园B区,32445,54栋,2838户,1995年建成 ,板楼,0.5至0.8元/平米/月,北京宏翔鸿物业管理有限公司,北京强龙房地产开发有限公司,116.40959946302073,40.12627486081319
https://bj.lianjia.com/xiaoqu/1111027380234/,王府园中园一区,北京(昌平北七家)园中园一区,66580,34栋,34户,1996年建成 ,板楼,2.4元/平米/月,北京法政王府物业管理中心,暂无信息,116.38981965502126,40.10442711601096
https://bj.lianjia.com/xiaoqu/1120066654756920/,翡翠公园一期,北京(昌平北七家)七星路翡翠公园一期,72267,18栋,850户,2016年建成 ,板楼/塔板结合,4.45至4.55元/平米/月,北京万科物业管理有限公司,暂无信息,116.42037345255149,40.10583901683057
https://bj.lianjia.com/xiaoqu/1111027380178/,望都新地,"北京(昌平北七家)北七家立汤路与定泗路交汇东南角, 立汤路60号院",41038,26栋,1411户,2008年建成 ,板楼,1.3元/平米/月,北京华泰物业管理有限责任公司,北京泰格经济开发公司,116.40914258474095,40.112049268472106
https://bj.lianjia.com/xiaoqu/1111027376433/,晨浩花园西区,北京(昌平北七家)定泗路晨浩花园西区,35368,7栋,113户,1999年建成 ,板楼,1.2元/平米/月,北京北亚天顺泉物业管理有限责任公司,北京北亚华欣置业有限公司,116.44909196427307,40.116327155952746
https://bj.lianjia.com/xiaoqu/1111041177174/,王府花园合道府,北京(昌平北七家)北七家镇王府街7号,58665,40栋,41户,1995年建成 ,板楼,1.85至2.5元/平米/月,北京嘉信瑞德物业管理有限公司,北京王府基业置业有限公司,116.39520096586597,40.102622730437034
https://bj.lianjia.com/xiaoqu/1111027378748/,蓬莱公寓东区,北京(昌平北七家)蓬莱公寓东区,32623,27栋,706户,1999年建成 ,板楼,1.35元/平米/月,北京蓬莱苑物业开发中心,北京蓬莱房地产开发中心,116.41117230288012,40.123185387996664
https://bj.lianjia.com/xiaoqu/1111027380201/,王府花园宣仁府,北京(昌平北七家)王府花园宣仁府,51302,30栋,32户,1995年建成 ,板楼,1.85元/平米/月,北京宝地嘉物业管理有限责任公司,北京法政实业有限公司,116.39612188140607,40.104150062680716
https://bj.lianjia.com/xiaoqu/1111027381547/,燕城苑北区,"北京(昌平北七家)太海路燕城苑北区, 燕丹乡燕丹村北",33751,7栋,461户,1995年建成 ,板楼,0.55元/平米/月,北京城建物业管理有限责任公司,北京城建三房地产开发有限公司,116.43325583140799,40.09008735599755
https://bj.lianjia.com/xiaoqu/1111027378752/,蓬莱苑A区,北京(昌平北七家)蓬莱苑,65662,19栋,20户,1995年建成 ,板楼,1至1.8元/平米/月,北京蓬莱苑物业开发中心,北京蓬莱房地产开发中心,116.44682151208546,40.10801023330585
https://bj.lianjia.com/xiaoqu/1111063613701/,北辰红橡墅,北京(昌平北七家)立汤路与温榆河交界处,36979,91栋,236户,2013年建成 ,板楼/平房,4.98元/平米/月,暂无信息,北京天成天房地产开发有限公司,116.40072949924463,40.14224148621495
https://bj.lianjia.com/xiaoqu/1120025704395263/,金隅上城郡,"北京(昌平北七家)北亚花园东路,立汤路32号院（四区）25",43807,167栋,965户,2017年建成 ,板楼,2.61至6.93元/平米/月,暂无信息,北京大成昌润置业有限公司,116.41186371018877,40.145024528942486
https://bj.lianjia.com/xiaoqu/1114486864957072/,翡翠公园三期,北京(昌平北七家)北七家京承高速北七家出口向西3公里,77318,7栋,541户,2015年建成 ,板楼/塔板结合/平房,4.55元/平米/月,暂无信息,北京昌业房地产开发有限公司,116.42310164166277,40.105117017311514
https://bj.lianjia.com/xiaoqu/1120033936311455/,和悦华玺,北京(昌平北七家)北清路和悦华玺,暂无参考均价,11栋,982户,2021年建成 ,板楼,4.58元/平米/月,金地物业,暂无信息,116.41786070591307,40.09742463608977
https://bj.lianjia.com/xiaoqu/1120032824326957/,华润理想国,北京(昌平北七家)北七家镇华润理想国,暂无参考均价,12栋,917户,2020年建成 ,塔楼/板楼,1至4.85元/平米/月,北京华润物业管理有限公司,北京梓文房地产开发有限公司,116.41360126130817,40.10214826943302
https://bj.lianjia.com/xiaoqu/1111057886681/,北七佳园,北京(昌平北七家)北七佳园,暂无参考均价,8栋,1026户,2015年建成 ,板楼/塔板结合,1元/平米/月,北京含光物业管理有限公司,北京城建安顺置业有限公司,116.44341237082563,40.100560372503686
https://bj.lianjia.com/xiaoqu/1111027373703/,达华依云庄园,"北京(昌平北七家)定泗路238号院, 定泗路238号院三区",47590,33栋,33户,2005年建成 ,板楼,4.25元/平米/月,暂无信息,北京达华庄园房地产开发有限公司,116.45837434907841,40.11647358523361
https://bj.lianjia.com/xiaoqu/1111027376847/,东方普罗旺斯三期,北京(昌平北七家)定泗路88号院,56720,55栋,55户,2005年建成 ,板楼/平房,5.39元/平米/月,北京东方普罗旺斯物业管理有限公司,北京市八仙房地产开发有限责任公司,116.44524400036738,40.12098581472401
https://bj.lianjia.com/xiaoqu/1111027373827/,渡上二期,"北京(昌平北七家)依水庄园二期, 依水庄园二区",33593,17栋,23户,2004年建成 ,板楼,3.8至4.98元/平米/月,北京华泰物业管理有限责任公司,"""温州育英房地产开发有限公司",116.3991997879806,40.13484590992546
https://bj.lianjia.com/xiaoqu/1111027380196/,王府花园明义府,北京(昌平北七家)王府花园明义府,57954,41栋,41户,1995年建成 ,板楼,1.85元/平米/月,暂无信息,北京王府基业置业有限公司,116.39612620928395,40.1065977532429
https://bj.lianjia.com/xiaoqu/1111027380189/,王府公寓二区,北京(昌平北七家)王府公寓二区,50603,19栋,20户,1995年建成 ,板楼,2元/平米/月,北京法政王府物业管理中心,北京法政实业有限公司,116.40294712901924,40.10395966119715
https://bj.lianjia.com/xiaoqu/1111027378755/,蓬莱苑F区,北京(昌平北七家)蓬莱苑F区,51028,14栋,19户,1998年建成 ,板楼,1.8元/平米/月,暂无信息,广东丰泰集团有限公司公司,116.44663276524234,40.10641878030883
https://bj.lianjia.com/xiaoqu/1111027378754/,蓬莱苑E区,北京(昌平北七家)蓬莱苑E区,39064,11栋,11户,1998年建成 ,板楼,1.8元/平米/月,北京九燕龙物业管理有限公司,暂无信息,116.44522636660338,40.10663666000913
https://bj.lianjia.com/xiaoqu/1111027380191/,王府公寓四区,北京(昌平北七家)王府公寓四区,28386,7栋,64户,1995年建成 ,板楼,1.5元/平米/月,北京法政置地物业管理有限公司,北京法政实业有限公司,116.40395547931541,40.104137883886956
https://bj.lianjia.com/xiaoqu/1111027378750/,蓬莱苑C区,北京(昌平北七家)蓬莱苑,49675,5栋,5户,1998年建成 ,板楼/塔板结合,1.8元/平米/月,暂无信息,暂无信息,116.44434623847347,40.10782149450267
https://bj.lianjia.com/xiaoqu/1111027380394/,威尼斯花园C区,北京(昌平北七家)水韵风情庄园三区,34171,10栋,17户,2002年建成 ,板楼,2至3.25元/平米/月,暂无信息,北京市裕发东瑞房地产开发有限公司,116.41309774023172,40.10775922123977
https://bj.lianjia.com/xiaoqu/1111027380397/,威尼斯花园F区,北京(昌平北七家)水韵风情庄园六区,29349,9栋,15户,2004年建成 ,板楼,3.15至4元/平米/月,长城物业,三亚亚东置业有限公司辽宁分公司,116.41664562908076,40.108428238170916
https://bj.lianjia.com/xiaoqu/1111058232834/,蓬莱苑K区,北京(昌平北七家)蓬莱苑K区,暂无参考均价,1栋,1户,暂无信息 ,板楼,1元/平米/月,暂无信息,暂无信息,116.44313311180315,40.10661314272509
https://bj.lianjia.com/xiaoqu/1111027381683/,羊各庄新村,北京(昌平北七家)羊各庄新村,暂无参考均价,33栋,3040户,2004年建成 ,板楼,0.7元/平米/月,长城物业·睿家,上海中航房地产开发公司,116.4391063264426,40.115451007331345
https://bj.lianjia.com/xiaoqu/1111042532627/,蓬莱苑B区,北京(昌平北七家)北七家镇蓬莱苑别墅B区,51071,6栋,6户,1998年建成 ,板楼,1.8元/平米/月,北京九燕龙物业管理有限公司,暂无信息,116.44736499813403,40.10733882000857
https://bj.lianjia.com/xiaoqu/1120066686203951/,翡翠公园六期,北京(昌平北七家)七星路翡翠公园六期,暂无参考均价,19栋,445户,暂无信息 ,板楼/塔板结合,4.55元/平米/月,暂无信息,暂无信息,116.42343099324592,40.10542242206723
https://bj.lianjia.com/xiaoqu/1120021333453817/,国瑞熙墅,北京(昌平北七家)昌平北七家镇定泗路与七北路交叉口东行200米,62565,23栋,1626户,2017年建成 ,塔楼/板楼/塔板结合,2.98至5.4元/平米/月,北京国瑞物业管理有限公司,国瑞地产,116.4532445608158,40.11567034458173
https://bj.lianjia.com/xiaoqu/1118112886615532/,蓬莱苑I区,北京(昌平北七家)蓬莱苑I区,暂无参考均价,1栋,1户,暂无信息 ,板楼,1.8元/平米/月,暂无信息,暂无信息,116.4421367570024,40.10756909762509
https://bj.lianjia.com/xiaoqu/1120025082480204/,雅安商厦,北京(昌平北七家)北七家镇定泗路北侧,暂无参考均价,1栋,1户,暂无信息 ,板楼,2元/平米/月,暂无信息,暂无信息,116.41656161948983,40.116394602829835
https://bj.lianjia.com/xiaoqu/1114506281176875/,蓬莱苑L区,北京(昌平北七家)蓬莱苑L区,53419,4栋,4户,1999年建成 ,板楼,1.8元/平米/月,北京古燕宏卫物业管理有限公司,蓬莱裕源置业有限公司,116.44205780616691,40.10773610218737
https://bj.lianjia.com/xiaoqu/1111027380229/,王府园中园二区,北京(昌平北七家)园中园二区,67965,47栋,47户,1996年建成 ,板楼,2.4元/平米/月,北京法政王府物业管理中心,广东丰泰集团有限公司公司,116.39298428217123,40.10253641511079
https://bj.lianjia.com/xiaoqu/1111041145068/,西沙老年公寓,北京(昌平北七家)西沙老年公寓,暂无参考均价,2栋,132户,暂无信息 ,板楼,2元/平米/月,街道办事处（委员会）代管物业,暂无信息,116.39972681183306,40.11376266881341
https://bj.lianjia.com/xiaoqu/1111027380192/,王府公寓一区,北京(昌平北七家)王府街1号,44170,17栋,17户,1999年建成 ,板楼,2元/平米/月,北京法政王府物业管理中心,北京法政实业有限公司,116.40114629752455,40.10353150281935
https://bj.lianjia.com/xiaoqu/1111027380205/,王府家庭农场,北京(昌平北七家)王府街10号,暂无参考均价,67栋,77户,1999年建成 ,板楼,1.98元/平米/月,暂无信息,暂无信息,116.39659146167318,40.10179459682253
https://bj.lianjia.com/xiaoqu/1114506281176875/,蓬莱苑L区,北京(昌平北七家)蓬莱苑L区,53419,4栋,4户,1999年建成 ,板楼,1.8元/平米/月,北京古燕宏卫物业管理有限公司,蓬莱裕源置业有限公司,116.44205780616691,40.10773610218737
https://bj.lianjia.com/xiaoqu/1118112886615532/,蓬莱苑I区,北京(昌平北七家)蓬莱苑I区,暂无参考均价,1栋,1户,暂无信息 ,板楼,1.8元/平米/月,暂无信息,暂无信息,116.4421367570024,40.10756909762509
https://bj.lianjia.com/xiaoqu/1120025082480204/,雅安商厦,北京(昌平北七家)北七家镇定泗路北侧,暂无参考均价,1栋,1户,暂无信息 ,板楼,2元/平米/月,暂无信息,暂无信息,116.41656161948983,40.116394602829835
https://bj.lianjia.com/xiaoqu/11000000009098/,海淀上郡,北京(海淀昌平其它)尚悦路2号院,50699,4栋,819户,2020年建成 ,塔板结合,2.91至2.96元/平米/月,暂无信息,暂无信息,116.23762912271407,40.12212443302226
https://bj.lianjia.com/xiaoqu/1111027374054/,典雅庄园,北京(昌平昌平其它)沙顺路81号院,29980,5栋,439户,2004年建成 ,板楼,1.5元/平米/月,北京典雅物业管理有限公司,北京典雅房地产开发有限公司,116.39562443894565,40.175126382202244
https://bj.lianjia.com/xiaoqu/1111027374509/,广城大厦,北京(昌平昌平其它)顺沙路79号,27811,1栋,135户,1999年建成 ,塔楼,1.2元/平米/月,北京广城物业管理有限公司,北京泰福恒房地产开发有限责任公司,116.39630502102264,40.175101746550695
https://bj.lianjia.com/xiaoqu/1111027374279/,富来宫,北京(昌平昌平其它)富来宫,21066,11栋,374户,1995年建成 ,板楼,0.45至0.5元/平米/月,北京多亮多物业管理有限责任公司,物业和度娘都不知道开发商名称,116.39847648248818,40.17918002323078
https://bj.lianjia.com/xiaoqu/1111027373811/,丹青语堂,北京(昌平昌平其它)丹青语堂,30869,16栋,16户,2007年建成 ,板楼,8元/平米/月,北京莲通物业管理有限公司,暂无信息,116.36562205733992,40.09174709004609
https://bj.lianjia.com/xiaoqu/1111027378849/,桥梁厂小区,"北京(昌平昌平其它)桥梁厂宿舍, 马池口镇昌土路南",24919,12栋,584户,1975年建成 ,板楼,0.58至0.8元/平米/月,无物业管理服务,无开发商,116.18533860375267,40.18530598223069
https://bj.lianjia.com/xiaoqu/1120067089916745/,保利紫荆香谷南区,北京(昌平昌平其它)罗兰街保利紫荆香谷南区,51102,6栋,546户,2014年建成 ,板楼,3.3元/平米/月,暂无信息,暂无信息,116.25747401936805,40.1156676152276
https://bj.lianjia.com/xiaoqu/1111027382557/,珠江壹千栋一期,"北京(昌平昌平其它)珠江壹千栋, 定泗路99号院一区50, 定泗路99号院一区44",44016,45栋,46户,2004年建成 ,板楼/平房,4.88元/平米/月,暂无信息,北京珠江房地产开发有限公司,116.37868509477227,40.11806451855538
https://bj.lianjia.com/xiaoqu/1111027380914/,香江别墅一期,北京(昌平昌平其它)百葛路366号院,35617,85栋,319户,2002年建成 ,板楼/塔板结合,2.2至5元/平米/月,北京天鸿宝地物业管理经营有限公司,首开集团,116.12759616144277,40.16981714870076
https://bj.lianjia.com/xiaoqu/1111027378011/,龙脉温泉,北京(昌平昌平其它)小汤山镇大柳树村顺沙路北侧,27785,59栋,290户,1994年建成 ,板楼,1.2至2.8元/平米/月,暂无信息,无,116.39305444218508,40.179418217971126
https://bj.lianjia.com/xiaoqu/1111027374708/,观山悦,北京(昌平昌平其它)水库路19号院,40764,107栋,109户,1996年建成 ,板楼/塔板结合,3.5至5.98元/平米/月,高端物业,无,116.25429407470621,40.23902648515837
https://bj.lianjia.com/xiaoqu/1111027376389/,朝凤山庄,北京(昌平昌平其它)朝凤山庄,40953,105栋,105户,2000年建成 ,板楼,3.5至3.8元/平米/月,北京国宏联合物业管理有限公司,广东碧桂园物业服务股份有限公司洛阳分公司1,116.26038267405525,40.240760934586085
https://bj.lianjia.com/xiaoqu/1111027378415/,毛条小区,北京(昌平昌平其它)毛条小区,36447,7栋,249户,1986年建成 ,板楼,0.5元/平米/月,北京华苑安乐物业管理有限公司,福田建设局,116.24394880828501,40.11873125014563
https://bj.lianjia.com/xiaoqu/1111027379300/,沙河药材仓库宿舍,北京(昌平昌平其它)沙河镇牛湾村药材仓库宿舍,33266,3栋,96户,1984年建成 ,板楼,暂无信息,暂无信息,无,116.24531729924878,40.11072619949823
https://bj.lianjia.com/xiaoqu/1111027375941/,北京湾,"北京(昌平昌平其它)北京湾, 南口路30号院",33800,195栋,215户,2002年建成 ,板楼/平房,5至6元/平米/月,暂无信息,暂无信息,116.17559503782819,40.22595074702313
https://bj.lianjia.com/xiaoqu/1111027379257/,沙河地质研究院家属楼,北京(昌平昌平其它)沙河镇沙阳路11号院,39702,6栋,282户,1979年建成 ,板楼,暂无信息,暂无信息,河南中中置业有限公司,116.25181706731749,40.122899176196746
https://bj.lianjia.com/xiaoqu/1111027379305/,沙河一通小区,北京(昌平昌平其它)沙阳路15号,37807,8栋,390户,1972年建成 ,板楼,暂无信息,暂无信息,无开发商,116.25010933471879,40.12066774485262
https://bj.lianjia.com/xiaoqu/1111027377567/,静之湖度假山庄,北京(昌平昌平其它)静之湖度假山庄,28623,36栋,85户,1999年建成 ,板楼,2.5至4.8元/平米/月,亿方物业,北京静之湖置业有限公司,116.43498368435361,40.24047189189327
https://bj.lianjia.com/xiaoqu/1111046620125/,珠江壹千栋四期,北京(昌平昌平其它)珠江壹千栋,39492,18栋,22户,2000年建成 ,板楼,4.85至4.88元/平米/月,暂无信息, 重庆桥达茂宸房地产开发有限公司,116.37969726325807,40.116804933605636
https://bj.lianjia.com/xiaoqu/1111027377217/,金科帕提欧,"北京(昌平昌平其它)昌平小汤山疗养院东门对面, 小汤山镇沙顺路91号",29316,34栋,1639户,2010年建成 ,板楼,2.8至3.8元/平米/月,重庆市金科物业服务有限公司北京分公司,南开物业,116.38740837948127,40.181904249423894
https://bj.lianjia.com/xiaoqu/1111027382555/,珠江壹千栋二期,北京(昌平昌平其它)珠江壹千栋,52015,40栋,40户,2004年建成 ,板楼,4.88元/平米/月,北京瑞特物业管理公司,北京珠江地产,116.37247893755757,40.115941368906604
https://bj.lianjia.com/xiaoqu/1111059124685/,崔村教师楼,北京(昌平昌平其它)昌崔路26号院,23364,4栋,160户,2002年建成 ,板楼,0.6元/平米/月,无物业管理服务,无开发商,116.35036563555286,40.218052153816046
https://bj.lianjia.com/xiaoqu/1111063830085/,御汤山东区,北京(昌平昌平其它)顺沙路99号院,41516,1066栋,1069户,2011年建成 ,板楼/平房,9元/平米/月,暂无信息,北京天时房地产开发有限公司,116.39896108035039,40.184070619167194
https://bj.lianjia.com/xiaoqu/1111027382556/,珠江壹千栋三期,"北京(昌平昌平其它)珠江壹千栋, 定泗路99号院三区",46048,27栋,29户,2007年建成 ,板楼,4.8至4.88元/平米/月,暂无信息,北京原创住业房地产开发有限公司,116.38048933367936,40.12049624336141
https://bj.lianjia.com/xiaoqu/1111027375742/,碧春园,北京(昌平昌平其它)碧春园,33028,9栋,320户,2004年建成 ,板楼,0.5元/平米/月,北京民安居物业管理有限公司, 陕西亿润经贸有限公司 ,116.1386964998453,40.14409668092103
https://bj.lianjia.com/xiaoqu/1111058006328/,新汇园,北京(昌平昌平其它)新汇园,32775,3栋,127户,1990年建成 ,板楼,0.3元/平米/月,暂无信息,无,116.18590780845666,40.22756292955895
https://bj.lianjia.com/xiaoqu/1111061045491/,沙阳路16号院,北京(昌平昌平其它)南毛条厂宿舍,31049,2栋,151户,1986年建成 ,板楼,暂无信息,暂无信息,无,116.24381319270856,40.11944678085151
https://bj.lianjia.com/xiaoqu/1111063817647/,凯德麓语,北京(昌平昌平其它)兴寿镇京承高速G11出口向西怀昌路北侧,30742,190栋,642户,2010年建成 ,塔楼/板楼/塔板结合,5.8至8.2元/平米/月,暂无信息,北京升和房地产开发有限公司,116.47302502956097,40.23765992172471
https://bj.lianjia.com/xiaoqu/1111063725612/,TBD云集中心,"北京(昌平昌平其它)北七家七北路与黄平路交叉口路南200米, 七北路42号院",52213,20栋,1728户,2012年建成 ,板楼,3.62至15.62元/平米/月,国贸物业酒店管理有限公司,北京宁科置业有限责任公司,116.36099175853823,40.097372199469724
https://bj.lianjia.com/xiaoqu/1111045802449/,保利罗兰香谷,北京(昌平昌平其它)沙阳路34号院,54116,13栋,1925户,2012年建成 ,板楼/平房,2.78至2.79元/平米/月,保利物业管理（北京）有限公司,保利地产,116.26198513598008,40.116361196569365
https://bj.lianjia.com/xiaoqu/1111060664768/,马池口红冶家属院,北京(昌平昌平其它)火车站西路北红冶,24982,9栋,651户,1975年建成 ,板楼,暂无信息,无物业管理服务,无,116.17808557983331,40.18508199445894
https://bj.lianjia.com/xiaoqu/1111046338377/,香江别墅二期,北京(昌平昌平其它)阳坊马池口镇百葛路366号,33872,66栋,351户,2000年建成 ,板楼/塔板结合,1.5至5.3元/平米/月,暂无信息,香江国际中国地产有限公司,116.14096836543214,40.16894786229882
https://bj.lianjia.com/xiaoqu/1111057423750/,检测厂宿舍楼,"北京(昌平昌平其它)检测厂宿舍楼, 马坊村西二号院, 南口镇9416工厂宿舍马坊322号",21787,2栋,120户,1981年建成 ,板楼,0.5元/平米/月,无物业管理服务,无,116.10282252123316,40.22846786702146
https://bj.lianjia.com/xiaoqu/1111099810930/,保利紫荆香谷北区,"北京(昌平昌平其它)沙河镇沙阳路34号（京藏高速沙河出口沿沙阳路西行300米路南）, 沙阳路24号院",48747,3栋,552户,2015年建成 ,板楼,3.3元/平米/月,暂无信息,保利地产,116.25823679222282,40.11811308196457
https://bj.lianjia.com/xiaoqu/1120069981943152/,保利罗谷小区,北京(昌平昌平其它)芳华东路保利罗谷小区,44083,4栋,1040户,2012年建成 ,板楼,3.3元/平米/月,暂无信息,暂无信息,116.25807986170962,40.11810116642528
https://bj.lianjia.com/xiaoqu/1114170085404118/,保利芳园,北京(昌平昌平其它)沙河镇沙阳路,48715,7栋,2011户,2004年建成 ,塔楼/塔板结合,1.71元/平米/月,保利物业昌平分公司,暂无信息,116.2610598198174,40.11846022346494
https://bj.lianjia.com/xiaoqu/1111063947911/,香江别墅三期,北京(昌平昌平其它)阳坊马池口镇百葛路366号,31234,45栋,131户,2010年建成 ,板楼/塔板结合,4.2至5.8元/平米/月,暂无信息,香江国际中国地产有限公司,116.13836495130805,40.16778788459426
https://bj.lianjia.com/xiaoqu/1118132771286553/,小汤山区医院宿舍,北京(昌平昌平其它)小汤山区医院宿舍,23365,5栋,8户,1985年建成 ,板楼,0.5元/平米/月,北京奥瑞集团,北京新龙地产,116.38629123690424,40.17587289165884
https://bj.lianjia.com/xiaoqu/1118067739128753/,沙顺路87号院,"北京(昌平昌平其它)沙顺路87号院, 小汤山镇沙顺路87号院",29728,1栋,42户,2013年建成 ,板楼,暂无信息,暂无信息,大连小平岛疗养院（部队）,116.38816196030919,40.17486380525998
https://bj.lianjia.com/xiaoqu/1113311297990016/,滤纸厂宿舍楼,北京(昌平昌平其它)兴寿镇秦城村南,20224,1栋,25户,2002年建成 ,板楼,暂无信息,暂无信息,无开发商,116.3882029626213,40.23487512340228
https://bj.lianjia.com/xiaoqu/1112883606123036/,京铁昌平小区,北京(昌平昌平其它)京铁构件厂家属区,24421,3栋,62户,1980年建成 ,板楼,暂无信息,无物业管理服务,上海铁路局,116.18749748737221,40.18664432734179
https://bj.lianjia.com/xiaoqu/1116545410985888/,泰胡路22号院,北京(昌平昌平其它)泰胡路22号院,21503,3栋,40户,1998年建成 ,塔楼/板楼,0.5元/平米/月,无,无,116.22329961679915,40.271383503663145
https://bj.lianjia.com/xiaoqu/1110501799029940/,御汤山熙园,北京(昌平昌平其它)顺沙路99号院,53056,676栋,688户,2011年建成 ,塔楼/板楼,9至10元/平米/月,暂无信息,北京天时房地产开发有限公司,116.37593103264959,40.18445892081799
https://bj.lianjia.com/xiaoqu/1120039074834306/,十三陵水库管理处家属院,北京(昌平昌平其它)十三陵水库东侧,26973,1栋,7户,1981年建成 ,板楼,暂无信息,暂无信息,暂无信息,116.26332245216936,40.243721278168536
https://bj.lianjia.com/xiaoqu/1111027373744/,碓臼峪村别墅,北京(昌平昌平其它)碓臼峪村别墅,暂无参考均价,1栋,1户,暂无信息 ,板楼,3.5元/平米/月,无,暂无信息,116.18680743692055,40.340970158033294
https://bj.lianjia.com/xiaoqu/1111027380224/,王府西苑,北京(昌平昌平其它)北七家镇平西府,暂无参考均价,10栋,42户,2007年建成 ,板楼/塔板结合,1.5元/平米/月,北京法政王府物业管理中心,暂无信息,116.3712190868608,40.097535609997664
https://bj.lianjia.com/xiaoqu/1111027374966/,宏福苑,北京(昌平昌平其它)宏福苑小区,暂无参考均价,113栋,12410户,2002年建成 ,塔楼/板楼/塔板结合,1.2元/平米/月,北京宏福苑物业管理有限公司,北京东旭发房地产开发有限公司,116.36189015765828,40.111896529693546
https://bj.lianjia.com/xiaoqu/1111027375666/,爱心家园,北京(昌平昌平其它)北流村高崖口,暂无参考均价,1栋,1户,暂无信息 ,板楼,暂无信息,暂无信息,暂无信息,116.0084884844398,40.13793049416818
https://bj.lianjia.com/xiaoqu/1111041179536/,皇家艺苑,北京(昌平昌平其它)兴寿镇东新城村154号,暂无参考均价,1栋,1户,暂无信息 ,塔板结合,暂无信息,暂无信息,暂无信息,116.22864750377674,40.269427274885416
https://bj.lianjia.com/xiaoqu/1111027374118/,二毛小区,北京(昌平昌平其它)二毛小区,32734,9栋,350户,1989年建成 ,板楼,1.5元/平米/月,北京天和佳祥物业管理有限公司,未知,116.24466859274526,40.118961192497764
https://bj.lianjia.com/xiaoqu/1111027381247/,香堂文化新村二期,北京(昌平昌平其它)香堂文化新村二期,暂无参考均价,7栋,7户,2007年建成 ,未知类型,1元/平米/月,街道办事处（委员会）代管物业,暂无信息,116.35970226044202,40.245098477493976
https://bj.lianjia.com/xiaoqu/1111063630675/,龙脉公馆,北京(昌平昌平其它)小汤山镇人民政府北面,31648,116栋,32户,2000年建成 ,板楼,2.2元/平米/月,北京龙脉温泉花园物业管理有限公司,北京龙脉温泉花园房地产开发有限公司,116.39656192382844,40.17489342962733
https://bj.lianjia.com/xiaoqu/1111056677371/,裕祥小区,北京(昌平昌平其它)昌平三街裕祥小区,暂无参考均价,9栋,365户,暂无信息 ,塔楼,0.5至1元/平米/月,暂无信息,暂无信息,116.22942421049225,40.23125562847148
https://bj.lianjia.com/xiaoqu/1111027380532/,瓦窑湾东区别墅,北京(昌平昌平其它)瓦窑湾东区别墅,暂无参考均价,5栋,5户,2012年建成 ,板楼,暂无信息,自持物业,暂无信息,116.12486411053831,40.16069213999026
https://bj.lianjia.com/xiaoqu/1111063833335/,珠江紫宸山,"北京(昌平昌平其它)北五环温都水城北门东侧100米, 定泗路99号院",30723,33栋,36户,2013年建成 ,板楼,4.88元/平米/月,北京瑞特物业服务有限公司,北京原创住业房地产开发有限公司,116.37962823827678,40.117484877155135
https://bj.lianjia.com/xiaoqu/1111027382055/,依舍小镇,北京(昌平昌平其它)依舍小镇,暂无参考均价,7栋,500户,2011年建成 ,板楼,1.18元/平米/月,暂无信息,暂无信息,116.18310327176913,40.2046116319926
https://bj.lianjia.com/xiaoqu/1111055180565/,伊舍小镇北区,北京(昌平昌平其它)养老产业园北区,暂无参考均价,11栋,616户,暂无信息 ,塔板结合,1.18元/平米/月,北京天鸿宝地物业管理经营公司,暂无信息,116.1832980378597,40.208987604464404
https://bj.lianjia.com/xiaoqu/1111027374238/,凤凰岭小区,北京(昌平昌平其它)苏家坨镇台头村南200米,暂无参考均价,5栋,274户,2000年建成 ,板楼,3.8元/平米/月,首华物业公司,暂无信息,116.10763123665093,40.1083382426094
https://bj.lianjia.com/xiaoqu/1111047967126/,大宫门村,北京(昌平昌平其它)大宫门村96,暂无参考均价,1栋,4户,暂无信息 ,未知类型,暂无信息,北京永胜丰堂物业管理有限公司昌平分公司,暂无信息,116.21643838726222,40.24780245701413
https://bj.lianjia.com/xiaoqu/1111042974071/,麻峪村玉墅馆,北京(昌平昌平其它)麻峪村四区,暂无参考均价,3栋,3户,暂无信息 ,板楼,1元/平米/月,暂无信息,暂无信息,116.37198784959558,40.23100378498674
https://bj.lianjia.com/xiaoqu/1111055187941/,伊舍小镇南区,北京(昌平昌平其它)养老产业园南区,暂无参考均价,8栋,989户,暂无信息 ,未知类型,暂无信息,暂无信息,暂无信息,116.18348787239435,40.20649250350243
https://bj.lianjia.com/xiaoqu/1111063833335/,珠江紫宸山,"北京(昌平昌平其它)北五环温都水城北门东侧100米, 定泗路99号院",30723,33栋,36户,2013年建成 ,板楼,4.88元/平米/月,北京瑞特物业服务有限公司,北京原创住业房地产开发有限公司,116.37962823827678,40.117484877155135
https://bj.lianjia.com/xiaoqu/1111041861938/,巩华新村,北京(昌平昌平其它)沙河镇巩华新村,暂无参考均价,11栋,1430户,2000年建成 ,塔板结合,2.16元/平米/月,暂无信息,暂无信息,116.25179103991807,40.1141793035464
https://bj.lianjia.com/xiaoqu/1111042974071/,麻峪村玉墅馆,北京(昌平昌平其它)麻峪村四区,暂无参考均价,3栋,3户,暂无信息 ,板楼,1元/平米/月,暂无信息,暂无信息,116.37198784959558,40.23100378498674
https://bj.lianjia.com/xiaoqu/1111027374238/,凤凰岭小区,北京(昌平昌平其它)苏家坨镇台头村南200米,暂无参考均价,5栋,274户,2000年建成 ,板楼,3.8元/平米/月,首华物业公司,暂无信息,116.10763123665093,40.1083382426094
https://bj.lianjia.com/xiaoqu/1111047967126/,大宫门村,北京(昌平昌平其它)大宫门村96,暂无参考均价,1栋,4户,暂无信息 ,未知类型,暂无信息,北京永胜丰堂物业管理有限公司昌平分公司,暂无信息,116.21643838726222,40.24780245701413
https://bj.lianjia.com/xiaoqu/1111046529154/,秦城家园,北京(昌平昌平其它)秦城家园,暂无参考均价,4栋,152户,暂无信息 ,板楼,2元/平米/月,自持物业,暂无信息,116.38799574626998,40.23530028872587
https://bj.lianjia.com/xiaoqu/1111056677371/,裕祥小区,北京(昌平昌平其它)昌平三街裕祥小区,暂无参考均价,9栋,365户,暂无信息 ,塔楼,0.5至1元/平米/月,暂无信息,暂无信息,116.22942421049225,40.23125562847148
https://bj.lianjia.com/xiaoqu/1110748160913892/,金明园,北京(昌平昌平其它)南金路7号院,27629,6栋,95户,2005年建成 ,板楼,0.6元/平米/月,暂无信息,暂无信息,116.29759333807628,40.20651456514838
https://bj.lianjia.com/xiaoqu/1111044968476455/,蓬莱苑R区,北京(昌平昌平其它)北京市昌平区北七家镇蓬莱苑R区别墅,49659,1栋,1户,暂无信息 ,板楼,1.8元/平米/月,暂无信息,暂无信息,116.23330811680653,40.2977877139513
https://bj.lianjia.com/xiaoqu/1114619720585020/,沙河仓库宿舍楼,北京(昌平昌平其它)老牛湾路2号,32311,1栋,18户,1997年建成 ,板楼,1元/平米/月,自持物业,暂无信息,116.2457108335483,40.11072405187762
https://bj.lianjia.com/xiaoqu/1111063728037/,汇航桃园,北京(昌平昌平其它)兴寿镇桃林村,暂无参考均价,64栋,229户,暂无信息 ,板楼,0.6至3.8元/平米/月,小区物业,北京民福桃源置业有限公司,116.41441365072419,40.22375070104518
https://bj.lianjia.com/xiaoqu/1120052535756569/,龙水路22号院,北京(昌平东关)龙水路龙水路22号院,39199,6栋,378户,1980年建成 ,板楼,暂无信息,暂无信息,暂无信息,116.2534607267631,40.21005879273287
https://bj.lianjia.com/xiaoqu/1120055941943630/,世涛天朗,北京(昌平东关)龙水路世涛天朗,39727,26栋,1345户,2004年建成 ,板楼,1至1.57元/平米/月,北京鼎轩物业管理有限公司,暂无信息,116.24919784133749,40.207582832671264
https://bj.lianjia.com/xiaoqu/1111027374194/,福地家园,北京(昌平东关)府学路8号,31458,7栋,236户,2000年建成 ,板楼,0.7至1.7元/平米/月,北京新荣物业管理有限公司,北京新松房地产开发有限公司,116.25093916709373,40.218323901334244
https://bj.lianjia.com/xiaoqu/1111027376566/,昌盛园三区,北京(昌平东关)振兴路,37658,7栋,458户,2003年建成 ,板楼,1.5元/平米/月,北京百姓人家物业管理中心,北京世涛基业房地产开发有限公司,116.24902821880073,40.20920607923961
https://bj.lianjia.com/xiaoqu/1111027378945/,清秀园南区,北京(昌平东关)北京市昌平区清秀园南区(南区),35278,21栋,1249户,1988年建成 ,板楼,0.6至1.4元/平米/月,北京鼎轩物业管理有限公司,无开发公司,116.23686760953841,40.21467227493167
https://bj.lianjia.com/xiaoqu/1111040862971/,建安里小区,北京(昌平东关)府学路3号,35403,17栋,1177户,1992年建成 ,塔楼/板楼/平房,0.65至1.6元/平米/月,北京肆维基业管理有限公司,无开发商,116.25283644232363,40.22072497719156
https://bj.lianjia.com/xiaoqu/1111027378942/,清秀园北区,北京(昌平东关)清秀园北区,37723,21栋,1933户,1984年建成 ,塔楼/板楼/塔板结合,0.8至2.15元/平米/月,无物业管理服务,无开发公司,116.23826430187329,40.21801134761848
https://bj.lianjia.com/xiaoqu/1111027381936/,燕平家园,北京(昌平东关)东环路燕平家园小区,39447,17栋,942户,1989年建成 ,塔楼/板楼,1.15元/平米/月,无物业管理服务,北京都市岳华房地产开发有限公司,116.23532044490771,40.221051350813546
https://bj.lianjia.com/xiaoqu/1111027376565/,昌盛园二区,"北京(昌平东关)昌盛园二区, 介山小区",36016,16栋,950户,1994年建成 ,板楼/塔板结合,0.4至0.8元/平米/月,无物业管理服务,无开发公司,116.2507873035638,40.21064859084743
https://bj.lianjia.com/xiaoqu/1111027374317/,富泉花园,北京(昌平东关)白浮泉路21号院,50041,142栋,696户,1994年建成 ,板楼,1.4至2.8元/平米/月,北京国华富泉物业管理有限公司,北京国华富泉房地产开发有限公司,116.24200838630016,40.20054216869618
https://bj.lianjia.com/xiaoqu/1111027376874/,东关北里小区,北京(昌平东关)东关北里小区,38678,31栋,2036户,1987年建成 ,板楼,0.6元/平米/月,北京市京工物业管理有限责任公司,北京市京工房地产开发有限公司,116.23688951155407,40.22621927088803
https://bj.lianjia.com/xiaoqu/1111027377229/,佳莲二期,北京(昌平东关)中山口路21号院,36356,6栋,500户,2005年建成 ,板楼,0.5至1.2元/平米/月,北京佳莲伟业物业管理有限公司,北京佳莲伟业房地产开发集团有限公司,116.23519208674819,40.228757544956366
https://bj.lianjia.com/xiaoqu/1111054421609/,石油大学松园宿舍,北京(昌平东关)石油大学松园宿舍,34578,4栋,121户,1985年建成 ,板楼,暂无信息,暂无信息,无,116.24491935237582,40.226376131793195
https://bj.lianjia.com/xiaoqu/1111053224604/,昌盛园四区,"北京(昌平东关)昌盛园四区, 昌平镇介山小区",38471,5栋,324户,1997年建成 ,板楼,0.8元/平米/月,无物业管理服务,北京昌房房地产开发有限公司,116.24578107776581,40.2080140484249
https://bj.lianjia.com/xiaoqu/1111027376884/,东关南里小区,"北京(昌平东关)城北街道东关南里, 东关南里小区1区",37962,44栋,2095户,1987年建成 ,板楼,0.98元/平米/月,北京立昌物业管理有限责任公司,北京市昌平房地产开发总公司,116.24151634374593,40.21326197373674
https://bj.lianjia.com/xiaoqu/1111027376876/,畅椿阁,北京(昌平东关)龙水路22号院,38324,10栋,1218户,1993年建成 ,板楼/塔板结合,0.8元/平米/月,金隅大成物业,北京金隅集团有限责任公司,116.25373191341268,40.2125612771755
https://bj.lianjia.com/xiaoqu/1111100547995/,交通队宿舍楼,北京(昌平东关)府学路51号,27834,1栋,96户,1999年建成 ,板楼,暂无信息,暂无信息,无,116.25099210479597,40.22069920947125
https://bj.lianjia.com/xiaoqu/1111063837976/,水晶屿,北京(昌平东关)南环大桥 西侧,19559,3栋,421户,2016年建成 ,塔楼,3.59元/平米/月,北京金隅大成物业管理有限公司,北京金隅嘉业房地产开发有限公司,116.25463627588135,40.2106485914075
https://bj.lianjia.com/xiaoqu/1111027376877/,东关二条,北京(昌平东关)东环路东关二条小区,41019,17栋,1047户,1984年建成 ,板楼,暂无信息,无物业管理服务,无开发商,116.23733762357045,40.22072721359888
https://bj.lianjia.com/xiaoqu/1111063590534/,北京怡园,"北京(昌平东关)水库路16号院, 水库路16号院一区",50427,16栋,1630户,2007年建成 ,板楼,2.5元/平米/月,北京天和丰益物业管理有限责任公司,北京市昌平房地产开发总公司,116.25715434156123,40.22912347121257
https://bj.lianjia.com/xiaoqu/1111027377222/,京科苑,"北京(昌平东关)京科苑, 军都住宅小区, 昌盛路3号院, 昌平镇昌盛路3号院",37124,73栋,3558户,1993年建成 ,塔楼/板楼/塔板结合,0.5至1.09元/平米/月,北京东辰物业管理有限公司,无开发商,116.24161977182314,40.20913694299959
https://bj.lianjia.com/xiaoqu/1111054605625/,金隅嘉和园,北京(昌平东关)昌崔路198号院,40613,7栋,827户,2010年建成 ,板楼/塔板结合,1.9元/平米/月,北京绿都尚科科技有限公司物业管理中心,北京金隅嘉业房地产开发有限公司,116.25885410686953,40.21736965173295
https://bj.lianjia.com/xiaoqu/1111057124533/,北京风景,"北京(昌平东关)京藏高速30出口（昌平城区）向东，南环大桥东1000米, 双营西路67号院, 双营西路68号院",41540,43栋,2211户,2013年建成 ,板楼,2至2.59元/平米/月,北京新龙天宇物业公司,北京新龙房地产开发有限公司,116.28462776223927,40.21267248926677
https://bj.lianjia.com/xiaoqu/1111055267995/,东环路小区,"北京(昌平东关)东环路东环路小区, 东环路4号院",40200,14栋,757户,1986年建成 ,塔楼/板楼,暂无信息,无物业管理服务,无开发商,116.23361846731939,40.22721642935814
https://bj.lianjia.com/xiaoqu/1111027376568/,昌盛园一区,北京(昌平东关)昌盛园一区,39072,19栋,1221户,1994年建成 ,板楼/塔板结合,2.1元/平米/月,无物业管理服务,无开发公司,116.24675780241814,40.21061814693379
https://bj.lianjia.com/xiaoqu/1111054696058/,金隅观澜时代,北京(昌平东关)龙水路38号院,46821,9栋,845户,2011年建成 ,塔楼/板楼/塔板结合,2.38元/平米/月,北京金隅大成物业管理有限公司,北京金隅嘉业房地产开发有限公司,116.25344152115089,40.20709148261654
https://bj.lianjia.com/xiaoqu/1111061807238/,管厂宿舍,北京(昌平东关)管厂路,38931,3栋,174户,1979年建成 ,板楼,0.5元/平米/月,暂无信息,北京科管房地产开发有限公司,116.2626129847335,40.2265448815377
https://bj.lianjia.com/xiaoqu/1111054419175/,亢山佳园小区,北京(昌平东关)府学路12号,35925,10栋,590户,2001年建成 ,板楼,0.69至1.2元/平米/月,中铁六局集团北京铁路建设有限公司,北京市昌平房地产开发总公司,116.24862512472477,40.21872737665466
https://bj.lianjia.com/xiaoqu/1111063629704/,金隅澜湾,"北京(昌平东关)南环大桥西侧，南环东路与龙水路交叉口向东200米, 振兴路35号院",53160,32栋,234户,2013年建成 ,塔楼/板楼,3至6元/平米/月,北京金隅大成物业管理有限公司,北京金隅嘉业房地产开发有限公司,116.25613668115655,40.20846534299375
https://bj.lianjia.com/xiaoqu/1111054604368/,金地家园,北京(昌平东关)水库路18号院,39103,8栋,596户,2008年建成 ,板楼,1.6元/平米/月,北京鼎轩物业管理有限公司,北京金地兴业房地产有限公司,116.2577271971,40.22687563443643
https://bj.lianjia.com/xiaoqu/1111027376884/,东关南里小区,"北京(昌平东关)城北街道东关南里, 东关南里小区1区",37962,44栋,2095户,1987年建成 ,板楼,0.98元/平米/月,北京立昌物业管理有限责任公司,北京市昌平房地产开发总公司,116.24151634374593,40.21326197373674
https://bj.lianjia.com/xiaoqu/1111040862993/,宁馨苑,北京(昌平东关)府学路4号,36144,29栋,1938户,2001年建成 ,板楼,0.48至1.5元/平米/月,北京岳安物业管理有限责任公司,华达房地产开发有限公司,116.25401633910903,40.219590025760525
https://bj.lianjia.com/xiaoqu/1111027376877/,东关二条,北京(昌平东关)东环路东关二条小区,41019,17栋,1047户,1984年建成 ,板楼,暂无信息,无物业管理服务,无开发商,116.23733762357045,40.22072721359888
https://bj.lianjia.com/xiaoqu/1111063590534/,北京怡园,"北京(昌平东关)水库路16号院, 水库路16号院一区",50427,16栋,1630户,2007年建成 ,板楼,2.5元/平米/月,北京天和丰益物业管理有限责任公司,北京市昌平房地产开发总公司,116.25715434156123,40.22912347121257
https://bj.lianjia.com/xiaoqu/1111063837976/,水晶屿,北京(昌平东关)南环大桥 西侧,19559,3栋,421户,2016年建成 ,塔楼,3.59元/平米/月,北京金隅大成物业管理有限公司,北京金隅嘉业房地产开发有限公司,116.25463627588135,40.2106485914075
https://bj.lianjia.com/xiaoqu/1114191199792964/,红石座,北京(昌平东关)昌崔路198号院,18345,5栋,760户,2008年建成 ,塔楼/板楼,3.2元/平米/月,北京绿都尚科科技有限公司物业管理中心,无,116.26162550630954,40.21829931548833
https://bj.lianjia.com/xiaoqu/1111060881621/,创新路2号院,北京(昌平东关)创新路2号院,42688,3栋,107户,2007年建成 ,板楼/塔板结合,1.8至2.4元/平米/月,暂无信息,无,116.23486428718323,40.20956111209689
https://bj.lianjia.com/xiaoqu/1111041174808/,亢山前路1号院,北京(昌平东关)亢山前路1号院,37083,3栋,174户,1995年建成 ,板楼,1元/平米/月,暂无信息,无,116.24693483915473,40.21546590998484
https://bj.lianjia.com/xiaoqu/1111159294718638/,自在居,北京(昌平东关)北京市昌平区富康路东（公安消防支队正对面）,暂无参考均价,1栋,1户,暂无信息 ,塔楼,9.68元/平米/月,暂无信息,暂无信息,116.23892230740988,40.199373454954596
https://bj.lianjia.com/xiaoqu/1120026576286528/,富康路甲18号,北京(昌平东关)富康路甲18号,22855,1栋,40户,2001年建成 ,未知类型,暂无信息,暂无信息,暂无信息,116.23884773320772,40.20216633968275
https://bj.lianjia.com/xiaoqu/1114644658605987/,六亭饭店北楼,北京(昌平东关)东环路136号,23142,1栋,1户,暂无信息 ,未知类型,1元/平米/月,自持物业,暂无信息,116.23427255301434,40.21665643101911
https://bj.lianjia.com/xiaoqu/1114642240826679/,政法大学宿舍楼,北京(昌平东关)东关路5号院,28257,8栋,94户,暂无信息 ,板楼,0.7元/平米/月,暂无信息,暂无信息,116.24367716352029,40.226681640446955
https://bj.lianjia.com/xiaoqu/1112951108726418/,中国石油大学,北京(昌平东关)中国石油大学,33787,2栋,15户,1988年建成 ,板楼,1.2元/平米/月,暂无信息,暂无信息,116.23913731244613,40.21486543119294
https://bj.lianjia.com/xiaoqu/1113264404622744/,亢山前路3号院,北京(昌平东关)亢山前路3号院,暂无参考均价,3栋,16户,暂无信息 ,未知类型,0.7元/平米/月,暂无信息,暂无信息,116.24779734121803,40.21671090110916
https://bj.lianjia.com/xiaoqu/1111027381311/,新新公寓,北京(昌平鼓楼大街) 政府街6号院,38884,11栋,726户,2003年建成 ,塔楼/板楼,1.6至1.8元/平米/月,北京立昌物业管理有限责任公司,北京昌平房地产开发总公司,116.23248582187352,40.219267499582855
https://bj.lianjia.com/xiaoqu/1111061968842/,电信局家属楼,"北京(昌平鼓楼大街)永顺南街230号院, 六街估依市胡同",37637,2栋,51户,1992年建成 ,板楼,暂无信息,暂无信息,北京昌房房地产开发有限公司,116.22568070181454,40.222510983310144
https://bj.lianjia.com/xiaoqu/1111027378507/,南环里,北京(昌平鼓楼大街)南环里,41773,38栋,2578户,1964年建成 ,塔楼/板楼/塔板结合,0.5至1.7元/平米/月,北京和谐盛世物业管理有限公司,无开发商,116.23288588523513,40.21297800078008
https://bj.lianjia.com/xiaoqu/1111063573529/,五街电信局宿舍楼,北京(昌平鼓楼大街)五街电信局宿舍楼,39761,1栋,45户,1981年建成 ,板楼,暂无信息,北京万嘉凯物业管理有限公司,无,116.22463270346474,40.21740159773258
https://bj.lianjia.com/xiaoqu/1111027376516/,昌平商业街,北京(昌平鼓楼大街)昌平商业街,36076,13栋,303户,1986年建成 ,板楼,3.5元/平米/月,暂无信息, 陕西亿润经贸有限公司 ,116.2266972894995,40.215222954991525
https://bj.lianjia.com/xiaoqu/1111056050286/,市政宿舍南楼,北京(昌平鼓楼大街)商业街市政宿舍楼,36132,1栋,123户,1987年建成 ,板楼,暂无信息,暂无信息,无,116.22216807236336,40.21351187528239
https://bj.lianjia.com/xiaoqu/1111058350127/,五街家园国税局宿舍,北京(昌平鼓楼大街)五街家园国税局宿舍,36090,2栋,186户,1990年建成 ,板楼,1.2元/平米/月,无物业管理服务,无,116.22380801079423,40.21598032325017
https://bj.lianjia.com/xiaoqu/1111027376517/,昌平医院家属院,"北京(昌平鼓楼大街) 昌平镇和平街4号, 和平街1号",35748,4栋,321户,1980年建成 ,板楼,0.6元/平米/月,暂无信息,无开发商,116.22599612911635,40.22538306697322
https://bj.lianjia.com/xiaoqu/1111056464680/,七一宿舍,北京(昌平鼓楼大街)西环路44号院,35256,7栋,618户,1983年建成 ,板楼,暂无信息,无物业管理服务,无开发商,116.22212115046501,40.21701483637342
https://bj.lianjia.com/xiaoqu/1111059969539/,弘大路,北京(昌平鼓楼大街)弘大路,32281,2栋,110户,1993年建成 ,板楼,暂无信息,北京天和佳祥物业管理有限公司,无,116.22162603143208,40.228978887434955
https://bj.lianjia.com/xiaoqu/1111063407090/,蔚雲府,北京(昌平鼓楼大街)政府街与西环路交汇处东南角,38568,5栋,576户,2015年建成 ,塔楼/板楼/塔板结合,2.8至2.88元/平米/月,深圳历思联行物业管理有限公司北京分公司,北京国伦房地产开发有限公司,116.22158594681704,40.21863582947009
https://bj.lianjia.com/xiaoqu/1111057722654/,都市节奏,"北京(昌平鼓楼大街)永安路都市节奏小区, 永安路",32697,4栋,180户,2000年建成 ,塔楼/板楼,1.18至2.16元/平米/月,北京天元广建物业管理有限公司,北京天元广建房地产开发有限公司,116.22827629247192,40.208742859329945
https://bj.lianjia.com/xiaoqu/1111027375723/,北城根小区,"北京(昌平鼓楼大街)北城根, 安福街小区",37152,22栋,1203户,1988年建成 ,板楼,0.6元/平米/月,无物业管理服务,无开发商,116.22941054441627,40.22746542531754
https://bj.lianjia.com/xiaoqu/1111027375855/,北环里小区,"北京(昌平鼓楼大街)北环里小区, 北环里55号",35382,36栋,1897户,1980年建成 ,板楼/塔板结合,1至1.5元/平米/月,北京利民物业管理公司,北京高苑房地产开发有限公司,116.22095647460695,40.224853868215035
https://bj.lianjia.com/xiaoqu/1120044630379749/,金隅万科城二期,北京(昌平鼓楼大街)南环路金隅万科城二期,45957,11栋,1990户,2008年建成 ,板楼/塔板结合/平房,2.4至5元/平米/月,北京万科物业管理有限公司,暂无信息,116.22988208893186,40.20778927688121
https://bj.lianjia.com/xiaoqu/1111027376515/,和平街东里,北京(昌平鼓楼大街)和平街东里,33555,8栋,438户,1993年建成 ,塔楼/板楼,1.5元/平米/月,北京利民物业管理公司,无开发商,116.2264971893491,40.223774264600294
https://bj.lianjia.com/xiaoqu/1111027379022/,润杰经典创新园,北京(昌平鼓楼大街)创新路创新园,36211,12栋,631户,2002年建成 ,板楼,0.8至0.9元/平米/月,北京诚华物业管理有限公司,北京润杰房地产开发有限公司,116.23416283225251,40.20961309037371
https://bj.lianjia.com/xiaoqu/1111027375191/,和平家园小区,北京(昌平鼓楼大街)和平家园,34803,8栋,799户,2000年建成 ,板楼,0.5至1.2元/平米/月,北京高之苑物业管理有限公司,无开发商,116.22289763325686,40.22359012237049
https://bj.lianjia.com/xiaoqu/1111027379219/,石坊院,北京(昌平鼓楼大街)鼓楼南街石坊院,40092,24栋,1982户,1987年建成 ,塔楼/板楼/塔板结合,0.8至2.3元/平米/月,北京天元广建物业管理有限公司,北京市昌平房地产开发总公司,116.23102545179036,40.214576975835804
https://bj.lianjia.com/xiaoqu/1111027377543/,金隅万科城一期,北京(昌平鼓楼大街)振兴路创新园,43344,11栋,1633户,2009年建成 ,板楼/塔板结合,2.4元/平米/月,北京万科物业管理有限公司,北京金隅万科房地产开发有限公司,116.23054828950568,40.210451229998505
https://bj.lianjia.com/xiaoqu/1111055192817/,永安路小区,北京(昌平鼓楼大街)永安路,34476,4栋,180户,2004年建成 ,塔楼/板楼,1.6元/平米/月,北京市新永安物业管理发展中心,无开发公司,116.2283495105055,40.2079163708256
https://bj.lianjia.com/xiaoqu/1111062463984/,酒厂宿舍,北京(昌平鼓楼大街)酒厂宿舍,38575,2栋,93户,2005年建成 ,板楼,暂无信息,北京盛兴物业管理服务有限公司,无,116.22524120257613,40.21790874158892
https://bj.lianjia.com/xiaoqu/1111057776028/,卫生局宿舍楼,北京(昌平鼓楼大街)卫生局宿舍楼,42659,1栋,49户,1983年建成 ,板楼,暂无信息,金湖街管理处,无,116.22257417954867,40.212978202770955
https://bj.lianjia.com/xiaoqu/1111054468494/,鼓楼北街3号,"北京(昌平鼓楼大街)鼓楼北街3号楼, 鼓楼北街3号",34471,1栋,198户,1989年建成 ,板楼,暂无信息,小区物业,无,116.22773768531331,40.22649590401555
https://bj.lianjia.com/xiaoqu/1111058637372/,安福街,北京(昌平鼓楼大街)昌平县城豆腐巷北街安福街,44300,4栋,109户,1979年建成 ,板楼,0.5元/平米/月,无,无开发商,116.23180213955035,40.224654791364415
https://bj.lianjia.com/xiaoqu/1111061021159/,农行家属宿舍,"北京(昌平鼓楼大街)西环路农行家属宿舍, 八街银行宿舍, 西环路6号院",32570,2栋,108户,1980年建成 ,板楼,暂无信息,无物业管理服务,北京市昌平房地产开发总公司,116.22120691247889,40.22650499532196
https://bj.lianjia.com/xiaoqu/1111056592296/,水利局宿舍,北京(昌平鼓楼大街)五街水利局宿舍,29716,3栋,164户,1983年建成 ,板楼,暂无信息,暂无信息,"""温州育英房地产开发有限公司",116.2225489144831,40.2143598211675
https://bj.lianjia.com/xiaoqu/1111056861938/,五街满井胡同,北京(昌平鼓楼大街)五街满井胡同,36947,3栋,283户,1989年建成 ,板楼,1元/平米/月,暂无信息,无,116.22396545295456,40.21378486178748
https://bj.lianjia.com/xiaoqu/1111027381366/,新悦家园,北京(昌平鼓楼大街)南环路新悦家园小区,38256,28栋,3087户,2000年建成 ,塔楼/板楼/平房,0.6至2.35元/平米/月,暂无信息,北京鸿安兴业房地产开发有限公司,116.22266414291343,40.209100240097925
https://bj.lianjia.com/xiaoqu/1111056480588/,财神庙胡同,北京(昌平鼓楼大街)财神庙胡同,33955,1栋,108户,1998年建成 ,板楼,0.5元/平米/月,无物业管理服务,无开发商,116.23157167687873,40.22492798888496
https://bj.lianjia.com/xiaoqu/1111054471063/,建新胡同10号楼,北京(昌平鼓楼大街)建新胡同10号楼,39051,1栋,96户,1988年建成 ,板楼,暂无信息,无物业管理服务,无开发商,116.22975497117707,40.2255304239191
https://bj.lianjia.com/xiaoqu/1111057722654/,都市节奏,"北京(昌平鼓楼大街)永安路都市节奏小区, 永安路",32697,4栋,180户,2000年建成 ,塔楼/板楼,1.18至2.16元/平米/月,北京天元广建物业管理有限公司,北京天元广建房地产开发有限公司,116.22827629247192,40.208742859329945
https://bj.lianjia.com/xiaoqu/1111027381311/,新新公寓,北京(昌平鼓楼大街) 政府街6号院,38884,11栋,726户,2003年建成 ,塔楼/板楼,1.6至1.8元/平米/月,北京立昌物业管理有限责任公司,北京昌平房地产开发总公司,116.23248582187352,40.219267499582855
https://bj.lianjia.com/xiaoqu/1111061968842/,电信局家属楼,"北京(昌平鼓楼大街)永顺南街230号院, 六街估依市胡同",37637,2栋,51户,1992年建成 ,板楼,暂无信息,暂无信息,北京昌房房地产开发有限公司,116.22568070181454,40.222510983310144
https://bj.lianjia.com/xiaoqu/1111027376512/,昌平宽街,"北京(昌平鼓楼大街)鼓楼南街昌平宽街, 宽街胡同国税局宿舍, 昌平宽街一号",35687,5栋,237户,1994年建成 ,板楼,暂无信息,无物业管理服务,北京市昌平房地产开发总公司,116.2236382604625,40.2134867233022
https://bj.lianjia.com/xiaoqu/1111027375589/,安福苑,北京(昌平鼓楼大街)东环路安福苑,39570,17栋,1160户,1965年建成 ,板楼,暂无信息,无物业管理服务,无开发商,116.23266382348021,40.22630692755328
https://bj.lianjia.com/xiaoqu/1111058005014/,东醋房胡同,北京(昌平鼓楼大街)东醋房胡同,36698,2栋,94户,1996年建成 ,板楼,暂无信息,无物业管理服务,无,116.23105744980565,40.22285169718578
https://bj.lianjia.com/xiaoqu/1111047836724/,金隅万科城悦嘉公寓,北京(昌平鼓楼大街)南环路10号院,39164,1栋,324户,2010年建成 ,塔楼/塔板结合,2.4元/平米/月,北京万科物业服务有限公司,北京金隅万科房地产开发有限公司,116.23231748695915,40.21069434468928
https://bj.lianjia.com/xiaoqu/1111055357590/,铁佛庵,北京(昌平鼓楼大街)铁佛庵,37124,3栋,222户,1985年建成 ,板楼,暂无信息,无物业管理服务,无开发商,116.23249802827704,40.220788827883545
https://bj.lianjia.com/xiaoqu/1111059969539/,弘大路,北京(昌平鼓楼大街)弘大路,32281,2栋,110户,1993年建成 ,板楼,暂无信息,北京天和佳祥物业管理有限公司,无,116.22162603143208,40.228978887434955
https://bj.lianjia.com/xiaoqu/1111058350127/,五街家园国税局宿舍,北京(昌平鼓楼大街)五街家园国税局宿舍,36090,2栋,186户,1990年建成 ,板楼,1.2元/平米/月,无物业管理服务,无,116.22380801079423,40.21598032325017
https://bj.lianjia.com/xiaoqu/1111027376517/,昌平医院家属院,"北京(昌平鼓楼大街) 昌平镇和平街4号, 和平街1号",35748,4栋,321户,1980年建成 ,板楼,0.6元/平米/月,暂无信息,无开发商,116.22599612911635,40.22538306697322
https://bj.lianjia.com/xiaoqu/1111056464680/,七一宿舍,北京(昌平鼓楼大街)西环路44号院,35256,7栋,618户,1983年建成 ,板楼,暂无信息,无物业管理服务,无开发商,116.22212115046501,40.21701483637342
https://bj.lianjia.com/xiaoqu/1111057357982/,西醋房胡同,北京(昌平鼓楼大街)西醋房胡同,35655,3栋,114户,1990年建成 ,板楼,0.6至1.2元/平米/月,暂无信息,无,116.23000438870012,40.22282886491751
https://bj.lianjia.com/xiaoqu/1111056538257/,北环路25号院,北京(昌平鼓楼大街)北环路25号院,30366,5栋,248户,2001年建成 ,板楼,0.88元/平米/月,无物业管理服务,无开发商,116.22334212012686,40.22860854820323
https://bj.lianjia.com/xiaoqu/1111063407090/,蔚雲府,北京(昌平鼓楼大街)政府街与西环路交汇处东南角,38568,5栋,576户,2015年建成 ,塔楼/板楼/塔板结合,2.8至2.88元/平米/月,深圳历思联行物业管理有限公司北京分公司,北京国伦房地产开发有限公司,116.22158594681704,40.21863582947009
https://bj.lianjia.com/xiaoqu/1111057290137/,五街法院宿舍满井47号,北京(昌平鼓楼大街)法院宿舍满井47号,25917,1栋,36户,1989年建成 ,塔楼,0.5元/平米/月,无物业管理服务,北京昌房房地产开发有限公司,116.22282056662759,40.2125585524948
https://bj.lianjia.com/xiaoqu/1111063573529/,五街电信局宿舍楼,北京(昌平鼓楼大街)五街电信局宿舍楼,39761,1栋,45户,1981年建成 ,板楼,暂无信息,北京万嘉凯物业管理有限公司,无,116.22463270346474,40.21740159773258
https://bj.lianjia.com/xiaoqu/1111027376516/,昌平商业街,北京(昌平鼓楼大街)昌平商业街,36076,13栋,303户,1986年建成 ,板楼,3.5元/平米/月,暂无信息, 陕西亿润经贸有限公司 ,116.2266972894995,40.215222954991525
https://bj.lianjia.com/xiaoqu/1111056050286/,市政宿舍南楼,北京(昌平鼓楼大街)商业街市政宿舍楼,36132,1栋,123户,1987年建成 ,板楼,暂无信息,暂无信息,无,116.22216807236336,40.21351187528239
https://bj.lianjia.com/xiaoqu/1111027378507/,南环里,北京(昌平鼓楼大街)南环里,41773,38栋,2578户,1964年建成 ,塔楼/板楼/塔板结合,0.5至1.7元/平米/月,北京和谐盛世物业管理有限公司,无开发商,116.23288588523513,40.21297800078008
https://bj.lianjia.com/xiaoqu/1111027381498/,永安里小区,北京(昌平鼓楼大街)永安路永安里小区,37237,20栋,1072户,1988年建成 ,板楼,暂无信息,北京市新永安物业管理发展中心,无开发商,116.22630387189592,40.21000332531222
https://bj.lianjia.com/xiaoqu/116717317328508/,商业宿舍楼,北京(昌平鼓楼大街)五街营房胡同,36637,3栋,110户,1981年建成 ,板楼,2至2.8元/平米/月,金融街物业管理有限公司,无开发公司,116.22617188404331,40.217654571637915
https://bj.lianjia.com/xiaoqu/117195053273004/,清真寺胡同,北京(昌平鼓楼大街)五街清真寺,35847,1栋,20户,1985年建成 ,板楼,暂无信息,无物业管理服务,北京昌房房地产开发有限公司,116.22563535228379,40.21612556010394
https://bj.lianjia.com/xiaoqu/118372281946889/,通福桥甲31号,北京(昌平鼓楼大街)通福桥甲31号,39653,2栋,74户,1986年建成 ,板楼,0.5元/平米/月,小区物业,无开发商,116.22986149911992,40.22093228855983
https://bj.lianjia.com/xiaoqu/1111063729446/,嘉诚中心,北京(昌平鼓楼大街)鼓 楼南大街昌 平公园旁,16346,1栋,502户,2016年建成 ,塔楼,2元/平米/月,北京天元广建物业管理有限公司,北京天元广建房地产开发有限公司,116.23095424209623,40.21695403514605
https://bj.lianjia.com/xiaoqu/1111058639065/,昌平市政家属院,北京(昌平鼓楼大街)昌平市政家属院,暂无参考均价,1栋,108户,暂无信息 ,板楼,1.5元/平米/月,暂无信息,暂无信息,116.22263655947205,40.214014318799535
https://bj.lianjia.com/xiaoqu/1120021450918579/,昌平体委家属楼,北京(昌平鼓楼大街)昌平体委家属楼,暂无参考均价,1栋,1户,暂无信息 ,板楼,2元/平米/月,暂无信息,暂无信息,116.22053501953668,40.20898897718012
https://bj.lianjia.com/xiaoqu/1111027382524/,泽杰丽景,北京(昌平鼓楼大街)泽杰丽景,暂无参考均价,1栋,1户,暂无信息 ,板楼,0.5元/平米/月,自持物业,暂无信息,116.22862921391959,40.213040708771715
https://bj.lianjia.com/xiaoqu/1111062142172/,教育局宿舍,北京(昌平鼓楼大街)昌平镇政府街14号,40428,2栋,26户,1992年建成 ,板楼,暂无信息,暂无信息,无,116.22993636102954,40.21848211825436
https://bj.lianjia.com/xiaoqu/1111062819164/,泰安胡同,北京(昌平鼓楼大街)鼓楼南街泰安胡同,40676,1栋,39户,1987年建成 ,板楼,暂无信息,无物业管理服务,北京市昌平房地产开发总公司,116.22436541826768,40.21609947610727
https://bj.lianjia.com/xiaoqu/1111027374644/,鼓楼西街,北京(昌平鼓楼大街)鼓楼西街,25345,10栋,319户,2003年建成 ,板楼,2元/平米/月,自持物业,暂无信息,116.2224861540938,40.22304731879827
https://bj.lianjia.com/xiaoqu/1111027377929/,蓝郡温莎国际公寓,北京(昌平鼓楼大街)城区镇西环南路25号,暂无参考均价,1栋,280户,2007年建成 ,板楼,2.5元/平米/月,暂无信息,暂无信息,116.22106537073415,40.21658878275791
https://bj.lianjia.com/xiaoqu/1111027379748/,太安胡同,北京(昌平鼓楼大街)太安胡同,暂无参考均价,2栋,102户,1988年建成 ,板楼,暂无信息,自持物业,无开发商,116.22307544237803,40.21651802733305
https://bj.lianjia.com/xiaoqu/1111060308082/,鼓楼南街35号院,北京(昌平鼓楼大街)鼓楼南街35号,37103,3栋,192户,2001年建成 ,塔楼/板楼,3.9元/平米/月,北京佳莲伟业物业管理有限公司,北京佳莲伟业房地产开发集团有限公司,116.22725160563903,40.2134006256888
https://bj.lianjia.com/xiaoqu/1111100208708/,创新路11号院,北京(昌平鼓楼大街)创新路11号院,暂无参考均价,1栋,138户,暂无信息 ,板楼,暂无信息,暂无信息,暂无信息,116.23424736668325,40.20376758030757
https://bj.lianjia.com/xiaoqu/1111057779746/,钰阳阁,北京(昌平鼓楼大街)西环南路56号,34221,1栋,36户,2002年建成 ,板楼,暂无信息,暂无信息,无,116.22132851171598,40.21384425423124
https://bj.lianjia.com/xiaoqu/1111060731215/,煤市口胡同,北京(昌平鼓楼大街)煤市口胡同,28961,1栋,54户,1996年建成 ,板楼,暂无信息,暂无信息,无,116.22603540326445,40.2147000935849
https://bj.lianjia.com/xiaoqu/1111060165333/,鼓楼南大街,北京(昌平鼓楼大街)鼓楼南大街39号院,38035,2栋,107户,2002年建成 ,板楼,0.5元/平米/月,暂无信息,无,116.22729517587729,40.21186079228185
https://bj.lianjia.com/xiaoqu/1111027375504/,花样年华,北京(昌平鼓楼大街)花样年华,暂无参考均价,2栋,151户,2002年建成 ,塔楼,1.5元/平米/月,自持物业,暂无信息,116.22379123175298,40.21090255738609
https://bj.lianjia.com/xiaoqu/1111100692723/,铁路局宿舍,北京(昌平鼓楼大街)铁路局宿舍,40897,1栋,48户,1979年建成 ,板楼,暂无信息,暂无信息,无,116.22632008034412,40.22801716917064
https://bj.lianjia.com/xiaoqu/1111057289159/,康陵卫胡同30号楼,北京(昌平鼓楼大街)康陵卫胡同30号楼,35478,1栋,28户,2001年建成 ,板楼,暂无信息,暂无信息,无,116.22329557145456,40.21256487851972
https://bj.lianjia.com/xiaoqu/1111056463435/,广播局宿舍楼,北京(昌平鼓楼大街)城北街道六街,暂无参考均价,1栋,24户,1995年建成 ,板楼,暂无信息,暂无信息,无开发商,116.22382150146147,40.219805855345875
https://bj.lianjia.com/xiaoqu/1111057102370/,玉虚观胡同,北京(昌平鼓楼大街)玉虚观胡同,29049,1栋,54户,暂无信息 ,未知类型,0.6元/平米/月,自持物业,暂无信息,116.22250190803025,40.22379500492387
https://bj.lianjia.com/xiaoqu/1111056892065/,环保局宿舍楼,北京(昌平鼓楼大街)斗母宫胡同甲1号,31700,2栋,16户,1988年建成 ,板楼,暂无信息,房修一物业管理有限公司, 合肥万科瑞翔地产有限公司,116.22112070983752,40.22605661439789
https://bj.lianjia.com/xiaoqu/1111058639065/,昌平市政家属院,北京(昌平鼓楼大街)昌平市政家属院,暂无参考均价,1栋,108户,暂无信息 ,板楼,1.5元/平米/月,暂无信息,暂无信息,116.22263655947205,40.214014318799535
https://bj.lianjia.com/xiaoqu/117081856873374/,鼓楼大街西侧1号楼,北京(昌平鼓楼大街)鼓楼大街西侧1号楼,34538,1栋,49户,2002年建成 ,板楼,暂无信息,暂无信息,无,116.22723634496188,40.21245319457305
https://bj.lianjia.com/xiaoqu/1120024999640082/,自来水公司宿舍院,北京(昌平鼓楼大街)五街草场胡同自来水公司宿舍院,38223,1栋,72户,1987年建成 ,板楼,暂无信息,暂无信息,无开发商,116.22600220709322,40.212366396118014
https://bj.lianjia.com/xiaoqu/1120030756592522/,体育场宿舍,北京(昌平鼓楼大街)南环路体育场宿舍,暂无参考均价,1栋,24户,1997年建成 ,未知类型,3元/平米/月,暂无信息,暂无信息,116.22111905484607,40.20909858181303
https://bj.lianjia.com/xiaoqu/1110863345413849/,后石王庙胡同,北京(昌平鼓楼大街)北京市昌平区后石王庙胡同,33648,1栋,5户,1997年建成 ,板楼,0.5元/平米/月,单位自管物业,暂无信息,116.23077016289838,40.224386224259064
https://bj.lianjia.com/xiaoqu/1111056940294/,南关路1号,北京(昌平鼓楼大街)南关路1号,15539,1栋,339户,2008年建成 ,板楼,0.8元/平米/月,北京多亮多物业管理有限责任公司,无,116.2247011690568,40.21002199154075
https://bj.lianjia.com/xiaoqu/1111056557539/,中兴路17号院,北京(昌平鼓楼大街)中兴路17号院,暂无参考均价,4栋,39户,暂无信息 ,未知类型,1元/平米/月,自持物业,暂无信息,116.22902286967654,40.21485212450708
https://bj.lianjia.com/xiaoqu/1111045976643/,中复电讯大厦,北京(昌平鼓楼大街)昌平镇西环路24号楼,暂无参考均价,1栋,4户,2004年建成 ,塔楼,暂无信息,暂无信息,暂无信息,116.22119703700197,40.223144872821415
https://bj.lianjia.com/xiaoqu/1111027382524/,泽杰丽景,北京(昌平鼓楼大街)泽杰丽景,暂无参考均价,1栋,1户,暂无信息 ,板楼,0.5元/平米/月,自持物业,暂无信息,116.22862921391959,40.213040708771715
https://bj.lianjia.com/xiaoqu/1120031929457800/,西环路56号,北京(昌平鼓楼大街)西环路56号,暂无参考均价,1栋,2户,暂无信息 ,板楼,暂无信息,暂无信息,暂无信息,116.22133232033566,40.21409213018774
https://bj.lianjia.com/xiaoqu/1120031593768749/,西环路,北京(昌平鼓楼大街)西环路26号,暂无参考均价,2栋,3户,暂无信息 ,未知类型,1元/平米/月,暂无信息,暂无信息,116.22107482633719,40.222584763071794
https://bj.lianjia.com/xiaoqu/1120022513349025/,生资宿舍楼,北京(昌平鼓楼大街)生资宿舍楼,31725,1栋,3户,1983年建成 ,板楼,0.6元/平米/月,暂无信息,无,116.22163809103321,40.22888482564255
https://bj.lianjia.com/xiaoqu/1120035013422193/,粮食局宿舍楼,北京(昌平鼓楼大街)政府南街粮食局宿舍楼,42830,1栋,45户,1992年建成 ,板楼,暂无信息,暂无信息,暂无信息,116.22458311724644,40.21792685854962
https://bj.lianjia.com/xiaoqu/1120064271331006/,融泽嘉园中路6号院,北京(昌平回龙观)龙域中路6号,60747,7栋,1317户,2013年建成 ,塔板结合,2.3至2.45元/平米/月,暂无信息,暂无信息,116.30530834319254,40.06473871875875
https://bj.lianjia.com/xiaoqu/1114509517867442/,华府9号,"北京(昌平回龙观)京藏高速与龙域中街交汇处西北角, 龙域北街5号院",38473,5栋,453户,2017年建成 ,塔楼/板楼,6元/平米/月,北京万科物业服务有限公司,北京住总万科房地产开发有限公司,116.30619996626763,40.06642928769759
https://bj.lianjia.com/xiaoqu/1120071962718919/,京投发展公园悦府二区,北京(昌平回龙观)回南北路京投发展公园悦府二区,81835,6栋,1460户,2012年建成 ,板楼/塔板结合,3.78元/平米/月,暂无信息,暂无信息,116.3522314329059,40.09007165256683
https://bj.lianjia.com/xiaoqu/1111027381983/,云趣园三区,北京(昌平回龙观)云趣园三区,46930,20栋,1386户,1999年建成 ,板楼,0.6至0.65元/平米/月,北京长城物业管理有限公司,北京首开天鸿集团有限公司,116.32469137481263,40.07933066305282
https://bj.lianjia.com/xiaoqu/1111046920539/,首开国风美唐二期,北京(昌平回龙观)科星西路90号院,71890,17栋,2377户,2012年建成 ,板楼/塔板结合,2.68元/平米/月,暂无信息,北京首都开发控股（集团）有限公司,116.354058256835,40.07828633978051
https://bj.lianjia.com/xiaoqu/1111041743164/,金域华府一期,北京(昌平回龙观)龙域中路5号院,70579,12栋,2149户,2012年建成 ,板楼/塔板结合,2.7元/平米/月,北京万科物业管理有限公司,北京住总万科房地产开发有限公司,116.30292075091579,40.0640796060639
https://bj.lianjia.com/xiaoqu/1111027377581/,矩阵三期,北京(昌平回龙观)回龙观镇天龙苑,62310,6栋,713户,2007年建成 ,塔楼/板楼,1.8元/平米/月,北京唐人物业管理有限公司,北京腾昌兴房地产开发有限公司,116.34794102099426,40.080972287104345
https://bj.lianjia.com/xiaoqu/1111041203849/,矩阵四期,北京(昌平回龙观)回龙观天龙苑,23900,1栋,183户,2010年建成 ,塔楼,1.8元/平米/月,北京唐人物业管理有限公司,北京腾昌兴房地产开发有限公司,116.34966629193715,40.08006547830027
https://bj.lianjia.com/xiaoqu/1111027377750/,龙城花园N区,北京(昌平回龙观)回龙观龙城花园N区,55248,31栋,167户,1997年建成 ,板楼,2至2.38元/平米/月,北京龙城花园物业管理公司,北京昌信回龙园别墅有限公司,116.28981520072982,40.08586235240909
https://bj.lianjia.com/xiaoqu/1111027374439/,风雅园一区,北京(昌平回龙观)风雅园一区,45385,12栋,768户,1999年建成 ,板楼,0.63至0.65元/平米/月,北京天鸿宝地物业管理经营公司,北京首都开发控股（集团）有限公司,116.31623326499657,40.084338010389494
https://bj.lianjia.com/xiaoqu/1111100821964/,首开国风美唐综合楼,"北京(昌平回龙观)首开国风美唐综合楼, 昌平区科星西路106号院",27718,6栋,1543户,2004年建成 ,塔楼/板楼,2.38至2.58元/平米/月,北京天鸿宝地物业管理经营有限公司,首开集团,116.35417450753776,40.07203391176173
https://bj.lianjia.com/xiaoqu/1111063405237/,领秀慧谷D区,"北京(昌平回龙观)京藏高速北安河出口北300米, 农学院北路9号院二区",69896,14栋,997户,2015年建成 ,板楼,2.91元/平米/月,深圳市金地物业管理有限公司北京分公司,北京科技园建设股份有限公司,116.29395315328959,40.097799288354324
https://bj.lianjia.com/xiaoqu/1111027378137/,流星花园二区,"北京(昌平回龙观)东小口镇马连店村流星花园二区, 马连店村流星花园C区",56393,9栋,812户,2003年建成 ,板楼/塔板结合,1至1.78元/平米/月,北京天宇流星花园物业管理有限公司,北京新龙房地产开发有限公司,116.33016215254976,40.086179871505564
https://bj.lianjia.com/xiaoqu/1111027376778/,东村家园,北京(昌平回龙观)东村家园,57671,11栋,1062户,2005年建成 ,板楼/塔板结合,1.7至1.78元/平米/月,街道办事处（委员会）代管物业,北京丰台黄土岗农工商联合公司,116.33874607958687,40.06416121111987
https://bj.lianjia.com/xiaoqu/1111027375467/,华远静林湾,北京(昌平回龙观)回龙观镇华远静林湾,57786,192栋,192户,2006年建成 ,板楼/塔板结合,3.68至4.5元/平米/月,北京首旅酒店物业管理公司,北京华远龙苑房地产开发有限公司,116.29348185473692,40.07876311039155
https://bj.lianjia.com/xiaoqu/1111027377566/,矩阵二期,北京(昌平回龙观)回龙观镇天龙苑,62090,10栋,988户,2002年建成 ,板楼/塔板结合,1.8元/平米/月,北京唐人物业管理有限公司,北京腾昌兴房地产开发有限公司,116.35035320506589,40.081860170847314
https://bj.lianjia.com/xiaoqu/1111027375384/,和谐家园一区,北京(昌平回龙观)和谐家园一区,47549,26栋,1492户,2004年建成 ,板楼,0.64至2.2元/平米/月,深圳长城物业集团股份有限公司,北京三元盛泰房地产开发有限公司,116.35394611799,40.08440071114846
https://bj.lianjia.com/xiaoqu/1111027377752/,龙城花园W区,"北京(昌平回龙观)回龙观镇龙城花园W区, 龙城花园一期F-1公寓",46821,54栋,430户,1997年建成 ,板楼,2元/平米/月,北京龙城花园物业管理公司,北京昌信回龙园别墅有限公司,116.28965776435636,40.082550729544636
https://bj.lianjia.com/xiaoqu/1111027374438/,风雅园三区,北京(昌平回龙观)风雅园三区,46403,14栋,1438户,2000年建成 ,板楼,0.65元/平米/月,北京天鸿宝地物业管理经营公司,北京首都开发控股（集团）有限公司,116.31871357577799,40.078226024841136
https://bj.lianjia.com/xiaoqu/1111027375383/,和谐家园二区,"北京(昌平回龙观)和谐家园二区, 回龙观东大街",47893,20栋,1341户,2006年建成 ,板楼,0.65元/平米/月,深圳长城物业集团股份有限公司北京分公司,北京三元盛泰房地产开发有限公司,116.35444639966342,40.08124027347494
https://bj.lianjia.com/xiaoqu/1111027377996/,骊龙园,北京(昌平回龙观)回龙观骊龙园,52167,8栋,468户,2005年建成 ,板楼,0.83至1元/平米/月,北京佳美世家物业管理有限责任公司,北京韩建房地产开发有限公司,116.32183970771108,40.08167591491641
https://bj.lianjia.com/xiaoqu/1111027378165/,龙禧苑一区,北京(昌平回龙观)育知东路龙禧苑一区,45764,18栋,912户,2002年建成 ,板楼,0.63至0.65元/平米/月,北京长城物业管理有限公司,北京天鸿房地产开发有限责任公司,116.32775953461362,40.086036667574106
https://bj.lianjia.com/xiaoqu/1111027380431/,万润家园,北京(昌平回龙观)回龙观镇万润家园,54843,12栋,911户,2003年建成 ,板楼,2.1至2.2元/平米/月,广州市三原物业管理有限公司北京第一分公司,北京城建集团有限责任公司,116.31992422580663,40.064983771375616
https://bj.lianjia.com/xiaoqu/1111027378111/,龙腾苑六区,北京(昌平回龙观)回龙观镇龙腾苑六区,46682,40栋,1952户,2002年建成 ,板楼,0.63至0.65元/平米/月,北京天鸿宝地物业管理经营有限公司,北京城建集团,116.32587119886811,40.07232842256055
https://bj.lianjia.com/xiaoqu/1111027378113/,龙腾苑三区,北京(昌平回龙观)回龙观镇龙腾苑三区,52574,28栋,1390户,2002年建成 ,板楼,0.63至0.65元/平米/月,北京天鸿宝地物业管理经营有限公司,北京天鸿房地产开发有限责任公司,116.32545581397824,40.07547187846705
https://bj.lianjia.com/xiaoqu/1111027378209/,龙跃苑东五区,北京(昌平回龙观)龙跃街龙跃苑东五区,48270,17栋,760户,2005年建成 ,板楼,0.65元/平米/月,北京天鸿宝地物业管理经营公司,北京首开天鸿集团有限公司,116.35070027682379,40.0708183176413
https://bj.lianjia.com/xiaoqu/1111027378166/,龙兴园中区,北京(昌平回龙观)龙兴园,50258,12栋,732户,1997年建成 ,板楼,0.65至0.9元/平米/月,北京市龙冠物业管理有限责任公司,北京新龙房地产开发有限公司,116.31423597513916,40.0609287013501
https://bj.lianjia.com/xiaoqu/1111027377892/,龙回苑,北京(昌平回龙观)东小口镇龙回苑,47744,25栋,1031户,2004年建成 ,板楼,0.65元/平米/月,北京长城物业管理有限公司,北京天鸿房地产开发有限责任公司,116.33905023525327,40.08680140149116
https://bj.lianjia.com/xiaoqu/1111027375931/,北京市农学院家属宿舍,北京(昌平回龙观)回龙观北朱辛庄北农路7号,56286,8栋,435户,1982年建成 ,板楼,0.5元/平米/月,自持物业,暂无信息,116.29976140707458,40.09060895379153
https://bj.lianjia.com/xiaoqu/1111027378207/,龙跃苑东二区,北京(昌平回龙观)回龙观镇龙跃苑东二区,49631,20栋,965户,2005年建成 ,板楼,0.65元/平米/月,北京天鸿宝地物业管理经营公司,北京首开天鸿集团有限公司,116.35042548251587,40.07549273309589
https://bj.lianjia.com/xiaoqu/1111027378207/,龙跃苑东二区,北京(昌平回龙观)回龙观镇龙跃苑东二区,49631,20栋,965户,2005年建成 ,板楼,0.65元/平米/月,北京天鸿宝地物业管理经营公司,北京首开天鸿集团有限公司,116.35042548251587,40.07549273309589
https://bj.lianjia.com/xiaoqu/1111027375918/,北郊农场宿舍,北京(昌平回龙观)北郊农场家属院,52827,11栋,708户,1983年建成 ,板楼,0.65元/平米/月,北京市华龙苑物业管理中心,北京北郊联合房地产开发有限公司,116.31095975450911,40.07751528348863
https://bj.lianjia.com/xiaoqu/1111027377953/,龙锦苑四区,北京(昌平回龙观)龙锦苑四区,47526,23栋,1139户,2003年建成 ,板楼,0.65元/平米/月,北京天鸿宝地物业管理经营有限公司,北京首开天鸿集团有限公司,116.34060799910992,40.083930741216285
https://bj.lianjia.com/xiaoqu/1111027377996/,骊龙园,北京(昌平回龙观)回龙观骊龙园,52167,8栋,468户,2005年建成 ,板楼,0.83至1元/平米/月,北京佳美世家物业管理有限责任公司,北京韩建房地产开发有限公司,116.32183970771108,40.08167591491641
https://bj.lianjia.com/xiaoqu/1111027379849/,天慧园,北京(昌平回龙观)天慧园,42348,5栋,348户,2000年建成 ,板楼,0.85至0.86元/平米/月,北京三合雅居物业管理有限公司,北京合力兴业房地产开发有限公司,116.31535593990097,40.076095827853194
https://bj.lianjia.com/xiaoqu/1111027377751/,龙城花园S区,"北京(昌平回龙观)回龙观东大街, 回龙观龙城花园二期",50667,52栋,252户,1997年建成 ,板楼,2元/平米/月,北京龙城花园物业管理公司,北京昌信回龙园别墅有限公司,116.29473084955717,40.081256097787346
https://bj.lianjia.com/xiaoqu/1111027377954/,龙锦苑五区,北京(昌平回龙观)龙锦苑五区,46877,9栋,590户,2005年建成 ,板楼,0.65元/平米/月,北京天鸿宝地物业管理经营有限公司,北京天鸿房地产开发有限责任公司,116.34533040088091,40.08158526697512
https://bj.lianjia.com/xiaoqu/1120064272367390/,融泽嘉园西二路6号院,北京(昌平回龙观)龙域西二路6号院,66362,5栋,955户,2016年建成 ,板楼/塔板结合,2.45元/平米/月,暂无信息,暂无信息,116.29940801839415,40.064010838720854
https://bj.lianjia.com/xiaoqu/1111027377748/,龙城花园北二区,北京(昌平回龙观)龙城花园北二区,63351,29栋,467户,2004年建成 ,板楼,2.38元/平米/月,北京龙城花园物业管理公司,北京昌信回龙园别墅有限公司,116.29313301004457,40.08739593597705
https://bj.lianjia.com/xiaoqu/1120064286006600/,融泽嘉园中路2号院,北京(昌平回龙观)龙域中路2号,62768,8栋,1908户,2013年建成 ,板楼/塔板结合,2.3元/平米/月,北京长城物业管理有限公司,暂无信息,116.30364339137853,40.067684498976675
https://bj.lianjia.com/xiaoqu/1111027377891/,龙华园,北京(昌平回龙观)回龙观西大街66号,55512,41栋,2866户,1993年建成 ,塔楼/板楼,0.65至0.75元/平米/月,北京天鸿宝地物业管理经营有限公司,上海益源房地产开发有限公司,116.31931295121761,40.07427510919744
https://bj.lianjia.com/xiaoqu/1111027378159/,龙兴园北区,北京(昌平回龙观)二拨子路龙兴园北区,48320,24栋,1482户,2000年建成 ,板楼,0.85元/平米/月,北京新龙天宇物业公司,北京新龙房地产开发有限公司,116.29649360797016,40.07566774635668
https://bj.lianjia.com/xiaoqu/1111050770108/,领秀慧谷C区,北京(昌平回龙观) 农学院北路9号院,69461,22栋,1341户,2010年建成 ,板楼/平房,2.48元/平米/月,北京金地物业管理有限责任公司,北京科技园建设股份有限公司,116.29786716360563,40.09910714649179
https://bj.lianjia.com/xiaoqu/1111027381003/,新龙城,北京(昌平回龙观)昌平路380号院,60719,44栋,6736户,2006年建成 ,板楼/塔板结合,1.3至1.8元/平米/月,北京新龙天宇物业管理有限公司流星花园分公司,北京新龙房地产开发有限公司,116.3174857978765,40.067150932311534
https://bj.lianjia.com/xiaoqu/1111027374437/,风雅园二区,北京(昌平回龙观)风雅园二区,47502,11栋,1012户,1998年建成 ,板楼,0.65元/平米/月,北京天鸿宝地物业管理经营公司,北京首都开发控股（集团）有限公司,116.3161972414409,40.08097585311662
https://bj.lianjia.com/xiaoqu/1111027377718/,龙博苑二区,"北京(昌平回龙观)回龙观镇龙博苑二区, 龙博苑二区",58944,17栋,1559户,2003年建成 ,板楼,0.65元/平米/月,北京天鸿宝地物业管理经营有限公司,北京首开天鸿集团有限公司,116.33621342921936,40.06764178640642
https://bj.lianjia.com/xiaoqu/1111027374040/,东亚上北中心,北京(昌平回龙观)回龙观西大街9号院,36287,18栋,4194户,2009年建成 ,塔楼/塔板结合/平房,1.68至1.98元/平米/月,北京诚智慧中物业管理有限公司,北京东亚信鸿国际会展中心有限公司,116.33518998013272,40.08077550077282
https://bj.lianjia.com/xiaoqu/1111027378114/,龙腾苑五区,北京(昌平回龙观)回龙观镇龙腾苑五区,45772,18栋,783户,2002年建成 ,板楼,0.63至0.65元/平米/月,北京天鸿宝地物业管理经营有限公司,北京城建集团,116.33089765835788,40.073530758361144
https://bj.lianjia.com/xiaoqu/1111046963989/,金域华府二期,"北京(昌平回龙观)龙域北街5号院, 龙域北街1号院",80668,7栋,930户,2014年建成 ,板楼,3元/平米/月,北京万科物业管理有限公司,北京万科企业有限公司,116.30822685034833,40.067573954987175
https://bj.lianjia.com/xiaoqu/1111059006887/,京投发展公园悦府一区,"北京(昌平回龙观)地铁8号线平西府站向东200米, 龙锦一街37号院, 龙锦一街37号院一区",68439,15栋,2071户,2012年建成 ,塔楼/板楼,3.78元/平米/月,北京万科物业服务有限公司,京投银泰股份有限公司,116.34531358279668,40.08998912540495
https://bj.lianjia.com/xiaoqu/1120064286006657/,融泽嘉园东一路8号院,北京(昌平回龙观)龙域东一路8号,63820,3栋,448户,2013年建成 ,板楼,2.45元/平米/月,北京长城顺达物业管理有限公司,暂无信息,116.31096829606655,40.060284145315876
https://bj.lianjia.com/xiaoqu/1111027377776/,龙邸,北京(昌平回龙观)回龙观镇龙邸,55930,11栋,407户,2007年建成 ,板楼,3.28元/平米/月,北京龙城花园物业管理公司,北京昌信回龙园别墅有限公司,116.29735536470608,40.082354514055595
https://bj.lianjia.com/xiaoqu/1111027382003/,园墅,"北京(昌平回龙观)园墅, 北清路2号院",54214,57栋,389户,2006年建成 ,塔楼/板楼,3.68元/平米/月,北京同和开元物业管理有限公司,北京澳柯玛中嘉房地产开发有限公司,116.29015815991477,40.09074178208536
https://bj.lianjia.com/xiaoqu/1111027375049/,慧华苑,"北京(昌平回龙观)回龙观镇慧华苑, 行知路77号院",48560,20栋,1178户,1994年建成 ,板楼,0.65至1元/平米/月,北京东光物业管理有限公司,华润置地(北京)股份有限公司,116.31029038077232,40.07557672388924
https://bj.lianjia.com/xiaoqu/1111027379799/,通达园,北京(昌平回龙观)回龙观镇通达园,44762,8栋,679户,2000年建成 ,板楼,0.68元/平米/月,北京长城物业管理有限公司,北京通达房地产开发建设总公司,116.3151396498442,40.07780328826471
https://bj.lianjia.com/xiaoqu/1120064286006518/,融泽嘉园中路12号院,北京(昌平回龙观)龙域中路12号,65051,4栋,756户,2014年建成 ,板楼/塔板结合,2.45元/平米/月,暂无信息,暂无信息,116.3086202068702,40.05944556108963
https://bj.lianjia.com/xiaoqu/1111027375875/,佰嘉城,北京(昌平回龙观)回南路9号院,43024,28栋,1815户,2005年建成 ,板楼,0.58至1.43元/平米/月,长城物业·睿家,北京佰嘉置业集团有限公司,116.30605847555776,40.08023490495311
https://bj.lianjia.com/xiaoqu/1120064286006656/,融泽嘉园西二路2号院,北京(昌平回龙观)龙域西二路2号,64835,8栋,2144户,2016年建成 ,板楼,2.45元/平米/月,北京长城物业管理有限公司,暂无信息,116.29895032418298,40.066730620659925
https://bj.lianjia.com/xiaoqu/1111027381982/,云趣园二区,北京(昌平回龙观)云趣园二区,45710,18栋,940户,2000年建成 ,板楼,0.63至0.68元/平米/月,深圳长城物业集团股份有限公司北京分公司,北京天鸿房地产开发有限责任公司,116.3247952622147,40.08253105539353
https://bj.lianjia.com/xiaoqu/1111027379397/,首开智慧社,北京(昌平回龙观)育知东路30号院,41564,4栋,1663户,2011年建成 ,塔楼/板楼/塔板结合,2.18至2.38元/平米/月,北京天鸿宝地物业管理经营有限公司,北京城市开发集团有限责任公司,116.33120390910798,40.071447757353276
https://bj.lianjia.com/xiaoqu/1120064272367390/,融泽嘉园西二路6号院,北京(昌平回龙观)龙域西二路6号院,66362,5栋,955户,2016年建成 ,板楼/塔板结合,2.45元/平米/月,暂无信息,暂无信息,116.29940801839415,40.064010838720854
https://bj.lianjia.com/xiaoqu/1111027377718/,龙博苑二区,"北京(昌平回龙观)回龙观镇龙博苑二区, 龙博苑二区",58944,17栋,1559户,2003年建成 ,板楼,0.65元/平米/月,北京天鸿宝地物业管理经营有限公司,北京首开天鸿集团有限公司,116.33621342921936,40.06764178640642
https://bj.lianjia.com/xiaoqu/1111027381003/,新龙城,北京(昌平回龙观)昌平路380号院,60719,44栋,6736户,2006年建成 ,板楼/塔板结合,1.3至1.8元/平米/月,北京新龙天宇物业管理有限公司流星花园分公司,北京新龙房地产开发有限公司,116.3174857978765,40.067150932311534
https://bj.lianjia.com/xiaoqu/1111027374437/,风雅园二区,北京(昌平回龙观)风雅园二区,47502,11栋,1012户,1998年建成 ,板楼,0.65元/平米/月,北京天鸿宝地物业管理经营公司,北京首都开发控股（集团）有限公司,116.3161972414409,40.08097585311662
https://bj.lianjia.com/xiaoqu/1111027381983/,云趣园三区,北京(昌平回龙观)云趣园三区,46930,20栋,1386户,1999年建成 ,板楼,0.6至0.65元/平米/月,北京长城物业管理有限公司,北京首开天鸿集团有限公司,116.32469137481263,40.07933066305282
https://bj.lianjia.com/xiaoqu/1111027378212/,龙跃苑三区,北京(昌平回龙观)文华东路,43443,31栋,1908户,2005年建成 ,板楼,0.6至0.65元/平米/月,北京天鸿宝地物业管理经营有限公司,北京首开天鸿集团有限公司,116.34635853611346,40.072122293117644
https://bj.lianjia.com/xiaoqu/1111048878769/,紫晶七星广场,"北京(昌平回龙观)回龙观龙锦三街和文华东路十字路口的东北角, 文华东路8号院",31737,2栋,320户,2014年建成 ,塔楼,6.26元/平米/月,永升生活服务集团有限公司,北京创升永利房地产开发有限公司,116.34399180136127,40.083240159498665
https://bj.lianjia.com/xiaoqu/1111027381985/,云趣园一区,北京(昌平回龙观)回龙观镇龙禧苑云趣园一区,47397,27栋,1728户,1999年建成 ,板楼,0.63至0.65元/平米/月,深圳长城物业集团股份有限公司北京分公司,北京天鸿房地产开发有限责任公司,116.32271858834795,40.0852889430175
https://bj.lianjia.com/xiaoqu/1111046920539/,首开国风美唐二期,北京(昌平回龙观)科星西路90号院,71890,17栋,2377户,2012年建成 ,板楼/塔板结合,2.68元/平米/月,暂无信息,北京首都开发控股（集团）有限公司,116.354058256835,40.07828633978051
https://bj.lianjia.com/xiaoqu/1111041203849/,矩阵四期,北京(昌平回龙观)回龙观天龙苑,23900,1栋,183户,2010年建成 ,塔楼,1.8元/平米/月,北京唐人物业管理有限公司,北京腾昌兴房地产开发有限公司,116.34966629193715,40.08006547830027
https://bj.lianjia.com/xiaoqu/1111059006887/,京投发展公园悦府一区,"北京(昌平回龙观)地铁8号线平西府站向东200米, 龙锦一街37号院, 龙锦一街37号院一区",68439,15栋,2071户,2012年建成 ,塔楼/板楼,3.78元/平米/月,北京万科物业服务有限公司,京投银泰股份有限公司,116.34531358279668,40.08998912540495
https://bj.lianjia.com/xiaoqu/1120064286006657/,融泽嘉园东一路8号院,北京(昌平回龙观)龙域东一路8号,63820,3栋,448户,2013年建成 ,板楼,2.45元/平米/月,北京长城顺达物业管理有限公司,暂无信息,116.31096829606655,40.060284145315876
https://bj.lianjia.com/xiaoqu/1111047775343/,泰华龙旗广场,北京(昌平回龙观)回龙观镇黄平路19号院,39425,4栋,1260户,2011年建成 ,塔楼,3.8元/平米/月,暂无信息,北京市泰华房地产开发集团有限公司,116.3408471733181,40.064732218600554
https://bj.lianjia.com/xiaoqu/1111047349969/,融泽嘉园东一路6号院,北京(昌平回龙观)龙域东一路6号,65698,4栋,880户,2014年建成 ,板楼,2.45元/平米/月,北京长城物业管理有限公司,北京华融金晖置业有限公司,116.30955318477153,40.06332145181171
https://bj.lianjia.com/xiaoqu/1111027377089/,金达园,北京(昌平回龙观)昌平区回龙观镇金达园小区,49132,14栋,646户,1996年建成 ,板楼/平房,0.7至0.75元/平米/月,北京美好愿京物业管理有限公司,建工集团华茂房地产开发公司,116.31765830184862,40.05863033318439
https://bj.lianjia.com/xiaoqu/1111027374040/,东亚上北中心,北京(昌平回龙观)回龙观西大街9号院,36287,18栋,4194户,2009年建成 ,塔楼/塔板结合/平房,1.68至1.98元/平米/月,北京诚智慧中物业管理有限公司,北京东亚信鸿国际会展中心有限公司,116.33518998013272,40.08077550077282
https://bj.lianjia.com/xiaoqu/1111027379397/,首开智慧社,北京(昌平回龙观)育知东路30号院,41564,4栋,1663户,2011年建成 ,塔楼/板楼/塔板结合,2.18至2.38元/平米/月,北京天鸿宝地物业管理经营有限公司,北京城市开发集团有限责任公司,116.33120390910798,40.071447757353276
https://bj.lianjia.com/xiaoqu/1111027379920/,天露园一区,北京(昌平回龙观)龙禧二街天露园一区,43500,23栋,1196户,2007年建成 ,板楼,0.65元/平米/月,北京天鸿宝地物业管理经营公司,北京天鸿房地产开发有限责任公司,116.30993905029608,40.082017758390975
https://bj.lianjia.com/xiaoqu/1111027377750/,龙城花园N区,北京(昌平回龙观)回龙观龙城花园N区,55248,31栋,167户,1997年建成 ,板楼,2至2.38元/平米/月,北京龙城花园物业管理公司,北京昌信回龙园别墅有限公司,116.28981520072982,40.08586235240909
https://bj.lianjia.com/xiaoqu/1111027377581/,矩阵三期,北京(昌平回龙观)回龙观镇天龙苑,62310,6栋,713户,2007年建成 ,塔楼/板楼,1.8元/平米/月,北京唐人物业管理有限公司,北京腾昌兴房地产开发有限公司,116.34794102099426,40.080972287104345
https://bj.lianjia.com/xiaoqu/1111100821964/,首开国风美唐综合楼,"北京(昌平回龙观)首开国风美唐综合楼, 昌平区科星西路106号院",27718,6栋,1543户,2004年建成 ,塔楼/板楼,2.38至2.58元/平米/月,北京天鸿宝地物业管理经营有限公司,首开集团,116.35417450753776,40.07203391176173
https://bj.lianjia.com/xiaoqu/1111027377954/,龙锦苑五区,北京(昌平回龙观)龙锦苑五区,46877,9栋,590户,2005年建成 ,板楼,0.65元/平米/月,北京天鸿宝地物业管理经营有限公司,北京天鸿房地产开发有限责任公司,116.34533040088091,40.08158526697512
https://bj.lianjia.com/xiaoqu/1111043464865/,首开国风美唐一期,"北京(昌平回龙观)龙跃街10号院, 科星西路106号院",80261,5栋,550户,2011年建成 ,板楼,2.38元/平米/月,北京天鸿宝地物业管理经营公司,首开集团,116.35579338912291,40.07323455786116
https://bj.lianjia.com/xiaoqu/1111027374439/,风雅园一区,北京(昌平回龙观)风雅园一区,45385,12栋,768户,1999年建成 ,板楼,0.63至0.65元/平米/月,北京天鸿宝地物业管理经营公司,北京首都开发控股（集团）有限公司,116.31623326499657,40.084338010389494
https://bj.lianjia.com/xiaoqu/1111027377721/,龙博苑一区,北京(昌平回龙观)回龙观镇龙博苑一区,52096,11栋,916户,2004年建成 ,板楼,0.65元/平米/月,北京天鸿宝地物业管理经营有限公司,北京天鸿房地产开发有限责任公司,116.33094809848673,40.0680858125659
https://bj.lianjia.com/xiaoqu/1111027378131/,领秀慧谷B区,"北京(昌平回龙观)领秀慧谷, 农学院北路9号院四区, 农学院北路9",58395,18栋,1429户,2011年建成 ,板楼,1.2至3.4元/平米/月,北京金地物业管理有限责任公司,北京科技园建设股份有限公司,116.29609636256535,40.095780501689525
https://bj.lianjia.com/xiaoqu/1111027378213/,龙跃苑四区,北京(昌平回龙观)文化东路,46528,40栋,2317户,2005年建成 ,板楼,0.65元/平米/月,北京天鸿宝地物业管理经营有限公司,北京首都开发控股有限公司,116.34148410239195,40.072203974777466
https://bj.lianjia.com/xiaoqu/1111042071188/,上北鑫座,"北京(昌平回龙观)回龙观西大街, 回龙观西大街35号院",27788,4栋,1094户,2012年建成 ,塔楼,1.7至5.4元/平米/月,北京房修一物业管理有限公司,北京东亚新华投资有限公司,116.327023223984,40.07833973113797
https://bj.lianjia.com/xiaoqu/1111027378114/,龙腾苑五区,北京(昌平回龙观)回龙观镇龙腾苑五区,45772,18栋,783户,2002年建成 ,板楼,0.63至0.65元/平米/月,北京天鸿宝地物业管理经营有限公司,北京城建集团,116.33089765835788,40.073530758361144
https://bj.lianjia.com/xiaoqu/1111046963989/,金域华府二期,"北京(昌平回龙观)龙域北街5号院, 龙域北街1号院",80668,7栋,930户,2014年建成 ,板楼,3元/平米/月,北京万科物业管理有限公司,北京万科企业有限公司,116.30822685034833,40.067573954987175
https://bj.lianjia.com/xiaoqu/1111027378213/,龙跃苑四区,北京(昌平回龙观)文化东路,46528,40栋,2317户,2005年建成 ,板楼,0.65元/平米/月,北京天鸿宝地物业管理经营有限公司,北京首都开发控股有限公司,116.34148410239195,40.072203974777466
https://bj.lianjia.com/xiaoqu/1111027377581/,矩阵三期,北京(昌平回龙观)回龙观镇天龙苑,62310,6栋,713户,2007年建成 ,塔楼/板楼,1.8元/平米/月,北京唐人物业管理有限公司,北京腾昌兴房地产开发有限公司,116.34794102099426,40.080972287104345
https://bj.lianjia.com/xiaoqu/1111027379787/,天巢园,北京(昌平回龙观)昌平路395号院,60250,2栋,402户,2010年建成 ,塔楼/塔板结合,0.9至1.9元/平米/月,北京新龙天宇物业管理有限公司,宏大兴业房地产开发有限公司,116.31822275962617,40.056131407947255
https://bj.lianjia.com/xiaoqu/1111027378234/,龙泽苑东区,北京(昌平回龙观)回龙观镇龙泽苑东区,53283,26栋,1595户,2003年建成 ,塔楼/板楼,1.26至3元/平米/月,北京恒富物业服务有限公司,北京市嘉鸿房地产开发有限公司,116.32102452775973,40.07187928390878
https://bj.lianjia.com/xiaoqu/1111041203849/,矩阵四期,北京(昌平回龙观)回龙观天龙苑,23900,1栋,183户,2010年建成 ,塔楼,1.8元/平米/月,北京唐人物业管理有限公司,北京腾昌兴房地产开发有限公司,116.34966629193715,40.08006547830027
https://bj.lianjia.com/xiaoqu/1111100821964/,首开国风美唐综合楼,"北京(昌平回龙观)首开国风美唐综合楼, 昌平区科星西路106号院",27718,6栋,1543户,2004年建成 ,塔楼/板楼,2.38至2.58元/平米/月,北京天鸿宝地物业管理经营有限公司,首开集团,116.35417450753776,40.07203391176173
https://bj.lianjia.com/xiaoqu/1111027377750/,龙城花园N区,北京(昌平回龙观)回龙观龙城花园N区,55248,31栋,167户,1997年建成 ,板楼,2至2.38元/平米/月,北京龙城花园物业管理公司,北京昌信回龙园别墅有限公司,116.28981520072982,40.08586235240909
https://bj.lianjia.com/xiaoqu/1111027377950/,龙锦苑六区,北京(昌平回龙观)龙锦苑六区,50411,27栋,1227户,2002年建成 ,板楼,0.65元/平米/月,北京天鸿宝地物业管理经营有限公司,北京首开天鸿集团有限公司,116.34078116088942,40.0810734714132
https://bj.lianjia.com/xiaoqu/1111027377586/,矩阵一期,"北京(昌平回龙观)回龙观镇, 东小口镇霍营小区西区, 回龙观镇天龙苑",52942,10栋,576户,1996年建成 ,板楼,0.8元/平米/月,北京唐人物业管理有限公司,北京腾昌兴房地产开发有限公司,116.35053471388782,40.0809677129991
https://bj.lianjia.com/xiaoqu/1111027377755/,龙城花园中六区,北京(昌平回龙观)龙城花园中六区,75046,23栋,23户,1997年建成 ,板楼,2至2.4元/平米/月,北京龙城花园物业管理公司,北京昌信回龙园别墅有限公司,116.29345742878938,40.08382080531131
https://bj.lianjia.com/xiaoqu/1111027375843/,北回归线,北京(昌平回龙观)回龙观东大街336号院,29061,4栋,562户,2009年建成 ,塔楼/塔板结合,1.95元/平米/月,北京金瑞普物业管理有限责任公司,北京城建三房地产开发有限公司,116.34398478207706,40.07874311271559
https://bj.lianjia.com/xiaoqu/1111027378211/,龙跃苑二区,北京(昌平回龙观)回龙观镇龙跃苑二区,46416,28栋,1399户,2003年建成 ,板楼,0.64至0.65元/平米/月,北京天鸿宝地物业管理经营有限公司,北京天鸿永业房地产开发有限责任公司,116.34140744153208,40.07646694356195
https://bj.lianjia.com/xiaoqu/1111027377720/,龙博苑三区,"北京(昌平回龙观)回龙观镇龙博苑三区, 龙博苑三区",58482,7栋,828户,2004年建成 ,板楼,0.65元/平米/月,北京天鸿宝地物业管理经营公司,首开集团,116.33855810401845,40.065425032661956
https://bj.lianjia.com/xiaoqu/1111047917139/,领秀慧谷A区,"北京(昌平回龙观)领秀慧谷, 农学院北路9号院三区, 农学院北路9号院3区",58928,17栋,1625户,2011年建成 ,板楼/塔板结合,1.2至3.4元/平米/月,暂无信息,北京科技园建设股份有限公司,116.29799044726589,40.09574694560795
https://bj.lianjia.com/xiaoqu/1111027378110/,龙腾苑二区,北京(昌平回龙观)回龙观镇龙腾苑二区,47729,29栋,1559户,2002年建成 ,板楼,0.63至0.65元/平米/月,北京天鸿宝地物业管理经营有限公司,北京天鸿房地产开发有限责任公司,116.3306085222605,40.07633138004389
https://bj.lianjia.com/xiaoqu/1111027377759/,龙城花园中五区,北京(昌平回龙观)龙城花园中五区,77266,42栋,164户,1997年建成 ,板楼,2至2.4元/平米/月,北京龙城花园物业管理公司,北京昌信回龙园别墅有限公司,116.29311149838645,40.08238151829288
https://bj.lianjia.com/xiaoqu/118486728773575/,金域华府三期,北京(昌平回龙观)龙域北街6号院,81187,5栋,743户,2005年建成 ,板楼/塔板结合,3至3.18元/平米/月,北京万科物业管理有限公司,北京万科企业有限公司,116.30896749603174,40.06561443702942
https://bj.lianjia.com/xiaoqu/117800835289894/,首开国风美唐三期,北京(昌平回龙观)龙跃街7号院,75653,12栋,1610户,2014年建成 ,板楼,2.93元/平米/月,北京天鸿宝地物业管理经营有限公司,首开股份,116.35480336717397,40.07526249461877
https://bj.lianjia.com/xiaoqu/1111063627562/,TBD住总万科天地,北京(昌平回龙观)朱辛庄地铁站东侧50米。距离京藏高速约2公里，京新高速约4.5公里。,43421,23栋,3692户,2014年建成 ,塔楼/板楼,3.3至9.83元/平米/月,暂无信息,北京祥业万科房地产有限公司,116.30983774227417,40.101850017002235
https://bj.lianjia.com/xiaoqu/1120028333419398/,七燕路1号院,北京(昌平回龙观)七燕路1号院,暂无参考均价,12栋,2915户,暂无信息 ,板楼,2元/平米/月,暂无信息,暂无信息,116.31203122260695,40.10636379959786
https://bj.lianjia.com/xiaoqu/11000000000518/,二拨子村,北京(昌平回龙观)二拨子村,46668,1栋,7户,1983年建成 ,板楼,暂无信息,无,暂无信息,116.30701163387545,40.079912085409774
https://bj.lianjia.com/xiaoqu/1120028327178028/,龙锦一街37号院二区,北京(昌平回龙观)龙锦一街37号院,54987,8栋,1475户,暂无信息 ,塔楼/板楼,3.78元/平米/月,北京绿城伟业物业管理有限公司,暂无信息,116.35160557640282,40.08887638891699
https://bj.lianjia.com/xiaoqu/1111027374099/,二拨子新村西区,北京(昌平回龙观)回龙观镇二拨子新村西区,暂无参考均价,7栋,621户,2005年建成 ,塔楼/板楼,1.5至5元/平米/月,北京新龙天宇物业管理有限公司,无,116.29297541171691,40.0761630546526
https://bj.lianjia.com/xiaoqu/1111027378164/,龙兴园西区,北京(昌平回龙观)龙兴园西区,暂无参考均价,23栋,2012户,2005年建成 ,板楼/塔板结合,1元/平米/月,北京天宇流星花园物业管理有限公司,未知,116.29335680748665,40.07422810939483
https://bj.lianjia.com/xiaoqu/1111027377754/,龙城花园中二区,北京(昌平回龙观)龙城花园中二区,41825,23栋,22户,1997年建成 ,板楼,2至2.4元/平米/月,北京龙城花园物业管理公司,北京昌信回龙园别墅有限公司,116.29150228750677,40.08561459788242
https://bj.lianjia.com/xiaoqu/1111027374098/,二拨子新村东区,北京(昌平回龙观)回龙观镇二拨子新村东区,暂无参考均价,25栋,712户,2002年建成 ,板楼,0.59至1元/平米/月,北京天和佳祥物业管理有限公司,未知,116.29467590201114,40.07531260290486
https://bj.lianjia.com/xiaoqu/1111027377758/,龙城花园中三区,北京(昌平回龙观)龙城花园中三区,102050,51栋,52户,1997年建成 ,板楼,2元/平米/月,北京龙城花园物业管理公司,北京昌信回龙园别墅有限公司,116.2910944282783,40.08339616864865
https://bj.lianjia.com/xiaoqu/1111027377760/,龙城花园中一区,北京(昌平回龙观)龙城花园中一区,91487,20栋,20户,1997年建成 ,板楼,2.4元/平米/月,北京龙城花园物业管理公司,北京昌信回龙园别墅有限公司,116.29010135635315,40.08491417353942
https://bj.lianjia.com/xiaoqu/1111027376327/,城北人家,北京(昌平回龙观)城北人家,暂无参考均价,5栋,244户,1990年建成 ,板楼,0.65元/平米/月,自持物业,无,116.32299992670158,40.11128300430119
https://bj.lianjia.com/xiaoqu/1111027377756/,龙城花园中七区,北京(昌平回龙观)龙城花园中七区,84535,49栋,49户,2003年建成 ,板楼,2.38至3.58元/平米/月,北京龙城花园物业管理公司,北京昌信回龙园别墅有限公司,116.29375727884103,40.08661800194362
https://bj.lianjia.com/xiaoqu/1111027382730/,朱辛庄南区,北京(昌平回龙观)朱辛庄南区,暂无参考均价,20栋,1230户,2007年建成 ,板楼,1元/平米/月,北京新龙天宇物业公司, 陕西亿润经贸有限公司 ,116.30360903826121,40.09694257969596
https://bj.lianjia.com/xiaoqu/1111041155658/,琥珀天地,"北京(昌平回龙观)八达岭高速回龙观B出口东500米, 回龙观西大街85号",24369,1栋,491户,2006年建成 ,塔板结合,1至2元/平米/月,北京中建物业管理有限公司琥珀物业管理分公司,首开集团,116.31797280042183,40.07541668866837
https://bj.lianjia.com/xiaoqu/1111027374641/,港龙商业中心,北京(昌平回龙观)港龙商业中心,45850,13栋,237户,2006年建成 ,塔楼,3.45元/平米/月,北京诚智思源物业管理经营有限公司,暂无信息,116.32532972337947,40.0770155311309
https://bj.lianjia.com/xiaoqu/1111027377758/,龙城花园中三区,北京(昌平回龙观)龙城花园中三区,102050,51栋,52户,1997年建成 ,板楼,2元/平米/月,北京龙城花园物业管理公司,北京昌信回龙园别墅有限公司,116.2910944282783,40.08339616864865
https://bj.lianjia.com/xiaoqu/1111027374098/,二拨子新村东区,北京(昌平回龙观)回龙观镇二拨子新村东区,暂无参考均价,25栋,712户,2002年建成 ,板楼,0.59至1元/平米/月,北京天和佳祥物业管理有限公司,未知,116.29467590201114,40.07531260290486
https://bj.lianjia.com/xiaoqu/1111046418583/,回龙观新村东区,北京(昌平回龙观)回龙观新村东区,暂无参考均价,8栋,2688户,2007年建成 ,板楼,1至1.8元/平米/月,北京亿丰达物业管理有限公司,未知,116.30689277128164,40.06213591833478
https://bj.lianjia.com/xiaoqu/1111043410371/,国仕汇,北京(昌平回龙观)回南路10号院,29001,14栋,2625户,2012年建成 ,板楼,1.47至1.48元/平米/月,万科物业发展有限公司,北京佰嘉置业集团有限公司,116.30656667879796,40.07890678024966
https://bj.lianjia.com/xiaoqu/1111027382729/,朱辛庄北区,北京(昌平回龙观)朱辛庄北区,暂无参考均价,13栋,936户,2007年建成 ,板楼,1至1.5元/平米/月,自持物业,无,116.3035720417343,40.09892747494922
https://bj.lianjia.com/xiaoqu/1111047005715/,蓝天嘉园,北京(昌平回龙观)蓝天嘉园,暂无参考均价,12栋,1925户,2008年建成 ,板楼/塔板结合,2.3元/平米/月,北京蓝天圣湾物业管理有限公司,无开发商,116.31068864242197,40.06409584327569
https://bj.lianjia.com/xiaoqu/1111046415993/,回龙观新村中区,北京(昌平回龙观)回龙观村中区,暂无参考均价,8栋,1722户,2001年建成 ,板楼,2元/平米/月,北京上地创业物业管理有限责任公司上地餐饮分公司,上海上地置业有限公司,116.3046933356579,40.06081695743724
https://bj.lianjia.com/xiaoqu/1111046408987/,回龙观新村西区,北京(昌平回龙观)回龙观村,暂无参考均价,10栋,2752户,2001年建成 ,板楼,1.6至1.8元/平米/月,北京真有道物业管理服务有限公司,北京新龙城房地产开发有限公司,116.30183307706172,40.061314320026035
https://bj.lianjia.com/xiaoqu/1111046210791/,生命科学园四区,北京(昌平回龙观)生命科学园四区,暂无参考均价,3栋,464户,2008年建成 ,板楼,暂无信息,单位自管物业,暂无信息,116.2972904103546,40.09524307213654
https://bj.lianjia.com/xiaoqu/1111047640344/,万科住总金域国际中心,北京(昌平回龙观)回龙观京藏高速回龙观出口西侧,35326,2栋,556户,2015年建成 ,塔楼,0.98至3元/平米/月,北京万科物业公司,北京住总万科房地产开发有限公司,116.31176907196654,40.067248269565795
https://bj.lianjia.com/xiaoqu/117557444022847/,龙域东一路6号院,北京(昌平回龙观)龙域东一路6号院1号楼,暂无参考均价,4栋,880户,2015年建成 ,塔楼,2.45元/平米/月,自持物业,暂无信息,116.30900513868825,40.06333171004676
https://bj.lianjia.com/xiaoqu/1111027375153/,华龙苑南里,北京(昌平霍营)华龙苑南里,55382,30栋,2190户,1994年建成 ,塔楼/板楼,0.6至1.1元/平米/月,北京市龙冠物业管理有限公司,北京三江鸿泰房地产开发有限公司,116.36008766133735,40.071300788826704
https://bj.lianjia.com/xiaoqu/1111027375139/,慧龙居,北京(昌平霍营)东小口镇慧龙居,48940,5栋,252户,1999年建成 ,板楼,0.85元/平米/月,北京市龙冠物业管理有限公司,北京富亿通控股有限责任公司,116.36292146684023,40.07800507948885
https://bj.lianjia.com/xiaoqu/1111027380361/,旺龙花园,北京(昌平霍营)东小口镇旺龙花园,51742,1栋,144户,2004年建成 ,塔楼,1.3元/平米/月,北京友邦利通物业管理有限公司,博大房地产开发有限公司,116.3604103139522,40.07937719552198
https://bj.lianjia.com/xiaoqu/1111027378540/,农垦学院家属楼,北京(昌平霍营)黄平路209号院,69893,2栋,174户,1986年建成 ,板楼,0.8元/平米/月,北京万达物业管理中心,北京城建开发有限公司,116.36056679570592,40.078683474422775
https://bj.lianjia.com/xiaoqu/1111027377946/,龙锦苑东一区,北京(昌平霍营)龙锦苑东一区,43948,18栋,1512户,2007年建成 ,板楼,0.65元/平米/月,北京天鸿宝地物业管理经营有限公司,北京首都开发控股（集团）有限公司,116.36086364955133,40.08750005796299
https://bj.lianjia.com/xiaoqu/1111027380069/,天鑫家园,北京(昌平霍营)十里长街东延路天鑫家园小区,52278,22栋,1279户,2000年建成 ,塔楼/板楼/塔板结合,0.85元/平米/月,北京市友邦物业管理有限公司,北京龙鑫房地产开发有限公司,116.36975742168632,40.07945482449408
https://bj.lianjia.com/xiaoqu/1111027375515/,霍营小区,北京(昌平霍营)东小口镇霍营小区,60359,11栋,877户,1993年建成 ,板楼,1.2元/平米/月,北京市霍营小区物业管理中心,北京市四方房地产开发总公司,116.36713195186552,40.07765681683275
https://bj.lianjia.com/xiaoqu/1111027377945/,龙锦苑东五区,北京(昌平霍营)龙锦三街龙锦苑东五区,42445,22栋,1661户,2007年建成 ,板楼,0.65元/平米/月,北京天鸿宝地物业管理经营有限公司,首开地产,116.36865502554488,40.085143873677744
https://bj.lianjia.com/xiaoqu/1111027375152/,华龙苑北里,北京(昌平霍营)十里长街东延路华龙苑北里小区,56758,13栋,974户,2005年建成 ,塔楼/板楼/塔板结合,1.7至1.8元/平米/月,广州市三原物业管理有限公司北京第一分公司,北京三江鸿泰房地产开发有限公司,116.36412337575916,40.07961300805062
https://bj.lianjia.com/xiaoqu/1111046089544/,紫金新干线二期,"北京(昌平霍营)回南路与回龙观东大街交汇处向东1.3公里南侧, 新干线家园二区",64534,15栋,1359户,2013年建成 ,板楼,2.85元/平米/月,北京银达物业管理有限公司,北京新领域房地产开发有限公司,116.37366960635336,40.07637818674919
https://bj.lianjia.com/xiaoqu/1111027375154/,华龙苑中里,北京(昌平霍营)昌平区东小口镇华龙苑中里,57845,30栋,2077户,1990年建成 ,板楼,0.8至1元/平米/月,北京市华龙苑物业管理中心,北京三江鸿泰房地产开发有限公司,116.36328356611622,40.076752567638614
https://bj.lianjia.com/xiaoqu/1111027377944/,龙锦苑东三区,北京(昌平霍营)龙锦苑东三区,43663,10栋,779户,2000年建成 ,板楼,0.65至0.66元/平米/月,北京天鸿宝地物业管理经营公司,首开集团,116.3633694880502,40.081699780218706
https://bj.lianjia.com/xiaoqu/1111027378109/,蓝天园,北京(昌平霍营)昌平区东小口镇蓝天园,48781,6栋,431户,1993年建成 ,板楼,1.28元/平米/月,业主自筹物业,北京城建集团,116.36320601268615,40.072325925901566
https://bj.lianjia.com/xiaoqu/1111027382546/,紫金新干线,"北京(昌平霍营)回南路与回龙观东大街交汇处向东1.3公里南侧, 新干线家园一区",62003,25栋,1864户,2009年建成 ,板楼,1.2至1.82元/平米/月,北京悦豪物业管理有限公司,北京新领域房地产开发有限公司,116.37386061169225,40.078922915013244
https://bj.lianjia.com/xiaoqu/1111027377940/,龙锦苑东二区,北京(昌平霍营)龙锦苑东二区,42558,18栋,1407户,2007年建成 ,板楼,0.65至0.66元/平米/月,北京天鸿宝地物业管理经营有限公司,首开集团,116.36180566287008,40.083985231660236
https://bj.lianjia.com/xiaoqu/1111027377943/,龙锦苑东四区,北京(昌平霍营)龙锦三街龙锦苑东四区,44666,18栋,1513户,2009年建成 ,板楼,0.65元/平米/月,北京天鸿宝地物业管理经营有限公司,北京天鸿置业有限公司,116.36881006111243,40.082075256795115
https://bj.lianjia.com/xiaoqu/1111027375951/,北郊医院家属楼,北京(昌平霍营)东小口镇家属楼,暂无参考均价,5栋,162户,1990年建成 ,板楼,0.6元/平米/月,北京市华龙苑物业管理中心, 重庆汇东房地产开发有限公司,116.35934422483524,40.07422984524524
https://bj.lianjia.com/xiaoqu/1117722703359283/,霍营村北,北京(昌平霍营)霍营村北,43630,1栋,1户,2004年建成 ,未知类型,暂无信息,暂无信息,暂无信息,116.36245934962811,40.07975532059378
https://bj.lianjia.com/xiaoqu/1111027379509/,上坡佳园,北京(昌平霍营)上坡佳园,33838,7栋,761户,2008年建成 ,塔板结合,1.4元/平米/月,北京中天鸿物业管理有限公司,首开集团,116.36117558728233,40.08138155006191
https://bj.lianjia.com/xiaoqu/1111027378672/,农业商业银行宿舍楼,北京(昌平霍营)农业商业银行宿舍楼,暂无参考均价,1栋,30户,暂无信息 ,板楼,暂无信息,暂无信息,暂无信息,116.36244957227096,40.07499753847292
https://bj.lianjia.com/xiaoqu/1111027377553/,佳运园二期,北京(昌平立水桥)天通苑南街道佳运园,52822,15栋,936户,2004年建成 ,塔楼/板楼,0.7至0.75元/平米/月,北京瑞赢酒店物业管理有限公司,北京市裕发房地产开发集团,116.39503901400113,40.044920900482744
https://bj.lianjia.com/xiaoqu/1111027377555/,佳运园三期,北京(昌平立水桥)天通苑南街道佳运园,50123,7栋,495户,2004年建成 ,塔楼/板楼,0.7至0.78元/平米/月,北京裕发弘瑞物业管理有限公司,北京市裕发房地产开发集团,116.39755716629229,40.04421270734846
https://bj.lianjia.com/xiaoqu/1111027378404/,明天第一城1号院,北京(昌平立水桥)立清路1号,72607,1栋,144户,2007年建成 ,板楼,1元/平米/月,深圳长城物业集团股份有限公司北京分公司,北京明天房地产开发有限公司,116.40211994988853,40.05116972839471
https://bj.lianjia.com/xiaoqu/1111027373982/,顶秀青溪,北京(昌平立水桥)顶秀青溪家园,65388,23栋,1057户,2006年建成 ,板楼/塔板结合,1.92至2.95元/平米/月,北京鸿路泽物业管理有限公司,北京泰福恒房地产开发有限责任公司,116.39885383913851,40.05138981636469
https://bj.lianjia.com/xiaoqu/1111027374067/,地质勘查大院,北京(昌平立水桥)立水桥甲2号院,52791,3栋,180户,1983年建成 ,板楼,1元/平米/月,北京中原物业有限公司,中元地产,116.41083935845259,40.0558203654342
https://bj.lianjia.com/xiaoqu/1111027376858/,东方郁金香,北京(朝阳立水桥)汤立路216号院,24425,4栋,513户,2009年建成 ,塔板结合,3.5元/平米/月,北京市北宇物业管理公司,北京祥业房地产有限公司,116.40700266311863,40.049569107080345
https://bj.lianjia.com/xiaoqu/1111027378915/,清水园一期,北京(昌平立水桥)天通苑南街道清水园,56656,5栋,330户,1997年建成 ,板楼,0.8元/平米/月,北京长胜物业管理有限责任公司,北京京电房地产开发经营公司,116.39453917018331,40.04662248148819
https://bj.lianjia.com/xiaoqu/1111027378406/,明天第一城6号院,北京(朝阳立水桥)立清路6号院,34919,4栋,1279户,2007年建成 ,板楼/塔板结合,1.85至5元/平米/月,深圳长城物业集团股份有限公司北京分公司,北京明天房地产开发有限公司,116.40289580129284,40.04755942017512
https://bj.lianjia.com/xiaoqu/1111027377774/,立城苑,北京(朝阳立水桥)立水桥甲3号院,53393,7栋,1106户,2001年建成 ,板楼/塔板结合,1.3至3.5元/平米/月,北京燕城物业管理有限公司,北京城建四建设工程有限责任公司,116.40933012722222,40.05081431222778
https://bj.lianjia.com/xiaoqu/1111027375566/,奥北南区,北京(朝阳立水桥)汤立路201号院,34099,6栋,1960户,2008年建成 ,塔楼/板楼/塔板结合,1.78元/平米/月,北京富瑞物业管理有限公司,北京信永房地产开发有限公司,116.40517838522702,40.053109945705536
https://bj.lianjia.com/xiaoqu/1111027377014/,嘉诚花园一期,北京(昌平立水桥)天通苑南街道嘉诚花园,50311,4栋,288户,1998年建成 ,板楼,0.8元/平米/月,北京裕发弘瑞物业管理有限公司,北京三元嘉铭房地产开发有限公司,116.39973495803,40.042165707938764
https://bj.lianjia.com/xiaoqu/1111027376788/,东辰小区,"北京(昌平立水桥)立军路东辰小区, 陈营村北北苑北小区",52202,13栋,713户,1994年建成 ,板楼,1元/平米/月,北京东辰物业管理有限公司,北京远洋房地产开发有限公司,116.40041692037887,40.04867478130001
https://bj.lianjia.com/xiaoqu/1111027378408/,明天第一城8号院,北京(朝阳立水桥)立清路8号院,35523,5栋,913户,2007年建成 ,板楼/塔板结合,1.85至5元/平米/月,深圳长城物业集团股份有限公司北京分公司,北京明天房地产开发有限公司,116.40316521379167,40.045642825803405
https://bj.lianjia.com/xiaoqu/1111027375871/,北京北,北京(昌平立水桥)中滩村大街8号院,66155,9栋,1553户,2008年建成 ,塔板结合,1.88元/平米/月,北京中经物业管理中心,北京新天麓房地产开发有限公司,116.40035431371744,40.054478731722
https://bj.lianjia.com/xiaoqu/1111027377013/,嘉诚花园二期,北京(昌平立水桥)天通苑南街道嘉诚花园,47302,5栋,292户,2003年建成 ,板楼,0.8元/平米/月,北京裕发弘瑞物业管理有限公司,北京三元嘉铭房地产开发有限公司,116.3995464851978,40.04367771446011
https://bj.lianjia.com/xiaoqu/1111027379502/,塞纳维拉,北京(朝阳立水桥)立水桥北里2号,81310,46栋,311户,2001年建成 ,板楼,3.5至4.5元/平米/月,锦江国际（集团）有限公司,无开发商,116.4102702455148,40.054478209146815
https://bj.lianjia.com/xiaoqu/1111027377557/,佳运园一期,北京(昌平立水桥)立军路佳运园,49641,10栋,879户,1996年建成 ,板楼,0.7至0.8元/平米/月,北京裕发弘瑞物业管理有限公司,北京市裕发房地产开发集团,116.39372725489237,40.044706377648815
https://bj.lianjia.com/xiaoqu/1111027378914/,清水园二期,北京(昌平立水桥)天通苑南街道清水园,48031,6栋,369户,2003年建成 ,板楼,0.65至0.8元/平米/月,北京长胜物业管理有限责任公司,北京京电房地产开发经营公司,116.39427616479385,40.04751834040837
https://bj.lianjia.com/xiaoqu/1111027378411/,明天生活馆,北京(朝阳立水桥)汤立路218号院,24290,3栋,1153户,2000年建成 ,塔板结合,2元/平米/月,深圳长城物业集团股份有限公司,北京中联亚国际会展中心有限公司,116.40750607126283,40.048952356906206
https://bj.lianjia.com/xiaoqu/1111027375135/,合立方,北京(昌平立水桥)中滩村6号院,57461,7栋,1067户,2010年建成 ,塔楼/板楼/塔板结合,1.95至2.28元/平米/月,北京燕城物业管理有限公司,北京新城时代房地产开发有限公司,116.40393284861064,40.05548598449426
https://bj.lianjia.com/xiaoqu/1111027378405/,明天第一城5号院,北京(朝阳立水桥)立清路5号院,63365,6栋,357户,2006年建成 ,板楼,1.85元/平米/月,深圳长城物业集团股份有限公司北京分公司,北京明天房地产开发有限公司,116.40093311931525,40.04711325199501
https://bj.lianjia.com/xiaoqu/1111027382599/,肿瘤医院宿舍,北京(昌平立水桥)肿瘤医院宿舍,54670,5栋,300户,1993年建成 ,板楼,1元/平米/月,北京东辰物业管理有限公司,无开发商,116.3994327477376,40.047005087344075
https://bj.lianjia.com/xiaoqu/1111027375783/,北方明珠,北京(昌平立水桥)立汤路188号,43809,4栋,1067户,2001年建成 ,塔楼,1.95至2.45元/平米/月,北京千佳物业管理有限公司,北京中联亚房地产开发有限公司,116.40982013198459,40.0562554266735
https://bj.lianjia.com/xiaoqu/1111027378407/,明天第一城7号院,北京(朝阳立水桥)立清路7号院,34921,9栋,2164户,2007年建成 ,塔板结合,1.85元/平米/月,深圳长城物业集团股份有限公司北京分公司,北京明天房地产开发有限公司,116.40178940820827,40.045790467399655
https://bj.lianjia.com/xiaoqu/1111027379005/,润枫欣尚,北京(昌平立水桥)中东路5号院,27756,7栋,1083户,2011年建成 ,塔楼,2.95元/平米/月,北京润丰世纪物业管理有限公司,北京润丰房地产开发有限公司,116.40691266647703,40.05602017351854
https://bj.lianjia.com/xiaoqu/1111027380623/,溪城家园,"北京(昌平立水桥)陈家营西路1号院，陈家营西路2号院, 溪城家园1号院, 溪城家园2号院",53829,18栋,3939户,2010年建成 ,板楼/塔板结合,1.78元/平米/月,北京首欣物业管理有限责任公司,招商局地产（北京）有限公司,116.3943118950358,40.04217831820536
https://bj.lianjia.com/xiaoqu/1111027376461/,城建集团家属楼,北京(朝阳立水桥)立水桥北里,64152,1栋,72户,1990年建成 ,塔板结合,暂无信息,业主自筹物业,北京城建集团有限责任公司,116.40757737290886,40.051075076208235
https://bj.lianjia.com/xiaoqu/1111027377511/,佳运广场,北京(昌平立水桥)天通苑南街道佳运广场,50884,2栋,790户,2004年建成 ,塔楼,5元/平米/月,北京裕发弘瑞物业管理有限公司,北京市裕发房地产开发集团,116.39807564791386,40.04558969251461
https://bj.lianjia.com/xiaoqu/1111027376684/,陈营小区,北京(昌平立水桥)陈营小区,暂无参考均价,11栋,600户,1996年建成 ,板楼,1元/平米/月,北京裕发弘瑞物业管理有限公司,北京裕发房地产开发有限公司,116.397450475695,40.03995810243205
https://bj.lianjia.com/xiaoqu/1111046251934/,时代新苑,北京(昌平立水桥)时代新苑,暂无参考均价,2栋,567户,2011年建成 ,塔楼,暂无信息,暂无信息,暂无信息,116.40359692738114,40.05507589308406
https://bj.lianjia.com/xiaoqu/11000000007775/,鹿牌家园9号院,北京(昌平南口)温南路玉龙公寓旁,23946,1栋,3户,1992年建成 ,板楼,暂无信息,无物业管理服务,暂无信息,116.13313935574672,40.24001459715242
https://bj.lianjia.com/xiaoqu/1111060111249/,钢圈厂宿舍,北京(昌平南口)南口镇东升街钢圈厂宿舍,24796,2栋,80户,1981年建成 ,板楼/塔板结合,暂无信息,无,无,116.12897822475253,40.23671159870248
https://bj.lianjia.com/xiaoqu/1111042946352/,鹿牌家园小区,"北京(昌平南口)东大街9号院, 东大街22号",22772,10栋,1115户,1982年建成 ,塔楼/板楼,0.93元/平米/月,暂无信息,无开发商,116.13127890957472,40.23934149599571
https://bj.lianjia.com/xiaoqu/1111100788735/,南厂北区,北京(昌平南口)南厂北区,22594,14栋,674户,1979年建成 ,板楼,暂无信息,均豪北区（北京）物业管理有限公司, 陕西亿润经贸有限公司 ,116.11678199289203,40.24546335386029
https://bj.lianjia.com/xiaoqu/1111063030340/,南厂住宅中区,北京(昌平南口)南厂住宅中区,24142,16栋,587户,1960年建成 ,板楼,暂无信息,无物业管理服务,无,116.11977891184176,40.24084308069146
https://bj.lianjia.com/xiaoqu/1111100247576/,南辛路7号院,北京(昌平南口)南辛路7号院,21790,6栋,137户,1980年建成 ,板楼,3.75元/平米/月,北京南口南农家园物业管理有限责任公司, 石家庄博皓房地产开发公司有限公司,116.1346982096146,40.228809563626726
https://bj.lianjia.com/xiaoqu/1111059830724/,新西广街,北京(昌平南口)新西广街,25598,15栋,871户,1979年建成 ,板楼,1元/平米/月,北京鸿业恩泽物业管理有限公司,无,116.11587272589752,40.23493555325754
https://bj.lianjia.com/xiaoqu/1111060303550/,南厂住宅西区,北京(昌平南口)南口镇,23546,27栋,914户,1990年建成 ,塔楼/板楼,暂无信息,无物业管理服务, 陕西亿润经贸有限公司 ,116.11866128564698,40.243314698643765
https://bj.lianjia.com/xiaoqu/1111062314453/,南口镇南大街,北京(昌平南口)南口镇南大街,22253,8栋,326户,1979年建成 ,板楼,暂无信息,无物业管理服务,无,116.11975659882836,40.23359062464359
https://bj.lianjia.com/xiaoqu/1111100893076/,丰景高苑,北京(昌平南口)南口镇丰景高苑,21685,4栋,205户,2000年建成 ,板楼,0.5元/平米/月,暂无信息,无,116.12493152227628,40.23630735293274
https://bj.lianjia.com/xiaoqu/1111100568295/,水厂路,北京(昌平南口)水厂路社区,21343,5栋,198户,1988年建成 ,板楼,0.6元/平米/月,暂无信息,暂无信息,116.12281235934955,40.232795335470335
https://bj.lianjia.com/xiaoqu/1111099837711/,兴隆小区,"北京(昌平南口)兴隆小区, 兴隆街34号",24630,4栋,230户,1996年建成 ,板楼,0.7至1.2元/平米/月,北京银达物业管理有限公司,兴隆县三合投资有限公司,116.1232501277558,40.23411682627159
https://bj.lianjia.com/xiaoqu/1120039803750591/,南口镇粮食局宿舍楼,北京(昌平南口)新兴路北粮食局宿舍楼,20170,1栋,4户,1985年建成 ,板楼,暂无信息,暂无信息,暂无信息,116.12327043124361,40.24095136357085
https://bj.lianjia.com/xiaoqu/1120023115458781/,兴隆街,"北京(昌平南口)兴隆街34号, 兴隆街7号",24506,2栋,56户,1990年建成 ,板楼,暂无信息,暂无信息,无,116.12299693569308,40.23334716607335
https://bj.lianjia.com/xiaoqu/1117681736544736/,游览路7号院,北京(昌平南口)游览路7号院,20488,2栋,74户,1999年建成 ,板楼,1元/平米/月,无物业管理服务,无,116.1220472552726,40.24760253257904
https://bj.lianjia.com/xiaoqu/1120020328756756/,丁字街,北京(昌平南口)丁字街,26145,1栋,36户,1992年建成 ,板楼,暂无信息,街道办事处（委员会）代管物业,无,116.12582700291385,40.23641934015644
https://bj.lianjia.com/xiaoqu/1120020328750141/,南大街6号院,北京(昌平南口)南大街6号院,26052,2栋,100户,1983年建成 ,塔板结合,0.5元/平米/月,北京宏丰行物业管理有限责任公司,无开发商,116.12567319878195,40.23384405420102
https://bj.lianjia.com/xiaoqu/1117000579238015/,供电局家属楼,北京(昌平南口)南口镇东升街甲1号楼,24380,1栋,55户,1995年建成 ,板楼,暂无信息,北京市大龙物业管理中心,广东电网公司深圳供电局,116.12856416918002,40.237878245117095
https://bj.lianjia.com/xiaoqu/1117656870898636/,南口小学教师楼,北京(昌平南口)兴隆街,27424,1栋,60户,1990年建成 ,板楼,暂无信息,暂无信息,无,116.12249304736677,40.23503855695249
https://bj.lianjia.com/xiaoqu/1111059823659/,南厂东区,北京(昌平南口)南厂东区,24318,17栋,705户,1970年建成 ,板楼,暂无信息,无物业管理服务, 重庆汇东房地产开发有限公司,116.12137241129086,40.24396656072505
https://bj.lianjia.com/xiaoqu/1111027378569/,南农家园,北京(昌平南口)南农家园,23032,16栋,795户,1989年建成 ,板楼,0.5元/平米/月,北京南口南农家园物业管理有限责任公司,无,116.10900843322057,40.208723560181866
https://bj.lianjia.com/xiaoqu/1111100070014/,水泥机械厂宿舍,北京(昌平南口)隆东街28号,25930,7栋,208户,1979年建成 ,板楼,0.5至2元/平米/月,无物业管理服务,无开发公司,116.12755309862293,40.23535478868911
https://bj.lianjia.com/xiaoqu/1111027381868/,玉龙嘉苑,"北京(昌平南口)玉龙嘉苑, 南辛路6号院",26222,6栋,237户,2008年建成 ,板楼/塔板结合,0.65元/平米/月,无物业管理服务,无,116.13410254908273,40.22972467977251
https://bj.lianjia.com/xiaoqu/11000000007816/,南口镇福元街,北京(昌平南口)昌平区南口镇福元街6号4-2幢1层,暂无参考均价,1栋,1户,暂无信息 ,板楼,暂无信息,暂无信息,暂无信息,116.1189105287865,40.236092715764364
https://bj.lianjia.com/xiaoqu/11000000006198/,南口镇南辛路2号,北京(昌平南口)南辛路2号,25331,1栋,2户,1988年建成 ,板楼,暂无信息,自持物业,暂无信息,116.13163801843548,40.23221913787374
https://bj.lianjia.com/xiaoqu/1111027375973/,玻璃厂小区,北京(昌平南口)昌平南口,18225,15栋,674户,1980年建成 ,板楼,1.8元/平米/月,小区物业,无,116.12346779335029,40.23305023706148
https://bj.lianjia.com/xiaoqu/1111100477321/,化肥厂宿舍,北京(昌平南口)南辛路7号,20677,2栋,80户,1998年建成 ,板楼,暂无信息,暂无信息,暂无信息,116.13496625486317,40.22881790691021
https://bj.lianjia.com/xiaoqu/1117771083369359/,南口镇西中街,北京(昌平南口)南口镇西中街,暂无参考均价,2栋,2户,1951年建成 ,塔板结合,2元/平米/月,自持物业,暂无信息,116.12110400283945,40.23641090907708
https://bj.lianjia.com/xiaoqu/1118243965431624/,东升街49号,"北京(昌平南口)东升街甲49号, 东升街49号",28453,2栋,35户,1981年建成 ,板楼,暂无信息,暂无信息,无,116.12932402274771,40.2365400713519
https://bj.lianjia.com/xiaoqu/1120032955385683/,工商宿舍楼,"北京(昌平南口)亭阳路甲1号, 亭阳路工商宿舍楼",23220,1栋,2户,1992年建成 ,板楼,暂无信息,暂无信息,暂无信息,116.13171669311761,40.23079832327189
https://bj.lianjia.com/xiaoqu/1120035044993611/,南辛路供销社宿舍楼,北京(昌平南口)南辛路供销社宿舍楼,31058,1栋,29户,1997年建成 ,板楼,1.58元/平米/月,无,暂无信息,116.1339808795908,40.22718802640146
https://bj.lianjia.com/xiaoqu/1111100007848/,硅谷SOHO,北京(昌平南邵)京藏高速科技园出口（28出口）凉水河路,19679,4栋,1369户,2017年建成 ,塔楼/塔板结合,1至3.85元/平米/月,北京昌振顺达物业管理有限公司,北京汉慈堂康体有限公司,116.22725896338281,40.194855396669944
https://bj.lianjia.com/xiaoqu/1120030668620426/,招商都会湾,"北京(昌平南邵)内环西路招商都会中心,文智路15号院",49880,32栋,1432户,2019年建成 ,板楼,3.98至4.98元/平米/月,暂无信息,北京招商局铭嘉房地产开发有限公司,116.27267082732254,40.21010065635014
https://bj.lianjia.com/xiaoqu/1120021980504492/,泰禾拾景园,北京(昌平南邵)昌平地铁南邵站西100米,56101,39栋,1185户,2018年建成 ,塔楼/板楼,5.98至6元/平米/月,暂无信息,北京泰和嘉兴房地产开发有限公司,116.28044597436231,40.20404861476585
https://bj.lianjia.com/xiaoqu/1111027379991/,拓然家苑,北京(昌平南邵)拓然家苑,33317,20栋,1301户,1999年建成 ,板楼/塔板结合,0.5至1.5元/平米/月,自持物业,无开发公司,116.23018346171563,40.197932183689346
https://bj.lianjia.com/xiaoqu/1111055240525/,路劲世界城二期,"北京(昌平南邵)新城地铁南邵站向东200米, 双营西路78号院",46043,25栋,2327户,2013年建成 ,塔楼/板楼/塔板结合/平房,2.46至6.9元/平米/月,京港路劲物业管理（北京）有限公司,北京路劲隽御房地产开发有限公司,116.28704411656601,40.20479354078358
https://bj.lianjia.com/xiaoqu/1111055716316/,金科廊桥水岸,"北京(昌平南邵)景文东路4号院, 景文东路3号院",58580,30栋,1196户,2010年建成 ,板楼,3元/平米/月,金科物业服务集团有限公司,金科弘居置业有限公司,116.26856331788497,40.19310840997527
https://bj.lianjia.com/xiaoqu/1111056054668/,宜山居,"北京(昌平南邵)南邵地铁站向东1500米路北, 南金路7号院五区, 南金路7号院六区, 南金路7号院(七区)",37507,74栋,812户,2010年建成 ,板楼,1.5至5元/平米/月,北京昌振顺达物业服务公司,北京兴昌达博房地产开发有限公司,116.30510967070487,40.20647422025727
https://bj.lianjia.com/xiaoqu/1111054847914/,长滩壹号,北京(昌平南邵)景文东路1号院,51241,21栋,774户,2010年建成 ,板楼,3至3.8元/平米/月,天津融创物业管理有限公司北京分公司,融创中国控股有限公司,116.26807617637432,40.19557329969803
https://bj.lianjia.com/xiaoqu/1111063166556/,中国铁建青秀尚城,北京(昌平南邵)南邵地铁站A口西300米,50185,20栋,1762户,2013年建成 ,板楼/塔板结合,2.9至5.5元/平米/月,北京铁建物业管理有限公司,中国铁建集团北京金达世纪房地产开发有限公司,116.27493489250512,40.20505068908296
https://bj.lianjia.com/xiaoqu/1111046251721/,龙山华府,北京(昌平南邵)白浮泉路26号院,40256,14栋,1954户,2010年建成 ,板楼/塔板结合,2.3元/平米/月,北京昌振顺达物业管理有限公司,北京正宏置业集团有限公司,116.2414532734885,40.19823830682055
https://bj.lianjia.com/xiaoqu/1111055105362/,北郡嘉源,北京(昌平南邵)南丰路,40837,11栋,1340户,2010年建成 ,塔楼/板楼/塔板结合,2.28元/平米/月,中电建物业管理有限公司 ,无,116.27149262143975,40.19643779897505
https://bj.lianjia.com/xiaoqu/1111054265763/,花雨汀,北京(昌平南邵)中兴路17号院,41359,8栋,804户,2014年建成 ,板楼,2.4元/平米/月,北京百姓人家物业管理中心,中矿宏业锦泰（北京）房地产开发有限公司,116.22988033713366,40.1946707722165
https://bj.lianjia.com/xiaoqu/1111046824670/,龙山跃,北京(昌平南邵)凉水河路1号院,25137,2栋,792户,2006年建成 ,塔楼,2.1元/平米/月,北京昌振顺达物业管理有限公司,中矿宏业锦泰（北京）房地产开发有限公司,116.22788877724258,40.19890222627261
https://bj.lianjia.com/xiaoqu/1111046941625/,路劲世界城一期,北京(昌平南邵)双营西路78号院,44106,8栋,1131户,2011年建成 ,塔楼/板楼/塔板结合,2.36至2.46元/平米/月,京港路劲物业管理（北京）有限公司,北京路劲隽御房地产开发有限公司,116.28515019542921,40.204899636551076
https://bj.lianjia.com/xiaoqu/1111048050876/,国惠村,北京(昌平南邵)昌平南邵镇,39262,11栋,1347户,2013年建成 ,塔楼/板楼/塔板结合,2.2至2.28元/平米/月,国奥投资发展有限公司,暂无信息,116.29255870125279,40.213104017753956
https://bj.lianjia.com/xiaoqu/116807458689995/,中国铁建尚城汇,"北京(昌平南邵)昌平区南邵地铁站A口西300米, 景兴街25号院",23893,3栋,780户,2014年建成 ,塔楼/塔板结合,2.8至5.5元/平米/月,北京华苑物业管理服务有限公司,中国铁建集团北京金达世纪房地产开发有限公司,116.27575712468432,40.20479243736327
https://bj.lianjia.com/xiaoqu/1120052030333875/,企业墅,北京(昌平南邵)何营路8号院,暂无参考均价,18栋,651户,暂无信息 ,塔楼/塔板结合,5.98元/平米/月,北京永胜丰堂物业管理有限公司昌平分公司,暂无信息,116.28877482252385,40.198031369430005
https://bj.lianjia.com/xiaoqu/1111027378608/,南绍教师宿舍,北京(昌平南邵)南绍教师宿舍,暂无参考均价,1栋,16户,暂无信息 ,板楼,0.5元/平米/月,暂无信息,暂无信息,116.28409638791312,40.206812033535186
https://bj.lianjia.com/xiaoqu/1111057093472/,自来水宿舍楼,"北京(昌平南邵)自来水宿舍楼, 白浮泉路48号院",40413,1栋,97户,1985年建成 ,板楼,暂无信息,暂无信息,无,116.2436732532953,40.197910377671924
https://bj.lianjia.com/xiaoqu/1111055165802/,兴昌佳苑,北京(昌平南邵)兴昌佳苑,21660,14栋,2267户,暂无信息 ,塔楼/板楼,1元/平米/月,暂无信息,暂无信息,116.26993770917599,40.19986359837184
https://bj.lianjia.com/xiaoqu/1120032612339922/,中关村昌平园科技大厦,北京(昌平南邵)创新路27号,暂无参考均价,1栋,1户,暂无信息 ,板楼,暂无信息,暂无信息,暂无信息,116.2338185087535,40.19486665785879
https://bj.lianjia.com/xiaoqu/1111062903681/,龙湖滟澜新宸西区,北京(昌平沙河)能源西街2号院,46777,38栋,1459户,2014年建成 ,板楼,4.28至7.28元/平米/月,北京龙湖物业管理公司,北京锦昊万华置业有限公司,116.23831302327035,40.15253664042758
https://bj.lianjia.com/xiaoqu/1111027375908/,北街家园五区,北京(昌平沙河)北街家园,48759,5栋,1127户,2009年建成 ,板楼,2.2元/平米/月,北京罗顿物业管理有限公司,北京罗顿沙河建设发展有限公司,116.26343507847139,40.1646812071373
https://bj.lianjia.com/xiaoqu/1111058990176/,北街家园三区,北京(昌平沙河)北街家园,33653,21栋,74户,2004年建成 ,板楼,0.5至2.8元/平米/月,北京罗顿物业管理有限公司,北京罗顿沙河建设发展有限公司,116.25956547726717,40.16403480725609
https://bj.lianjia.com/xiaoqu/1111027376252/,北一街8号,北京(昌平沙河)北街家园B区,38103,32栋,661户,2005年建成 ,板楼,2.2至2.8元/平米/月,北京罗顿物业管理有限公司,北京罗顿沙河建设发展有限公司,116.2644622956884,40.16227103855606
https://bj.lianjia.com/xiaoqu/1111027379665/,善缘嘉园四期,北京(昌平沙河)善缘嘉园四期,20125,5栋,254户,2004年建成 ,塔楼/板楼,1.5元/平米/月,北京都市新缘物业管理有限公司,无开发商,116.31649663894717,40.16942957575838
https://bj.lianjia.com/xiaoqu/1111027379310/,沙河镇南一村,北京(昌平沙河)沙河镇南一村,36704,9栋,367户,1982年建成 ,板楼/塔板结合,0.8至2.4元/平米/月,保利物业,保利集团,116.26594117341652,40.122165565556124
https://bj.lianjia.com/xiaoqu/1111027380219/,五福家园,"北京(昌平沙河)五福家园, 百沙路199号院",36913,39栋,1932户,2000年建成 ,板楼,0.5至1.8元/平米/月,自持物业,暂无信息,116.25970902836428,40.144629639281234
https://bj.lianjia.com/xiaoqu/1111027379311/,沙河展思门,"北京(昌平沙河)沙河展思门路2号, 展思门路74号院",34687,11栋,575户,1980年建成 ,板楼/塔板结合,0.5元/平米/月,北京兴中建物业管理有限公司,无,116.26894283798833,40.13215131673794
https://bj.lianjia.com/xiaoqu/1111027382480/,中海瓦尔登湖,北京(昌平沙河)定泗路18号院,58357,127栋,182户,2003年建成 ,板楼,3.2至6元/平米/月,北京中海物业管理有限公司,北京中海地产有限公司,116.30972054953892,40.11358803944458
https://bj.lianjia.com/xiaoqu/1111043209553/,北街家园七区,北京(昌平沙河)北街家园七区,48182,6栋,1161户,2010年建成 ,板楼,2.2元/平米/月,北京罗顿物业管理有限公司,北京罗顿沙河建设发展有限公司,116.25236881905481,40.1610466798041
